Time	Roll	Pitch	Yaw	ForceX	ForceY	ForceZ	TorqueRoll	TorquePitch	TorqueYaw	PWM0	PWM1	PWM2	PWM3	PWM4	PWM5	
69	0	1	2	3	4	5	6	7	8	9	10	11	12	13	14
69	0	1	0	3	4	5	6	7	8	9	10	11	12	13	14
79	0.0818275	0.0351947	0	3	4	5	6	7	8	9	10	11	12	13	14
89	0.0818893	0.0351947	0	3	4	5	6	7	8	9	10	11	12	13	14
89	0.0818893	0.0351947	0.0255115	3	4	5	6	7	8	9	10	11	12	13	14
99	0.0819285	0.0352156	0.0255115	3	4	5	6	7	8	9	10	11	12	13	14
109	0.0820046	0.0351506	0.0255469	3	4	5	6	7	8	9	10	11	12	13	14
119	0.0820262	0.0351915	0.0256008	3	4	5	6	7	8	9	10	11	12	13	14
129	0.082131	0.0352295	0.0255843	3	4	5	6	7	8	9	10	11	12	13	14
139	0.0821434	0.0351998	0.0255917	3	4	5	6	7	8	9	10	11	12	13	14
149	0.0821538	0.0351856	0.0256792	3	4	5	6	7	8	9	10	11	12	13	14
159	0.0821804	0.0352058	0.0257189	3	4	5	6	7	8	9	10	11	12	13	14
169	0.0821964	0.0352533	0.0256579	3	4	5	6	7	8	9	10	11	12	13	14
179	0.0822153	0.0351757	0.0256372	3	4	5	6	7	8	9	10	11	12	13	14
190	0.0822097	0.0351916	0.0256671	3	4	5	6	7	8	9	10	11	12	13	14
200	0.0822356	0.0351816	0.0257194	3	4	5	6	7	8	9	10	11	12	13	14
210	0.0822559	0.035141	0.0257421	3	4	5	6	7	8	9	10	11	12	13	14
220	0.0822881	0.0351575	0.0257084	3	4	5	6	7	8	9	10	11	12	13	14
230	0.0822929	0.035191	0.0257443	3	4	5	6	7	8	9	10	11	12	13	14
240	0.0822863	0.0351665	0.025712	3	4	5	6	7	8	9	10	11	12	13	14
250	0.0823381	0.035153	0.0257241	3	4	5	6	7	8	9	10	11	12	13	14
260	0.0823631	0.0351261	0.025732	3	4	5	6	7	8	9	10	11	12	13	14
270	0.0824194	0.0350821	0.0256941	3	4	5	6	7	8	9	10	11	12	13	14
280	0.0824052	0.0350684	0.0257279	3	4	5	6	7	8	9	10	11	12	13	14
290	0.0824133	0.0350647	0.025712	3	4	5	6	7	8	9	10	11	12	13	14
300	0.0824114	0.0351594	0.0257583	3	4	5	6	7	8	9	10	11	12	13	14
310	0.0824318	0.0351456	0.0257655	3	4	5	6	7	8	9	10	11	12	13	14
320	0.0824852	0.0350921	0.0257124	3	4	5	6	7	8	9	10	11	12	13	14
330	0.0824842	0.0350897	0.0257681	3	4	5	6	7	8	9	10	11	12	13	14
341	0.0825172	0.0351822	0.0256936	3	4	5	6	7	8	9	10	11	12	13	14
351	0.0825913	0.0352247	0.0257293	3	4	5	6	7	8	9	10	11	12	13	14
361	0.0826348	0.0352272	0.0257101	3	4	5	6	7	8	9	10	11	12	13	14
371	0.0826747	0.0352332	0.0257157	3	4	5	6	7	8	9	10	11	12	13	14
381	0.0826727	0.0352496	0.0256722	3	4	5	6	7	8	9	10	11	12	13	14
391	0.0826712	0.0352288	0.0257322	3	4	5	6	7	8	9	10	11	12	13	14
401	0.0827166	0.0352628	0.0257182	3	4	5	6	7	8	9	10	11	12	13	14
411	0.0828038	0.0352464	0.0257609	3	4	5	6	7	8	9	10	11	12	13	14
421	0.0828671	0.0352153	0.0257822	3	4	5	6	7	8	9	10	11	12	13	14
431	0.0829326	0.0352066	0.0257728	3	4	5	6	7	8	9	10	11	12	13	14
441	0.0829652	0.0351343	0.0257659	3	4	5	6	7	8	9	10	11	12	13	14
451	0.0829846	0.0351242	0.0257504	3	4	5	6	7	8	9	10	11	12	13	14
461	0.0830702	0.0350819	0.0257498	3	4	5	6	7	8	9	10	11	12	13	14
471	0.0831601	0.0350668	0.0257699	3	4	5	6	7	8	9	10	11	12	13	14
481	0.0832157	0.0350299	0.0257758	3	4	5	6	7	8	9	10	11	12	13	14
492	0.083247	0.0350581	0.0257721	3	4	5	6	7	8	9	10	11	12	13	14
502	0.0832922	0.0350226	0.0257223	3	4	5	6	7	8	9	10	11	12	13	14
512	0.0833439	0.0350055	0.0257032	3	4	5	6	7	8	9	10	11	12	13	14
522	0.0833765	0.0349661	0.0256896	3	4	5	6	7	8	9	10	11	12	13	14
532	0.0834753	0.0350363	0.0256972	3	4	5	6	7	8	9	10	11	12	13	14
542	0.083544	0.0350773	0.0257246	3	4	5	6	7	8	9	10	11	12	13	14
552	0.0835584	0.0351338	0.0256912	3	4	5	6	7	8	9	10	11	12	13	14
562	0.0836577	0.0351754	0.0256258	3	4	5	6	7	8	9	10	11	12	13	14
572	0.0836754	0.0351895	0.025613	3	4	5	6	7	8	9	10	11	12	13	14
582	0.0836889	0.0351734	0.0256587	3	4	5	6	7	8	9	10	11	12	13	14
592	0.0837644	0.0352391	0.0256907	3	4	5	6	7	8	9	10	11	12	13	14
602	0.0837888	0.0352418	0.0257645	3	4	5	6	7	8	9	10	11	12	13	14
612	0.0839067	0.0353352	0.0258505	3	4	5	6	7	8	9	10	11	12	13	14
622	0.0839643	0.0353671	0.0258097	3	4	5	6	7	8	9	10	11	12	13	14
633	0.0840093	0.0353696	0.0258041	3	4	5	6	7	8	9	10	11	12	13	14
643	0.0841818	0.0353938	0.0259078	3	4	5	6	7	8	9	10	11	12	13	14
653	0.0842436	0.0354662	0.0259327	3	4	5	6	7	8	9	10	11	12	13	14
663	0.084305	0.0354859	0.0259468	3	4	5	6	7	8	9	10	11	12	13	14
673	0.0843615	0.0354584	0.0260619	3	4	5	6	7	8	9	10	11	12	13	14
683	0.0843906	0.0354155	0.0260315	3	4	5	6	7	8	9	10	11	12	13	14
693	0.0843651	0.0354259	0.0260219	3	4	5	6	7	8	9	10	11	12	13	14
703	0.0843365	0.0353949	0.0260349	3	4	5	6	7	8	9	10	11	12	13	14
713	0.0843928	0.0353998	0.0260118	3	4	5	6	7	8	9	10	11	12	13	14
723	0.0844483	0.0353961	0.026012	3	4	5	6	7	8	9	10	11	12	13	14
733	0.084478	0.0354283	0.0259818	3	4	5	6	7	8	9	10	11	12	13	14
743	0.084445	0.0354119	0.0260104	3	4	5	6	7	8	9	10	11	12	13	14
753	0.0845135	0.0354289	0.0260383	3	4	5	6	7	8	9	10	11	12	13	14
763	0.084567	0.035506	0.0259517	3	4	5	6	7	8	9	10	11	12	13	14
774	0.0845609	0.0354595	0.0259156	3	4	5	6	7	8	9	10	11	12	13	14
784	0.0846662	0.0354927	0.0258687	3	4	5	6	7	8	9	10	11	12	13	14
794	0.0847106	0.0354854	0.025864	3	4	5	6	7	8	9	10	11	12	13	14
804	0.0847089	0.0354683	0.0258308	3	4	5	6	7	8	9	10	11	12	13	14
814	0.0847681	0.0354885	0.0257844	3	4	5	6	7	8	9	10	11	12	13	14
824	0.0847629	0.0354262	0.0257247	3	4	5	6	7	8	9	10	11	12	13	14
834	0.0848228	0.0353898	0.0256918	3	4	5	6	7	8	9	10	11	12	13	14
844	0.0824138	0.0354708	0.0257212	3	4	5	6	7	8	9	10	11	12	13	14
854	0.0824251	0.0354331	0.0257034	3	4	5	6	7	8	9	10	11	12	13	14
864	0.0824583	0.0354159	0.0257019	3	4	5	6	7	8	9	10	11	12	13	14
874	0.0825574	0.0354488	0.0257676	3	4	5	6	7	8	9	10	11	12	13	14
884	0.0825545	0.0354593	0.0257907	3	4	5	6	7	8	9	10	11	12	13	14
894	0.0826147	0.0354552	0.0258326	3	4	5	6	7	8	9	10	11	12	13	14
904	0.0827253	0.0354932	0.0258616	3	4	5	6	7	8	9	10	11	12	13	14
915	0.0827813	0.0355384	0.025907	3	4	5	6	7	8	9	10	11	12	13	14
925	0.0828554	0.0356146	0.0258815	3	4	5	6	7	8	9	10	11	12	13	14
935	0.0829314	0.0356264	0.0258904	3	4	5	6	7	8	9	10	11	12	13	14
945	0.0829817	0.0357001	0.0259347	3	4	5	6	7	8	9	10	11	12	13	14
955	0.0830565	0.0357538	0.0259173	3	4	5	6	7	8	9	10	11	12	13	14
965	0.0830987	0.035797	0.0259146	3	4	5	6	7	8	9	10	11	12	13	14
975	0.0831402	0.0358136	0.0258802	3	4	5	6	7	8	9	10	11	12	13	14
985	0.0832147	0.035909	0.0259391	3	4	5	6	7	8	9	10	11	12	13	14
995	0.0832159	0.0358695	0.0258987	3	4	5	6	7	8	9	10	11	12	13	14
1005	0.0832835	0.0358921	0.0259137	3	4	5	6	7	8	9	10	11	12	13	14
1015	0.0833674	0.0358892	0.0259359	3	4	5	6	7	8	9	10	11	12	13	14
1025	0.0834634	0.0358901	0.0259775	3	4	5	6	7	8	9	10	11	12	13	14
1036	0.0835074	0.0359275	0.0260147	3	4	5	6	7	8	9	10	11	12	13	14
1046	0.0835848	0.0359332	0.0260313	3	4	5	6	7	8	9	10	11	12	13	14
1056	0.083644	0.0359376	0.026088	3	4	5	6	7	8	9	10	11	12	13	14
1066	0.0836589	0.0359474	0.0261206	3	4	5	6	7	8	9	10	11	12	13	14
1076	0.0836928	0.0359469	0.0261283	3	4	5	6	7	8	9	10	11	12	13	14
1086	0.0838288	0.0359743	0.0261089	3	4	5	6	7	8	9	10	11	12	13	14
1096	0.0838381	0.0359912	0.0260539	3	4	5	6	7	8	9	10	11	12	13	14
1106	0.0838894	0.0360058	0.026068	3	4	5	6	7	8	9	10	11	12	13	14
1116	0.0839389	0.0361029	0.0261049	3	4	5	6	7	8	9	10	11	12	13	14
1126	0.0839998	0.0362121	0.026139	3	4	5	6	7	8	9	10	11	12	13	14
1136	0.0840454	0.0362485	0.0261134	3	4	5	6	7	8	9	10	11	12	13	14
1146	0.0840629	0.0362478	0.0261087	3	4	5	6	7	8	9	10	11	12	13	14
1156	0.0841039	0.036241	0.0261912	3	4	5	6	7	8	9	10	11	12	13	14
1166	0.0840999	0.0362781	0.0261689	3	4	5	6	7	8	9	10	11	12	13	14
1177	0.0841562	0.0362642	0.0262108	3	4	5	6	7	8	9	10	11	12	13	14
1187	0.0841974	0.0362618	0.0262613	3	4	5	6	7	8	9	10	11	12	13	14
1197	0.0842563	0.0362627	0.0262634	3	4	5	6	7	8	9	10	11	12	13	14
1207	0.0843409	0.0362705	0.026249	3	4	5	6	7	8	9	10	11	12	13	14
1217	0.0844042	0.0363014	0.0262749	3	4	5	6	7	8	9	10	11	12	13	14
1227	0.0845042	0.0363257	0.0262984	3	4	5	6	7	8	9	10	11	12	13	14
1237	0.084539	0.0364207	0.0263004	3	4	5	6	7	8	9	10	11	12	13	14
1247	0.0845763	0.0364637	0.0263381	3	4	5	6	7	8	9	10	11	12	13	14
1257	0.0845459	0.0365117	0.026375	3	4	5	6	7	8	9	10	11	12	13	14
1267	0.0846068	0.0365243	0.0263728	3	4	5	6	7	8	9	10	11	12	13	14
1277	0.0846764	0.0365858	0.0263626	3	4	5	6	7	8	9	10	11	12	13	14
1288	0.084725	0.0366094	0.0264433	3	4	5	6	7	8	9	10	11	12	13	14
1298	0.0847807	0.0366061	0.0264526	3	4	5	6	7	8	9	10	11	12	13	14
1308	0.0848511	0.0366396	0.0264653	3	4	5	6	7	8	9	10	11	12	13	14
1318	0.0849396	0.0366507	0.0264918	3	4	5	6	7	8	9	10	11	12	13	14
1328	0.0850216	0.0366348	0.0265269	3	4	5	6	7	8	9	10	11	12	13	14
1338	0.085066	0.0365403	0.026541	3	4	5	6	7	8	9	10	11	12	13	14
1348	0.0850377	0.0365539	0.0265446	3	4	5	6	7	8	9	10	11	12	13	14
1358	0.0851117	0.0365913	0.026574	3	4	5	6	7	8	9	10	11	12	13	14
1368	0.0851222	0.0365095	0.0266302	3	4	5	6	7	8	9	10	11	12	13	14
1378	0.0851877	0.0365337	0.0266147	3	4	5	6	7	8	9	10	11	12	13	14
1388	0.0852557	0.0365868	0.0266202	3	4	5	6	7	8	9	10	11	12	13	14
1398	0.0852493	0.0366104	0.0266307	3	4	5	6	7	8	9	10	11	12	13	14
1408	0.0853486	0.036682	0.0266651	3	4	5	6	7	8	9	10	11	12	13	14
1418	0.0854504	0.0367303	0.0267209	3	4	5	6	7	8	9	10	11	12	13	14
1429	0.0854883	0.0367406	0.0267687	3	4	5	6	7	8	9	10	11	12	13	14
1439	0.0854827	0.0368118	0.0267845	3	4	5	6	7	8	9	10	11	12	13	14
1449	0.0854921	0.0368291	0.0267893	3	4	5	6	7	8	9	10	11	12	13	14
1459	0.085507	0.0368495	0.0267918	3	4	5	6	7	8	9	10	11	12	13	14
1469	0.0855494	0.0368471	0.0268387	3	4	5	6	7	8	9	10	11	12	13	14
1479	0.085589	0.0367805	0.0268768	3	4	5	6	7	8	9	10	11	12	13	14
1489	0.0856648	0.0368601	0.0268716	3	4	5	6	7	8	9	10	11	12	13	14
1499	0.0857627	0.0368132	0.0268645	3	4	5	6	7	8	9	10	11	12	13	14
1509	0.0858548	0.0368573	0.0268891	3	4	5	6	7	8	9	10	11	12	13	14
1519	0.0859101	0.0368542	0.026863	3	4	5	6	7	8	9	10	11	12	13	14
1529	0.0860415	0.0369103	0.0269391	3	4	5	6	7	8	9	10	11	12	13	14
1539	0.086111	0.0369214	0.0270142	3	4	5	6	7	8	9	10	11	12	13	14
1549	0.0861196	0.0369556	0.0270326	3	4	5	6	7	8	9	10	11	12	13	14
1559	0.0861638	0.0369887	0.0270981	3	4	5	6	7	8	9	10	11	12	13	14
1570	0.0862222	0.0369587	0.0271038	3	4	5	6	7	8	9	10	11	12	13	14
1580	0.0862897	0.0369637	0.0271332	3	4	5	6	7	8	9	10	11	12	13	14
1590	0.0863015	0.0369297	0.0271536	3	4	5	6	7	8	9	10	11	12	13	14
1600	0.0863058	0.0369677	0.0271202	3	4	5	6	7	8	9	10	11	12	13	14
1610	0.0863808	0.0369403	0.0271009	3	4	5	6	7	8	9	10	11	12	13	14
1620	0.0864208	0.0369977	0.0270993	3	4	5	6	7	8	9	10	11	12	13	14
1630	0.0864868	0.0369755	0.0270999	3	4	5	6	7	8	9	10	11	12	13	14
1640	0.0865405	0.0369951	0.027147	3	4	5	6	7	8	9	10	11	12	13	14
1650	0.0866076	0.0370272	0.0272427	3	4	5	6	7	8	9	10	11	12	13	14
1660	0.0866527	0.0370778	0.0272966	3	4	5	6	7	8	9	10	11	12	13	14
1670	0.0866387	0.0370559	0.0273613	3	4	5	6	7	8	9	10	11	12	13	14
1680	0.0866258	0.0370602	0.0273968	3	4	5	6	7	8	9	10	11	12	13	14
1690	0.0867555	0.0371263	0.0274287	3	4	5	6	7	8	9	10	11	12	13	14
1700	0.0868044	0.0371014	0.0274706	3	4	5	6	7	8	9	10	11	12	13	14
1711	0.0868641	0.0370681	0.027514	3	4	5	6	7	8	9	10	11	12	13	14
1721	0.0869559	0.0369427	0.0275564	3	4	5	6	7	8	9	10	11	12	13	14
1731	0.0870148	0.0369563	0.0275813	3	4	5	6	7	8	9	10	11	12	13	14
1741	0.0870148	0.0369563	0.0275813	3	4	5	6	7	8	9	10	11	12	13	14
1751	0.0871072	0.03701	0.027633	3	4	5	6	7	8	9	10	11	12	13	14
1761	0.0871845	0.037053	0.0276787	3	4	5	6	7	8	9	10	11	12	13	14
1771	0.0871959	0.0370322	0.0277267	3	4	5	6	7	8	9	10	11	12	13	14
1781	0.0872485	0.0371008	0.0277392	3	4	5	6	7	8	9	10	11	12	13	14
1791	0.0873276	0.0371355	0.0277696	3	4	5	6	7	8	9	10	11	12	13	14
1801	0.0873591	0.0372044	0.0277689	3	4	5	6	7	8	9	10	11	12	13	14
1811	0.0874041	0.0372221	0.0277744	3	4	5	6	7	8	9	10	11	12	13	14
1821	0.0875038	0.0371788	0.0278156	3	4	5	6	7	8	9	10	11	12	13	14
1831	0.087558	0.0372404	0.0278672	3	4	5	6	7	8	9	10	11	12	13	14
1841	0.0876758	0.0371796	0.0278423	3	4	5	6	7	8	9	10	11	12	13	14
1852	0.0877384	0.037161	0.0278267	3	4	5	6	7	8	9	10	11	12	13	14
1862	0.0878637	0.037129	0.0278091	3	4	5	6	7	8	9	10	11	12	13	14
1872	0.0879163	0.0371132	0.0278771	3	4	5	6	7	8	9	10	11	12	13	14
1882	0.088006	0.0371103	0.0278999	3	4	5	6	7	8	9	10	11	12	13	14
1892	0.0880404	0.0371064	0.0279287	3	4	5	6	7	8	9	10	11	12	13	14
1902	0.0880715	0.0371062	0.027921	3	4	5	6	7	8	9	10	11	12	13	14
1912	0.088087	0.0371204	0.0279188	3	4	5	6	7	8	9	10	11	12	13	14
1922	0.0882233	0.0371326	0.0279767	3	4	5	6	7	8	9	10	11	12	13	14
1932	0.0883255	0.0371904	0.0279872	3	4	5	6	7	8	9	10	11	12	13	14
1942	0.0883699	0.0372519	0.0280187	3	4	5	6	7	8	9	10	11	12	13	14
1952	0.0885087	0.0372982	0.0280243	3	4	5	6	7	8	9	10	11	12	13	14
1962	0.0885503	0.0373435	0.0280499	3	4	5	6	7	8	9	10	11	12	13	14
1972	0.0885943	0.0373157	0.0280545	3	4	5	6	7	8	9	10	11	12	13	14
1982	0.0887064	0.0373365	0.0280535	3	4	5	6	7	8	9	10	11	12	13	14
1993	0.088732	0.0372798	0.0280245	3	4	5	6	7	8	9	10	11	12	13	14
2003	0.0887955	0.0372643	0.0280348	3	4	5	6	7	8	9	10	11	12	13	14
2013	0.0888624	0.0372449	0.027996	3	4	5	6	7	8	9	10	11	12	13	14
2023	0.0889045	0.0372604	0.028062	3	4	5	6	7	8	9	10	11	12	13	14
2033	0.0890101	0.0372442	0.028095	3	4	5	6	7	8	9	10	11	12	13	14
2043	0.089047	0.0372398	0.028046	3	4	5	6	7	8	9	10	11	12	13	14
2053	0.0890804	0.037265	0.0279983	3	4	5	6	7	8	9	10	11	12	13	14
2063	0.0891576	0.0372309	0.0279773	3	4	5	6	7	8	9	10	11	12	13	14
2073	0.089158	0.0372369	0.027988	3	4	5	6	7	8	9	10	11	12	13	14
2083	0.0891577	0.0372945	0.0279293	3	4	5	6	7	8	9	10	11	12	13	14
2093	0.0892825	0.0373295	0.0279437	3	4	5	6	7	8	9	10	11	12	13	14
2103	0.0894183	0.0373958	0.0279448	3	4	5	6	7	8	9	10	11	12	13	14
2113	0.0894568	0.037332	0.027903	3	4	5	6	7	8	9	10	11	12	13	14
2123	0.0895386	0.0373585	0.0280295	3	4	5	6	7	8	9	10	11	12	13	14
2134	0.0895514	0.037409	0.0281031	3	4	5	6	7	8	9	10	11	12	13	14
2144	0.0895927	0.037412	0.0282002	3	4	5	6	7	8	9	10	11	12	13	14
2154	0.0896407	0.037437	0.0281683	3	4	5	6	7	8	9	10	11	12	13	14
2164	0.0896885	0.0374654	0.0281585	3	4	5	6	7	8	9	10	11	12	13	14
2174	0.0897607	0.0374199	0.0281464	3	4	5	6	7	8	9	10	11	12	13	14
2184	0.0897895	0.0374543	0.0281066	3	4	5	6	7	8	9	10	11	12	13	14
2194	0.0897867	0.0373939	0.0280792	3	4	5	6	7	8	9	10	11	12	13	14
2204	0.0899096	0.0373751	0.0281344	3	4	5	6	7	8	9	10	11	12	13	14
2214	0.089971	0.0373353	0.0281895	3	4	5	6	7	8	9	10	11	12	13	14
2224	0.0899639	0.0373862	0.0282401	3	4	5	6	7	8	9	10	11	12	13	14
2234	0.0900857	0.0373973	0.0282116	3	4	5	6	7	8	9	10	11	12	13	14
2244	0.0901632	0.0373866	0.0282336	3	4	5	6	7	8	9	10	11	12	13	14
2254	0.0902408	0.0373793	0.0282582	3	4	5	6	7	8	9	10	11	12	13	14
2264	0.0902282	0.0374121	0.0282957	3	4	5	6	7	8	9	10	11	12	13	14
2274	0.090265	0.0374574	0.0282854	3	4	5	6	7	8	9	10	11	12	13	14
2285	0.0902997	0.0374748	0.028261	3	4	5	6	7	8	9	10	11	12	13	14
2295	0.0903813	0.0374597	0.02828	3	4	5	6	7	8	9	10	11	12	13	14
2305	0.0904339	0.0374464	0.0282047	3	4	5	6	7	8	9	10	11	12	13	14
2315	0.090487	0.0374125	0.0282431	3	4	5	6	7	8	9	10	11	12	13	14
2325	0.0904985	0.0374117	0.0283013	3	4	5	6	7	8	9	10	11	12	13	14
2335	0.090621	0.037445	0.0283361	3	4	5	6	7	8	9	10	11	12	13	14
2345	0.0906258	0.0374163	0.0283458	3	4	5	6	7	8	9	10	11	12	13	14
2355	0.0906855	0.0374593	0.0283352	3	4	5	6	7	8	9	10	11	12	13	14
2365	0.0907615	0.0374763	0.0283287	3	4	5	6	7	8	9	10	11	12	13	14
2375	0.0907815	0.0374942	0.028324	3	4	5	6	7	8	9	10	11	12	13	14
2385	0.0908467	0.0374871	0.0283671	3	4	5	6	7	8	9	10	11	12	13	14
2395	0.0908436	0.0374874	0.0284087	3	4	5	6	7	8	9	10	11	12	13	14
2405	0.09094	0.0375681	0.0284092	3	4	5	6	7	8	9	10	11	12	13	14
2415	0.0909552	0.0374707	0.0284512	3	4	5	6	7	8	9	10	11	12	13	14
2425	0.091001	0.037516	0.0285098	3	4	5	6	7	8	9	10	11	12	13	14
2435	0.0910372	0.0375531	0.0285123	3	4	5	6	7	8	9	10	11	12	13	14
2446	0.0911177	0.0375521	0.0285975	3	4	5	6	7	8	9	10	11	12	13	14
2456	0.0911996	0.0375269	0.0286088	3	4	5	6	7	8	9	10	11	12	13	14
2466	0.0912063	0.0374969	0.0285901	3	4	5	6	7	8	9	10	11	12	13	14
2476	0.0912063	0.0374969	0.0285901	3	4	5	6	7	8	9	10	11	12	13	14
2486	0.091245	0.0375238	0.0286138	3	4	5	6	7	8	9	10	11	12	13	14
2496	0.0912961	0.0375547	0.0285845	3	4	5	6	7	8	9	10	11	12	13	14
2506	0.0913709	0.0375417	0.0286287	3	4	5	6	7	8	9	10	11	12	13	14
2516	0.0914672	0.0375273	0.0286496	3	4	5	6	7	8	9	10	11	12	13	14
2526	0.0914476	0.0375388	0.0286753	3	4	5	6	7	8	9	10	11	12	13	14
2536	0.0915168	0.0375415	0.0286966	3	4	5	6	7	8	9	10	11	12	13	14
2546	0.091656	0.0375712	0.0286955	3	4	5	6	7	8	9	10	11	12	13	14
2556	0.0917119	0.0375837	0.0286719	3	4	5	6	7	8	9	10	11	12	13	14
2566	0.0918146	0.0376841	0.028686	3	4	5	6	7	8	9	10	11	12	13	14
2576	0.0918641	0.0377286	0.0287227	3	4	5	6	7	8	9	10	11	12	13	14
2586	0.0919213	0.0377698	0.0287393	3	4	5	6	7	8	9	10	11	12	13	14
2597	0.0919806	0.0378222	0.0287392	3	4	5	6	7	8	9	10	11	12	13	14
2607	0.0920681	0.0377494	0.028725	3	4	5	6	7	8	9	10	11	12	13	14
2617	0.0921194	0.0377624	0.0287482	3	4	5	6	7	8	9	10	11	12	13	14
2627	0.0921379	0.0377754	0.0287555	3	4	5	6	7	8	9	10	11	12	13	14
2637	0.0921736	0.0377711	0.0287807	3	4	5	6	7	8	9	10	11	12	13	14
2647	0.0921427	0.0377561	0.0288223	3	4	5	6	7	8	9	10	11	12	13	14
2657	0.0922748	0.0378359	0.0288675	3	4	5	6	7	8	9	10	11	12	13	14
2667	0.092369	0.0378564	0.0289049	3	4	5	6	7	8	9	10	11	12	13	14
2677	0.0924145	0.0378912	0.0289377	3	4	5	6	7	8	9	10	11	12	13	14
2687	0.0925006	0.0379319	0.0289848	3	4	5	6	7	8	9	10	11	12	13	14
2697	0.0924996	0.037922	0.0290234	3	4	5	6	7	8	9	10	11	12	13	14
2707	0.0925369	0.0379222	0.0290339	3	4	5	6	7	8	9	10	11	12	13	14
2717	0.092584	0.0378703	0.029003	3	4	5	6	7	8	9	10	11	12	13	14
2727	0.0926105	0.0378602	0.0290201	3	4	5	6	7	8	9	10	11	12	13	14
2738	0.0926435	0.0379038	0.029033	3	4	5	6	7	8	9	10	11	12	13	14
2748	0.092714	0.0379061	0.0290235	3	4	5	6	7	8	9	10	11	12	13	14
2758	0.0927526	0.037922	0.0290205	3	4	5	6	7	8	9	10	11	12	13	14
2768	0.0928509	0.0379122	0.0290456	3	4	5	6	7	8	9	10	11	12	13	14
2778	0.0928509	0.0379122	0.0290456	3	4	5	6	7	8	9	10	11	12	13	14
2788	0.0929316	0.037896	0.0290049	3	4	5	6	7	8	9	10	11	12	13	14
2798	0.0929905	0.0379898	0.0290117	3	4	5	6	7	8	9	10	11	12	13	14
2808	0.0930088	0.0379933	0.0290674	3	4	5	6	7	8	9	10	11	12	13	14
2818	0.0930901	0.0379929	0.0291228	3	4	5	6	7	8	9	10	11	12	13	14
2828	0.0931477	0.0380261	0.0291771	3	4	5	6	7	8	9	10	11	12	13	14
2838	0.09318	0.0380817	0.0292753	3	4	5	6	7	8	9	10	11	12	13	14
2848	0.0932475	0.0380839	0.0293303	3	4	5	6	7	8	9	10	11	12	13	14
2858	0.0932809	0.0380793	0.0293598	3	4	5	6	7	8	9	10	11	12	13	14
2869	0.0933064	0.0380508	0.0293544	3	4	5	6	7	8	9	10	11	12	13	14
2879	0.0933829	0.0380957	0.029365	3	4	5	6	7	8	9	10	11	12	13	14
2889	0.0934347	0.038069	0.0293766	3	4	5	6	7	8	9	10	11	12	13	14
2899	0.0935686	0.0380812	0.0293824	3	4	5	6	7	8	9	10	11	12	13	14
2909	0.0935686	0.0380812	0.0293824	3	4	5	6	7	8	9	10	11	12	13	14
2919	0.0935927	0.0381471	0.0294524	3	4	5	6	7	8	9	10	11	12	13	14
2929	0.0936436	0.0381889	0.0295232	3	4	5	6	7	8	9	10	11	12	13	14
2939	0.0936436	0.0381889	0.0295232	3	4	5	6	7	8	9	10	11	12	13	14
2949	0.0936781	0.0381843	0.029543	3	4	5	6	7	8	9	10	11	12	13	14
2959	0.0937151	0.0381816	0.0295623	3	4	5	6	7	8	9	10	11	12	13	14
2969	0.0937186	0.0381628	0.0296081	3	4	5	6	7	8	9	10	11	12	13	14
2979	0.093739	0.0382022	0.0296639	3	4	5	6	7	8	9	10	11	12	13	14
2989	0.0938434	0.0383113	0.0297478	3	4	5	6	7	8	9	10	11	12	13	14
2999	0.0938805	0.0383486	0.029753	3	4	5	6	7	8	9	10	11	12	13	14
3010	0.0939203	0.0383798	0.029766	3	4	5	6	7	8	9	10	11	12	13	14
3020	0.0939675	0.0384392	0.0297712	3	4	5	6	7	8	9	10	11	12	13	14
3030	0.0941035	0.0384778	0.0297696	3	4	5	6	7	8	9	10	11	12	13	14
3040	0.0942275	0.0385083	0.0297227	3	4	5	6	7	8	9	10	11	12	13	14
3050	0.0942322	0.0384853	0.0297244	3	4	5	6	7	8	9	10	11	12	13	14
3060	0.0942739	0.0384708	0.0297198	3	4	5	6	7	8	9	10	11	12	13	14
3070	0.094373	0.0384423	0.0298672	3	4	5	6	7	8	9	10	11	12	13	14
3080	0.0943845	0.0384087	0.0299661	3	4	5	6	7	8	9	10	11	12	13	14
3090	0.0944349	0.0384343	0.0299623	3	4	5	6	7	8	9	10	11	12	13	14
3100	0.0945221	0.0384234	0.0299796	3	4	5	6	7	8	9	10	11	12	13	14
3110	0.0933312	0.038416	0.0299949	3	4	5	6	7	8	9	10	11	12	13	14
3120	0.0933315	0.0383529	0.0299796	3	4	5	6	7	8	9	10	11	12	13	14
3130	0.0934278	0.0383341	0.0300622	3	4	5	6	7	8	9	10	11	12	13	14
3140	0.0934586	0.0383698	0.0300346	3	4	5	6	7	8	9	10	11	12	13	14
3150	0.0935091	0.0383685	0.0300503	3	4	5	6	7	8	9	10	11	12	13	14
3161	0.093553	0.0383631	0.0300562	3	4	5	6	7	8	9	10	11	12	13	14
3171	0.0936067	0.0383736	0.0300683	3	4	5	6	7	8	9	10	11	12	13	14
3181	0.0936885	0.0383345	0.0300899	3	4	5	6	7	8	9	10	11	12	13	14
3191	0.0937075	0.0383462	0.0301228	3	4	5	6	7	8	9	10	11	12	13	14
3201	0.0937062	0.0383031	0.0301662	3	4	5	6	7	8	9	10	11	12	13	14
3211	0.0936836	0.0382596	0.0301587	3	4	5	6	7	8	9	10	11	12	13	14
3221	0.0936894	0.0382598	0.030159	3	4	5	6	7	8	9	10	11	12	13	14
3231	0.0937245	0.0383003	0.0301759	3	4	5	6	7	8	9	10	11	12	13	14
3241	0.0937245	0.0383003	0.0301759	3	4	5	6	7	8	9	10	11	12	13	14
3251	0.0937809	0.0382203	0.030205	3	4	5	6	7	8	9	10	11	12	13	14
3261	0.0937782	0.0381401	0.0301767	3	4	5	6	7	8	9	10	11	12	13	14
3271	0.0937534	0.0381314	0.0301347	3	4	5	6	7	8	9	10	11	12	13	14
3281	0.0938676	0.0381053	0.030072	3	4	5	6	7	8	9	10	11	12	13	14
3291	0.0938676	0.0381053	0.030072	3	4	5	6	7	8	9	10	11	12	13	14
3302	0.0939073	0.0380701	0.030087	3	4	5	6	7	8	9	10	11	12	13	14
3312	0.0939355	0.0380079	0.0301006	3	4	5	6	7	8	9	10	11	12	13	14
3322	0.0939742	0.0380423	0.0301082	3	4	5	6	7	8	9	10	11	12	13	14
3332	0.0940221	0.0380081	0.0300763	3	4	5	6	7	8	9	10	11	12	13	14
3342	0.0940094	0.0379838	0.0300482	3	4	5	6	7	8	9	10	11	12	13	14
3352	0.0940426	0.0378721	0.0300354	3	4	5	6	7	8	9	10	11	12	13	14
3362	0.0940656	0.0378532	0.0300353	3	4	5	6	7	8	9	10	11	12	13	14
3372	0.0941247	0.0378286	0.0300324	3	4	5	6	7	8	9	10	11	12	13	14
3382	0.0941698	0.0378831	0.0300555	3	4	5	6	7	8	9	10	11	12	13	14
3392	0.0941521	0.0378151	0.0299895	3	4	5	6	7	8	9	10	11	12	13	14
3402	0.0942428	0.0378423	0.0299279	3	4	5	6	7	8	9	10	11	12	13	14
3412	0.0942996	0.0378587	0.0299323	3	4	5	6	7	8	9	10	11	12	13	14
3422	0.0943593	0.0379069	0.0299537	3	4	5	6	7	8	9	10	11	12	13	14
3432	0.0943971	0.0379309	0.0299125	3	4	5	6	7	8	9	10	11	12	13	14
3442	0.0945055	0.0379534	0.0299024	3	4	5	6	7	8	9	10	11	12	13	14
3452	0.0945191	0.0379885	0.0298979	3	4	5	6	7	8	9	10	11	12	13	14
3463	0.0946072	0.0379765	0.0299435	3	4	5	6	7	8	9	10	11	12	13	14
3473	0.0946648	0.0380119	0.0299531	3	4	5	6	7	8	9	10	11	12	13	14
3483	0.0947118	0.0380326	0.030017	3	4	5	6	7	8	9	10	11	12	13	14
3493	0.0947372	0.0380121	0.0301168	3	4	5	6	7	8	9	10	11	12	13	14
3503	0.0947691	0.0380397	0.0301588	3	4	5	6	7	8	9	10	11	12	13	14
3513	0.0948379	0.0380671	0.0301604	3	4	5	6	7	8	9	10	11	12	13	14
3523	0.0949288	0.0380652	0.0301868	3	4	5	6	7	8	9	10	11	12	13	14
3533	0.0949662	0.0380267	0.0301903	3	4	5	6	7	8	9	10	11	12	13	14
3543	0.0949864	0.0380028	0.0302189	3	4	5	6	7	8	9	10	11	12	13	14
3553	0.0949885	0.0380256	0.0302259	3	4	5	6	7	8	9	10	11	12	13	14
3563	0.0949829	0.0379991	0.0302469	3	4	5	6	7	8	9	10	11	12	13	14
3573	0.09505	0.0380323	0.030285	3	4	5	6	7	8	9	10	11	12	13	14
3583	0.09505	0.0380323	0.030285	3	4	5	6	7	8	9	10	11	12	13	14
3593	0.0950493	0.0380436	0.0303326	3	4	5	6	7	8	9	10	11	12	13	14
3603	0.0950873	0.0380133	0.0303906	3	4	5	6	7	8	9	10	11	12	13	14
3613	0.0950571	0.0379813	0.0304281	3	4	5	6	7	8	9	10	11	12	13	14
3624	0.095156	0.0380002	0.0304608	3	4	5	6	7	8	9	10	11	12	13	14
3634	0.0952336	0.0379745	0.0305119	3	4	5	6	7	8	9	10	11	12	13	14
3644	0.095281	0.0379449	0.0305545	3	4	5	6	7	8	9	10	11	12	13	14
3654	0.095281	0.0379449	0.0305545	3	4	5	6	7	8	9	10	11	12	13	14
3664	0.095395	0.0379427	0.0305496	3	4	5	6	7	8	9	10	11	12	13	14
3674	0.0954462	0.0379814	0.0305991	3	4	5	6	7	8	9	10	11	12	13	14
3684	0.0954462	0.0379814	0.0305991	3	4	5	6	7	8	9	10	11	12	13	14
3694	0.0955319	0.0379901	0.0305557	3	4	5	6	7	8	9	10	11	12	13	14
3704	0.0956572	0.0380091	0.0306131	3	4	5	6	7	8	9	10	11	12	13	14
3714	0.0956572	0.0380091	0.0306131	3	4	5	6	7	8	9	10	11	12	13	14
3724	0.0957135	0.0379824	0.0305966	3	4	5	6	7	8	9	10	11	12	13	14
3734	0.0957149	0.0380291	0.0305598	3	4	5	6	7	8	9	10	11	12	13	14
3744	0.0957621	0.0380604	0.0306398	3	4	5	6	7	8	9	10	11	12	13	14
3754	0.0958151	0.0380819	0.0306044	3	4	5	6	7	8	9	10	11	12	13	14
3764	0.0958629	0.0380811	0.0305683	3	4	5	6	7	8	9	10	11	12	13	14
3775	0.0959823	0.0381183	0.030612	3	4	5	6	7	8	9	10	11	12	13	14
3785	0.0959917	0.0381362	0.0306482	3	4	5	6	7	8	9	10	11	12	13	14
3795	0.0961127	0.0381741	0.0307155	3	4	5	6	7	8	9	10	11	12	13	14
3805	0.0961127	0.0381741	0.0307155	3	4	5	6	7	8	9	10	11	12	13	14
3815	0.0962664	0.038178	0.0308556	3	4	5	6	7	8	9	10	11	12	13	14
3825	0.0963131	0.0382121	0.0308862	3	4	5	6	7	8	9	10	11	12	13	14
3835	0.096311	0.038239	0.0309165	3	4	5	6	7	8	9	10	11	12	13	14
3845	0.0963587	0.0382523	0.0310035	3	4	5	6	7	8	9	10	11	12	13	14
3855	0.0964034	0.0382482	0.0310101	3	4	5	6	7	8	9	10	11	12	13	14
3865	0.0964566	0.0382664	0.0310706	3	4	5	6	7	8	9	10	11	12	13	14
3875	0.0965472	0.0382641	0.0311365	3	4	5	6	7	8	9	10	11	12	13	14
3885	0.0966267	0.0382668	0.0311578	3	4	5	6	7	8	9	10	11	12	13	14
3895	0.0966752	0.0382455	0.0311757	3	4	5	6	7	8	9	10	11	12	13	14
3905	0.0966999	0.0382944	0.0312675	3	4	5	6	7	8	9	10	11	12	13	14
3916	0.096762	0.0383296	0.0312417	3	4	5	6	7	8	9	10	11	12	13	14
3926	0.096762	0.0383296	0.0312417	3	4	5	6	7	8	9	10	11	12	13	14
3936	0.0968606	0.0383461	0.0312513	3	4	5	6	7	8	9	10	11	12	13	14
3946	0.0969082	0.0383774	0.0312269	3	4	5	6	7	8	9	10	11	12	13	14
3956	0.0968962	0.038364	0.0312159	3	4	5	6	7	8	9	10	11	12	13	14
3966	0.0969149	0.0383402	0.0312475	3	4	5	6	7	8	9	10	11	12	13	14
3976	0.0969383	0.0383908	0.031305	3	4	5	6	7	8	9	10	11	12	13	14
3986	0.0969962	0.0383504	0.0312629	3	4	5	6	7	8	9	10	11	12	13	14
3996	0.0969803	0.0382892	0.0312694	3	4	5	6	7	8	9	10	11	12	13	14
4006	0.0970072	0.0383009	0.0313189	3	4	5	6	7	8	9	10	11	12	13	14
4016	0.0970072	0.0383009	0.0313189	3	4	5	6	7	8	9	10	11	12	13	14
4026	0.0970684	0.0383224	0.0313862	3	4	5	6	7	8	9	10	11	12	13	14
4036	0.0971299	0.0382987	0.0313888	3	4	5	6	7	8	9	10	11	12	13	14
4046	0.0971428	0.038319	0.0314175	3	4	5	6	7	8	9	10	11	12	13	14
4056	0.0971794	0.0383397	0.0314258	3	4	5	6	7	8	9	10	11	12	13	14
4067	0.0972432	0.038263	0.0314285	3	4	5	6	7	8	9	10	11	12	13	14
4077	0.0972672	0.0382516	0.0314656	3	4	5	6	7	8	9	10	11	12	13	14
4087	0.0972946	0.0382169	0.0314344	3	4	5	6	7	8	9	10	11	12	13	14
4097	0.097309	0.0381859	0.0314576	3	4	5	6	7	8	9	10	11	12	13	14
4107	0.0972854	0.038125	0.0314991	3	4	5	6	7	8	9	10	11	12	13	14
4117	0.0973336	0.0380895	0.0314913	3	4	5	6	7	8	9	10	11	12	13	14
4127	0.0973191	0.0381348	0.0315093	3	4	5	6	7	8	9	10	11	12	13	14
4137	0.0972906	0.0381568	0.0315618	3	4	5	6	7	8	9	10	11	12	13	14
4147	0.0972568	0.0381301	0.0316193	3	4	5	6	7	8	9	10	11	12	13	14
4157	0.0973704	0.0381292	0.0316741	3	4	5	6	7	8	9	10	11	12	13	14
4167	0.0974049	0.0380819	0.0317331	3	4	5	6	7	8	9	10	11	12	13	14
4177	0.0974268	0.038003	0.0317389	3	4	5	6	7	8	9	10	11	12	13	14
4187	0.0975055	0.0380651	0.0317845	3	4	5	6	7	8	9	10	11	12	13	14
4197	0.0975176	0.0381047	0.0318836	3	4	5	6	7	8	9	10	11	12	13	14
4207	0.0975687	0.0380671	0.0318908	3	4	5	6	7	8	9	10	11	12	13	14
4218	0.0976297	0.0380246	0.0319018	3	4	5	6	7	8	9	10	11	12	13	14
4228	0.0977827	0.0380305	0.0318974	3	4	5	6	7	8	9	10	11	12	13	14
4238	0.0978467	0.0380376	0.031973	3	4	5	6	7	8	9	10	11	12	13	14
4248	0.0972911	0.0380453	0.0320315	3	4	5	6	7	8	9	10	11	12	13	14
4258	0.0967036	0.0380538	0.0320547	3	4	5	6	7	8	9	10	11	12	13	14
4268	0.096739	0.038101	0.0320812	3	4	5	6	7	8	9	10	11	12	13	14
4278	0.096785	0.0380429	0.032119	3	4	5	6	7	8	9	10	11	12	13	14
4288	0.0968379	0.0380748	0.0321544	3	4	5	6	7	8	9	10	11	12	13	14
4298	0.0968235	0.0380853	0.0321541	3	4	5	6	7	8	9	10	11	12	13	14
4308	0.0969257	0.0380767	0.0321466	3	4	5	6	7	8	9	10	11	12	13	14
4318	0.0970184	0.0381397	0.0321431	3	4	5	6	7	8	9	10	11	12	13	14
4328	0.097035	0.0380918	0.0321411	3	4	5	6	7	8	9	10	11	12	13	14
4338	0.097035	0.0380918	0.0321411	3	4	5	6	7	8	9	10	11	12	13	14
4348	0.0970822	0.0381129	0.0322316	3	4	5	6	7	8	9	10	11	12	13	14
4358	0.0971195	0.0381627	0.0323064	3	4	5	6	7	8	9	10	11	12	13	14
4369	0.0971691	0.0381088	0.0323149	3	4	5	6	7	8	9	10	11	12	13	14
4379	0.0972564	0.0380815	0.0323337	3	4	5	6	7	8	9	10	11	12	13	14
4389	0.0973019	0.0381095	0.0323545	3	4	5	6	7	8	9	10	11	12	13	14
4399	0.0973444	0.0381723	0.032363	3	4	5	6	7	8	9	10	11	12	13	14
4409	0.0973766	0.0382134	0.0323473	3	4	5	6	7	8	9	10	11	12	13	14
4419	0.0974327	0.0381649	0.0323895	3	4	5	6	7	8	9	10	11	12	13	14
4429	0.0974562	0.0381463	0.0324267	3	4	5	6	7	8	9	10	11	12	13	14
4439	0.0974589	0.0381785	0.0324944	3	4	5	6	7	8	9	10	11	12	13	14
4449	0.0975019	0.0381579	0.0325214	3	4	5	6	7	8	9	10	11	12	13	14
4459	0.0974948	0.0381471	0.0325647	3	4	5	6	7	8	9	10	11	12	13	14
4469	0.0974911	0.0381217	0.0325793	3	4	5	6	7	8	9	10	11	12	13	14
4479	0.0975109	0.0381222	0.0325971	3	4	5	6	7	8	9	10	11	12	13	14
4489	0.0976194	0.0380764	0.0326376	3	4	5	6	7	8	9	10	11	12	13	14
4499	0.0976402	0.0381576	0.0326472	3	4	5	6	7	8	9	10	11	12	13	14
4510	0.0976108	0.0380789	0.032644	3	4	5	6	7	8	9	10	11	12	13	14
4520	0.097632	0.0380775	0.0326983	3	4	5	6	7	8	9	10	11	12	13	14
4530	0.0977234	0.0380379	0.0327366	3	4	5	6	7	8	9	10	11	12	13	14
4540	0.0977224	0.038031	0.0327279	3	4	5	6	7	8	9	10	11	12	13	14
4550	0.0977105	0.0380665	0.0327718	3	4	5	6	7	8	9	10	11	12	13	14
4560	0.0977473	0.0381613	0.032839	3	4	5	6	7	8	9	10	11	12	13	14
4570	0.097781	0.0381672	0.032835	3	4	5	6	7	8	9	10	11	12	13	14
4580	0.0977898	0.0382143	0.032854	3	4	5	6	7	8	9	10	11	12	13	14
4590	0.0977656	0.0382029	0.0329155	3	4	5	6	7	8	9	10	11	12	13	14
4600	0.0977439	0.0381538	0.032926	3	4	5	6	7	8	9	10	11	12	13	14
4610	0.0977394	0.0381408	0.0329737	3	4	5	6	7	8	9	10	11	12	13	14
4620	0.0978091	0.0381698	0.0330063	3	4	5	6	7	8	9	10	11	12	13	14
4630	0.0978091	0.0381698	0.0330063	3	4	5	6	7	8	9	10	11	12	13	14
4640	0.0978983	0.038213	0.033041	3	4	5	6	7	8	9	10	11	12	13	14
4650	0.0978985	0.0381797	0.0330325	3	4	5	6	7	8	9	10	11	12	13	14
4661	0.098045	0.0382215	0.0330714	3	4	5	6	7	8	9	10	11	12	13	14
4671	0.0980373	0.0382204	0.0331744	3	4	5	6	7	8	9	10	11	12	13	14
4681	0.0980989	0.038223	0.0332024	3	4	5	6	7	8	9	10	11	12	13	14
4691	0.0981072	0.0381882	0.0332709	3	4	5	6	7	8	9	10	11	12	13	14
4701	0.0982106	0.0382211	0.0333486	3	4	5	6	7	8	9	10	11	12	13	14
4711	0.098243	0.0381817	0.0333444	3	4	5	6	7	8	9	10	11	12	13	14
4721	0.0982815	0.0381653	0.0334205	3	4	5	6	7	8	9	10	11	12	13	14
4731	0.0983381	0.0381814	0.0334431	3	4	5	6	7	8	9	10	11	12	13	14
4741	0.0983381	0.0381814	0.0334431	3	4	5	6	7	8	9	10	11	12	13	14
4751	0.0983627	0.0381878	0.0334729	3	4	5	6	7	8	9	10	11	12	13	14
4761	0.0983987	0.038199	0.0334689	3	4	5	6	7	8	9	10	11	12	13	14
4771	0.0985212	0.0381768	0.0335198	3	4	5	6	7	8	9	10	11	12	13	14
4781	0.0985128	0.0381825	0.0335565	3	4	5	6	7	8	9	10	11	12	13	14
4791	0.0985527	0.0381294	0.0336199	3	4	5	6	7	8	9	10	11	12	13	14
4801	0.0985734	0.038179	0.0335771	3	4	5	6	7	8	9	10	11	12	13	14
4812	0.0986013	0.0381636	0.0335894	3	4	5	6	7	8	9	10	11	12	13	14
4822	0.0985712	0.038158	0.0336745	3	4	5	6	7	8	9	10	11	12	13	14
4832	0.0985571	0.0381451	0.0336649	3	4	5	6	7	8	9	10	11	12	13	14
4842	0.098591	0.0381618	0.0337347	3	4	5	6	7	8	9	10	11	12	13	14
4852	0.0985777	0.0381766	0.0337523	3	4	5	6	7	8	9	10	11	12	13	14
4862	0.0985752	0.0382069	0.0337754	3	4	5	6	7	8	9	10	11	12	13	14
4872	0.0986396	0.0382492	0.0337838	3	4	5	6	7	8	9	10	11	12	13	14
4882	0.0986844	0.0383068	0.0337208	3	4	5	6	7	8	9	10	11	12	13	14
4892	0.0986763	0.0383396	0.0337672	3	4	5	6	7	8	9	10	11	12	13	14
4902	0.0988138	0.0383711	0.0338201	3	4	5	6	7	8	9	10	11	12	13	14
4912	0.0988611	0.0383541	0.033814	3	4	5	6	7	8	9	10	11	12	13	14
4922	0.0989179	0.0383478	0.0338	3	4	5	6	7	8	9	10	11	12	13	14
4932	0.0989197	0.0383328	0.0337869	3	4	5	6	7	8	9	10	11	12	13	14
4942	0.0989463	0.0383422	0.0337835	3	4	5	6	7	8	9	10	11	12	13	14
4953	0.0989534	0.0384033	0.0338414	3	4	5	6	7	8	9	10	11	12	13	14
4963	0.0989918	0.0384446	0.0339123	3	4	5	6	7	8	9	10	11	12	13	14
4973	0.0990345	0.0384912	0.0339742	3	4	5	6	7	8	9	10	11	12	13	14
4983	0.0990256	0.0385491	0.0340469	3	4	5	6	7	8	9	10	11	12	13	14
4993	0.0989993	0.038555	0.034014	3	4	5	6	7	8	9	10	11	12	13	14
5003	0.0989943	0.0385856	0.0340686	3	4	5	6	7	8	9	10	11	12	13	14
5013	0.0990574	0.0385816	0.0341476	3	4	5	6	7	8	9	10	11	12	13	14
5023	0.0991929	0.0385617	0.0342062	3	4	5	6	7	8	9	10	11	12	13	14
5033	0.099173	0.0385674	0.0342454	3	4	5	6	7	8	9	10	11	12	13	14
5043	0.0991898	0.0385336	0.0343183	3	4	5	6	7	8	9	10	11	12	13	14
5053	0.0992145	0.0385792	0.034305	3	4	5	6	7	8	9	10	11	12	13	14
5063	0.0992515	0.0385934	0.034316	3	4	5	6	7	8	9	10	11	12	13	14
5073	0.0992916	0.0386184	0.0343614	3	4	5	6	7	8	9	10	11	12	13	14
5084	0.0993111	0.0386241	0.0343756	3	4	5	6	7	8	9	10	11	12	13	14
5094	0.0993529	0.0386346	0.0344103	3	4	5	6	7	8	9	10	11	12	13	14
5104	0.0994666	0.0386484	0.0344347	3	4	5	6	7	8	9	10	11	12	13	14
5114	0.0994932	0.0386393	0.034465	3	4	5	6	7	8	9	10	11	12	13	14
5124	0.0995092	0.038671	0.0344746	3	4	5	6	7	8	9	10	11	12	13	14
5134	0.0995393	0.0386871	0.0344674	3	4	5	6	7	8	9	10	11	12	13	14
5144	0.0995791	0.0386545	0.0344411	3	4	5	6	7	8	9	10	11	12	13	14
5154	0.099614	0.0386998	0.034472	3	4	5	6	7	8	9	10	11	12	13	14
5164	0.0995677	0.0386581	0.034459	3	4	5	6	7	8	9	10	11	12	13	14
5174	0.0996213	0.0386446	0.0344605	3	4	5	6	7	8	9	10	11	12	13	14
5184	0.0996852	0.0387241	0.034468	3	4	5	6	7	8	9	10	11	12	13	14
5194	0.0997629	0.0387369	0.0345118	3	4	5	6	7	8	9	10	11	12	13	14
5204	0.0998306	0.0387474	0.0345781	3	4	5	6	7	8	9	10	11	12	13	14
5214	0.0998497	0.038774	0.0345993	3	4	5	6	7	8	9	10	11	12	13	14
5224	0.0998497	0.038774	0.0345993	3	4	5	6	7	8	9	10	11	12	13	14
5235	0.0998761	0.0387374	0.0346401	3	4	5	6	7	8	9	10	11	12	13	14
5245	0.0999324	0.0387367	0.0346638	3	4	5	6	7	8	9	10	11	12	13	14
5255	0.0999732	0.0387054	0.0347578	3	4	5	6	7	8	9	10	11	12	13	14
5265	0.100034	0.0386558	0.0347928	3	4	5	6	7	8	9	10	11	12	13	14
5275	0.100131	0.0386385	0.0348382	3	4	5	6	7	8	9	10	11	12	13	14
5285	0.100087	0.0386297	0.0348478	3	4	5	6	7	8	9	10	11	12	13	14
5295	0.100179	0.0386561	0.0348636	3	4	5	6	7	8	9	10	11	12	13	14
5305	0.100133	0.038602	0.0349218	3	4	5	6	7	8	9	10	11	12	13	14
5315	0.100171	0.0386252	0.0349491	3	4	5	6	7	8	9	10	11	12	13	14
5325	0.100244	0.0386695	0.0350107	3	4	5	6	7	8	9	10	11	12	13	14
5335	0.10025	0.0386801	0.0350026	3	4	5	6	7	8	9	10	11	12	13	14
5345	0.100228	0.0386866	0.0350036	3	4	5	6	7	8	9	10	11	12	13	14
5355	0.100261	0.0387226	0.0350124	3	4	5	6	7	8	9	10	11	12	13	14
5365	0.100326	0.0387383	0.0350889	3	4	5	6	7	8	9	10	11	12	13	14
5375	0.0991215	0.038741	0.0351027	3	4	5	6	7	8	9	10	11	12	13	14
5386	0.0992522	0.0387708	0.035177	3	4	5	6	7	8	9	10	11	12	13	14
5396	0.0992522	0.0387708	0.035177	3	4	5	6	7	8	9	10	11	12	13	14
5406	0.0992404	0.0387456	0.0351926	3	4	5	6	7	8	9	10	11	12	13	14
5416	0.0992405	0.0387235	0.0352735	3	4	5	6	7	8	9	10	11	12	13	14
5426	0.0992754	0.038718	0.0352593	3	4	5	6	7	8	9	10	11	12	13	14
5436	0.0993614	0.0386987	0.0352586	3	4	5	6	7	8	9	10	11	12	13	14
5446	0.0992874	0.0386745	0.0351981	3	4	5	6	7	8	9	10	11	12	13	14
5456	0.0993006	0.0386755	0.0351613	3	4	5	6	7	8	9	10	11	12	13	14
5466	0.0992835	0.0386875	0.0352211	3	4	5	6	7	8	9	10	11	12	13	14
5476	0.0993337	0.0387234	0.0352148	3	4	5	6	7	8	9	10	11	12	13	14
5486	0.0994459	0.0387299	0.0352067	3	4	5	6	7	8	9	10	11	12	13	14
5496	0.0994396	0.0387335	0.0352007	3	4	5	6	7	8	9	10	11	12	13	14
5506	0.0994435	0.03876	0.0352097	3	4	5	6	7	8	9	10	11	12	13	14
5516	0.0994754	0.0387625	0.0352437	3	4	5	6	7	8	9	10	11	12	13	14
5526	0.099555	0.0386868	0.0352721	3	4	5	6	7	8	9	10	11	12	13	14
5537	0.0996177	0.0386586	0.0352383	3	4	5	6	7	8	9	10	11	12	13	14
5547	0.0996674	0.038687	0.0352249	3	4	5	6	7	8	9	10	11	12	13	14
5557	0.0996869	0.0387147	0.0352498	3	4	5	6	7	8	9	10	11	12	13	14
5567	0.099657	0.0387054	0.0352682	3	4	5	6	7	8	9	10	11	12	13	14
5577	0.0997034	0.0387106	0.0353876	3	4	5	6	7	8	9	10	11	12	13	14
5587	0.0997619	0.0387333	0.03542	3	4	5	6	7	8	9	10	11	12	13	14
5597	0.0997507	0.0387381	0.0354116	3	4	5	6	7	8	9	10	11	12	13	14
5607	0.0997758	0.0387182	0.0354249	3	4	5	6	7	8	9	10	11	12	13	14
5617	0.0998053	0.0387432	0.0354246	3	4	5	6	7	8	9	10	11	12	13	14
5627	0.0998698	0.038761	0.0354813	3	4	5	6	7	8	9	10	11	12	13	14
5637	0.0999259	0.0387662	0.0355221	3	4	5	6	7	8	9	10	11	12	13	14
5647	0.0999045	0.038658	0.0356456	3	4	5	6	7	8	9	10	11	12	13	14
5657	0.0999818	0.0386758	0.0356866	3	4	5	6	7	8	9	10	11	12	13	14
5667	0.0999833	0.0386594	0.0356917	3	4	5	6	7	8	9	10	11	12	13	14
5678	0.0999833	0.0386594	0.0356917	3	4	5	6	7	8	9	10	11	12	13	14
5688	0.0999404	0.0386509	0.0357027	3	4	5	6	7	8	9	10	11	12	13	14
5698	0.0999747	0.0386544	0.0358275	3	4	5	6	7	8	9	10	11	12	13	14
5708	0.100058	0.0386469	0.0358368	3	4	5	6	7	8	9	10	11	12	13	14
5718	0.100143	0.0386705	0.0358405	3	4	5	6	7	8	9	10	11	12	13	14
5728	0.100143	0.0386705	0.0358405	3	4	5	6	7	8	9	10	11	12	13	14
5738	0.100129	0.0386367	0.0358603	3	4	5	6	7	8	9	10	11	12	13	14
5748	0.100197	0.0386306	0.0359095	3	4	5	6	7	8	9	10	11	12	13	14
5758	0.100222	0.0386462	0.0359205	3	4	5	6	7	8	9	10	11	12	13	14
5768	0.100216	0.0387928	0.0358508	3	4	5	6	7	8	9	10	11	12	13	14
5778	0.100216	0.038765	0.0358352	3	4	5	6	7	8	9	10	11	12	13	14
5788	0.100275	0.0387371	0.0358209	3	4	5	6	7	8	9	10	11	12	13	14
5798	0.100275	0.0387371	0.0358209	3	4	5	6	7	8	9	10	11	12	13	14
5808	0.100284	0.0386907	0.0358826	3	4	5	6	7	8	9	10	11	12	13	14
5819	0.100355	0.0387276	0.0359456	3	4	5	6	7	8	9	10	11	12	13	14
5829	0.100355	0.0387276	0.0359456	3	4	5	6	7	8	9	10	11	12	13	14
5839	0.100324	0.0387277	0.0359244	3	4	5	6	7	8	9	10	11	12	13	14
5849	0.100314	0.0387327	0.0359842	3	4	5	6	7	8	9	10	11	12	13	14
5859	0.10032	0.0387802	0.0360291	3	4	5	6	7	8	9	10	11	12	13	14
5869	0.100341	0.0387953	0.0360445	3	4	5	6	7	8	9	10	11	12	13	14
5879	0.100375	0.0387664	0.0360234	3	4	5	6	7	8	9	10	11	12	13	14
5889	0.100413	0.038744	0.0360595	3	4	5	6	7	8	9	10	11	12	13	14
5899	0.100426	0.0386664	0.0360894	3	4	5	6	7	8	9	10	11	12	13	14
5909	0.100445	0.0386297	0.0360498	3	4	5	6	7	8	9	10	11	12	13	14
5919	0.100517	0.0386427	0.0361092	3	4	5	6	7	8	9	10	11	12	13	14
5929	0.100641	0.0386959	0.0361347	3	4	5	6	7	8	9	10	11	12	13	14
5939	0.1007	0.03861	0.0361255	3	4	5	6	7	8	9	10	11	12	13	14
5949	0.100716	0.0386084	0.0361773	3	4	5	6	7	8	9	10	11	12	13	14
5960	0.100728	0.0386098	0.0361362	3	4	5	6	7	8	9	10	11	12	13	14
5970	0.100739	0.0386751	0.0361157	3	4	5	6	7	8	9	10	11	12	13	14
5980	0.100765	0.0386744	0.0361832	3	4	5	6	7	8	9	10	11	12	13	14
5990	0.100806	0.0386902	0.0361816	3	4	5	6	7	8	9	10	11	12	13	14
6000	0.100863	0.0387174	0.0362523	3	4	5	6	7	8	9	10	11	12	13	14
6010	0.100964	0.0387527	0.036271	3	4	5	6	7	8	9	10	11	12	13	14
6020	0.101048	0.0387525	0.0363886	3	4	5	6	7	8	9	10	11	12	13	14
6030	0.101077	0.0387147	0.0364378	3	4	5	6	7	8	9	10	11	12	13	14
6040	0.101091	0.0387082	0.0364929	3	4	5	6	7	8	9	10	11	12	13	14
6050	0.101091	0.0387082	0.0364929	3	4	5	6	7	8	9	10	11	12	13	14
6060	0.101119	0.0387149	0.0365255	3	4	5	6	7	8	9	10	11	12	13	14
6070	0.101179	0.038738	0.0365992	3	4	5	6	7	8	9	10	11	12	13	14
6080	0.101251	0.0387414	0.0366798	3	4	5	6	7	8	9	10	11	12	13	14
6090	0.1012	0.0387279	0.0366961	3	4	5	6	7	8	9	10	11	12	13	14
6101	0.101233	0.0387442	0.0367149	3	4	5	6	7	8	9	10	11	12	13	14
6111	0.101233	0.0387442	0.0367149	3	4	5	6	7	8	9	10	11	12	13	14
6121	0.101215	0.0386977	0.0368114	3	4	5	6	7	8	9	10	11	12	13	14
6131	0.101238	0.0387331	0.0368378	3	4	5	6	7	8	9	10	11	12	13	14
6141	0.101251	0.0387219	0.0368867	3	4	5	6	7	8	9	10	11	12	13	14
6151	0.101275	0.0386935	0.0369275	3	4	5	6	7	8	9	10	11	12	13	14
6161	0.101275	0.0386935	0.0369275	3	4	5	6	7	8	9	10	11	12	13	14
6171	0.101377	0.0387897	0.0369389	3	4	5	6	7	8	9	10	11	12	13	14
6181	0.101357	0.0387203	0.0369348	3	4	5	6	7	8	9	10	11	12	13	14
6191	0.101352	0.0386843	0.0369335	3	4	5	6	7	8	9	10	11	12	13	14
6201	0.10134	0.0386763	0.0369394	3	4	5	6	7	8	9	10	11	12	13	14
6211	0.101383	0.0385793	0.0370111	3	4	5	6	7	8	9	10	11	12	13	14
6221	0.101391	0.0385615	0.0370387	3	4	5	6	7	8	9	10	11	12	13	14
6232	0.101385	0.0385557	0.0370316	3	4	5	6	7	8	9	10	11	12	13	14
6242	0.101382	0.0385035	0.0370724	3	4	5	6	7	8	9	10	11	12	13	14
6252	0.101459	0.0385198	0.0370986	3	4	5	6	7	8	9	10	11	12	13	14
6262	0.101459	0.0385198	0.0370986	3	4	5	6	7	8	9	10	11	12	13	14
6272	0.101499	0.0384939	0.0370657	3	4	5	6	7	8	9	10	11	12	13	14
6282	0.101455	0.0384749	0.0370676	3	4	5	6	7	8	9	10	11	12	13	14
6292	0.101471	0.0384351	0.0370629	3	4	5	6	7	8	9	10	11	12	13	14
6302	0.101504	0.0384137	0.0370034	3	4	5	6	7	8	9	10	11	12	13	14
6312	0.101532	0.0384135	0.0370553	3	4	5	6	7	8	9	10	11	12	13	14
6322	0.101625	0.0383886	0.0370816	3	4	5	6	7	8	9	10	11	12	13	14
6332	0.101659	0.0384135	0.0370819	3	4	5	6	7	8	9	10	11	12	13	14
6342	0.101676	0.0384388	0.0370425	3	4	5	6	7	8	9	10	11	12	13	14
6352	0.101743	0.0384166	0.037046	3	4	5	6	7	8	9	10	11	12	13	14
6362	0.101665	0.0384017	0.0370588	3	4	5	6	7	8	9	10	11	12	13	14
6372	0.101671	0.0384008	0.0370508	3	4	5	6	7	8	9	10	11	12	13	14
6383	0.101623	0.0383651	0.0370651	3	4	5	6	7	8	9	10	11	12	13	14
6393	0.101591	0.0383158	0.0370366	3	4	5	6	7	8	9	10	11	12	13	14
6403	0.101553	0.0383099	0.0370384	3	4	5	6	7	8	9	10	11	12	13	14
6413	0.101585	0.0383087	0.0369969	3	4	5	6	7	8	9	10	11	12	13	14
6423	0.101603	0.0383335	0.0369594	3	4	5	6	7	8	9	10	11	12	13	14
6433	0.101557	0.0383563	0.0370172	3	4	5	6	7	8	9	10	11	12	13	14
6443	0.101683	0.0384851	0.0370848	3	4	5	6	7	8	9	10	11	12	13	14
6453	0.101746	0.0385743	0.0371163	3	4	5	6	7	8	9	10	11	12	13	14
6463	0.101771	0.0385791	0.0371775	3	4	5	6	7	8	9	10	11	12	13	14
6473	0.101791	0.0385905	0.0371792	3	4	5	6	7	8	9	10	11	12	13	14
6483	0.101853	0.0385872	0.0372173	3	4	5	6	7	8	9	10	11	12	13	14
6493	0.10197	0.0386391	0.0372357	3	4	5	6	7	8	9	10	11	12	13	14
6503	0.101962	0.0385889	0.03726	3	4	5	6	7	8	9	10	11	12	13	14
6513	0.101962	0.0385889	0.03726	3	4	5	6	7	8	9	10	11	12	13	14
6523	0.100783	0.0386662	0.0373078	3	4	5	6	7	8	9	10	11	12	13	14
6533	0.100808	0.0386801	0.0373459	3	4	5	6	7	8	9	10	11	12	13	14
6544	0.100764	0.0385897	0.0373863	3	4	5	6	7	8	9	10	11	12	13	14
6554	0.100738	0.0385917	0.0374438	3	4	5	6	7	8	9	10	11	12	13	14
6564	0.100825	0.0385827	0.0375402	3	4	5	6	7	8	9	10	11	12	13	14
6574	0.100825	0.0385827	0.0375402	3	4	5	6	7	8	9	10	11	12	13	14
6584	0.100903	0.0386033	0.0376547	3	4	5	6	7	8	9	10	11	12	13	14
6594	0.100973	0.0386141	0.0377172	3	4	5	6	7	8	9	10	11	12	13	14
6604	0.101064	0.0385933	0.0377536	3	4	5	6	7	8	9	10	11	12	13	14
6614	0.101064	0.0385933	0.0377536	3	4	5	6	7	8	9	10	11	12	13	14
6624	0.101091	0.0385659	0.0378143	3	4	5	6	7	8	9	10	11	12	13	14
6634	0.101081	0.0385899	0.0377835	3	4	5	6	7	8	9	10	11	12	13	14
6644	0.101072	0.0385314	0.0379018	3	4	5	6	7	8	9	10	11	12	13	14
6654	0.101072	0.0385314	0.0379018	3	4	5	6	7	8	9	10	11	12	13	14
6664	0.10123	0.0386308	0.0379111	3	4	5	6	7	8	9	10	11	12	13	14
6674	0.101261	0.0386148	0.0379009	3	4	5	6	7	8	9	10	11	12	13	14
6684	0.101261	0.0386148	0.0379009	3	4	5	6	7	8	9	10	11	12	13	14
6695	0.101324	0.0386483	0.037901	3	4	5	6	7	8	9	10	11	12	13	14
6705	0.101345	0.0386912	0.0378828	3	4	5	6	7	8	9	10	11	12	13	14
6715	0.101371	0.0387104	0.0379219	3	4	5	6	7	8	9	10	11	12	13	14
6725	0.101336	0.0387707	0.0379619	3	4	5	6	7	8	9	10	11	12	13	14
6735	0.101334	0.0387907	0.037977	3	4	5	6	7	8	9	10	11	12	13	14
6745	0.10136	0.0387951	0.0379933	3	4	5	6	7	8	9	10	11	12	13	14
6755	0.101393	0.0387531	0.0379805	3	4	5	6	7	8	9	10	11	12	13	14
6765	0.101418	0.038699	0.0379175	3	4	5	6	7	8	9	10	11	12	13	14
6775	0.101399	0.0387259	0.037921	3	4	5	6	7	8	9	10	11	12	13	14
6785	0.101399	0.0387259	0.037921	3	4	5	6	7	8	9	10	11	12	13	14
6795	0.101366	0.0387165	0.0378908	3	4	5	6	7	8	9	10	11	12	13	14
6805	0.101405	0.0387148	0.0379617	3	4	5	6	7	8	9	10	11	12	13	14
6815	0.101352	0.0387527	0.037944	3	4	5	6	7	8	9	10	11	12	13	14
6825	0.101349	0.038766	0.0379561	3	4	5	6	7	8	9	10	11	12	13	14
6836	0.101351	0.0387596	0.0379493	3	4	5	6	7	8	9	10	11	12	13	14
6846	0.101365	0.0388371	0.0379832	3	4	5	6	7	8	9	10	11	12	13	14
6856	0.101409	0.0388801	0.0380321	3	4	5	6	7	8	9	10	11	12	13	14
6866	0.101374	0.0388453	0.0380373	3	4	5	6	7	8	9	10	11	12	13	14
6876	0.101384	0.0389002	0.037946	3	4	5	6	7	8	9	10	11	12	13	14
6886	0.101384	0.0389002	0.037946	3	4	5	6	7	8	9	10	11	12	13	14
6896	0.101371	0.0389374	0.0379456	3	4	5	6	7	8	9	10	11	12	13	14
6906	0.101427	0.0389496	0.0379121	3	4	5	6	7	8	9	10	11	12	13	14
6916	0.101417	0.038904	0.0380145	3	4	5	6	7	8	9	10	11	12	13	14
6926	0.101459	0.0388614	0.0380308	3	4	5	6	7	8	9	10	11	12	13	14
6936	0.101459	0.0388614	0.0380308	3	4	5	6	7	8	9	10	11	12	13	14
6946	0.101489	0.0388405	0.0380606	3	4	5	6	7	8	9	10	11	12	13	14
6956	0.10151	0.0389	0.0381303	3	4	5	6	7	8	9	10	11	12	13	14
6966	0.101496	0.0388946	0.0381896	3	4	5	6	7	8	9	10	11	12	13	14
6976	0.101506	0.038911	0.0382546	3	4	5	6	7	8	9	10	11	12	13	14
6987	0.101552	0.0389635	0.03829	3	4	5	6	7	8	9	10	11	12	13	14
6997	0.101571	0.039004	0.0382787	3	4	5	6	7	8	9	10	11	12	13	14
7007	0.101551	0.0389918	0.0382947	3	4	5	6	7	8	9	10	11	12	13	14
7017	0.101648	0.0390224	0.0383083	3	4	5	6	7	8	9	10	11	12	13	14
7027	0.101669	0.0390451	0.0382816	3	4	5	6	7	8	9	10	11	12	13	14
7037	0.10171	0.0390613	0.0382884	3	4	5	6	7	8	9	10	11	12	13	14
7047	0.101826	0.0390918	0.0383325	3	4	5	6	7	8	9	10	11	12	13	14
7057	0.101899	0.039088	0.0383895	3	4	5	6	7	8	9	10	11	12	13	14
7067	0.101941	0.0391229	0.0384338	3	4	5	6	7	8	9	10	11	12	13	14
7077	0.101962	0.0391073	0.0384425	3	4	5	6	7	8	9	10	11	12	13	14
7087	0.102002	0.0390905	0.038522	3	4	5	6	7	8	9	10	11	12	13	14
7097	0.102068	0.0391539	0.0385648	3	4	5	6	7	8	9	10	11	12	13	14
7107	0.102068	0.0391539	0.0385648	3	4	5	6	7	8	9	10	11	12	13	14
7117	0.102047	0.0391609	0.0386089	3	4	5	6	7	8	9	10	11	12	13	14
7127	0.102084	0.0391859	0.0386525	3	4	5	6	7	8	9	10	11	12	13	14
7138	0.10216	0.0392864	0.0387574	3	4	5	6	7	8	9	10	11	12	13	14
7148	0.102174	0.039256	0.0387502	3	4	5	6	7	8	9	10	11	12	13	14
7158	0.102251	0.0392875	0.0388127	3	4	5	6	7	8	9	10	11	12	13	14
7168	0.102274	0.0392986	0.038825	3	4	5	6	7	8	9	10	11	12	13	14
7178	0.102295	0.0393031	0.0387879	3	4	5	6	7	8	9	10	11	12	13	14
7188	0.102393	0.0393375	0.0388235	3	4	5	6	7	8	9	10	11	12	13	14
7198	0.102379	0.039366	0.0388129	3	4	5	6	7	8	9	10	11	12	13	14
7208	0.102342	0.0394074	0.0388343	3	4	5	6	7	8	9	10	11	12	13	14
7218	0.102369	0.0393867	0.0388622	3	4	5	6	7	8	9	10	11	12	13	14
7228	0.102367	0.0393717	0.0389487	3	4	5	6	7	8	9	10	11	12	13	14
7238	0.102415	0.0393532	0.0389921	3	4	5	6	7	8	9	10	11	12	13	14
7248	0.102439	0.0393184	0.0390304	3	4	5	6	7	8	9	10	11	12	13	14
7258	0.102426	0.0393215	0.0390426	3	4	5	6	7	8	9	10	11	12	13	14
7268	0.10246	0.0393733	0.0390827	3	4	5	6	7	8	9	10	11	12	13	14
7279	0.102506	0.0394348	0.0391427	3	4	5	6	7	8	9	10	11	12	13	14
7289	0.10254	0.0395074	0.0391647	3	4	5	6	7	8	9	10	11	12	13	14
7299	0.102542	0.0395108	0.0391824	3	4	5	6	7	8	9	10	11	12	13	14
7309	0.102588	0.03949	0.039201	3	4	5	6	7	8	9	10	11	12	13	14
7319	0.102669	0.0394753	0.0392606	3	4	5	6	7	8	9	10	11	12	13	14
7329	0.102808	0.0394678	0.0393285	3	4	5	6	7	8	9	10	11	12	13	14
7339	0.102836	0.0394231	0.0393381	3	4	5	6	7	8	9	10	11	12	13	14
7349	0.102863	0.0394256	0.0392943	3	4	5	6	7	8	9	10	11	12	13	14
7359	0.102899	0.0394422	0.0393197	3	4	5	6	7	8	9	10	11	12	13	14
7369	0.102859	0.0394034	0.039238	3	4	5	6	7	8	9	10	11	12	13	14
7379	0.102887	0.0394014	0.0392718	3	4	5	6	7	8	9	10	11	12	13	14
7389	0.102875	0.0393932	0.0393551	3	4	5	6	7	8	9	10	11	12	13	14
7399	0.102847	0.0393712	0.0393631	3	4	5	6	7	8	9	10	11	12	13	14
7410	0.102908	0.039286	0.0394518	3	4	5	6	7	8	9	10	11	12	13	14
7420	0.10295	0.0392851	0.0394669	3	4	5	6	7	8	9	10	11	12	13	14
7430	0.103021	0.0393299	0.0394835	3	4	5	6	7	8	9	10	11	12	13	14
7440	0.103047	0.0393814	0.0394505	3	4	5	6	7	8	9	10	11	12	13	14
7450	0.103019	0.0394129	0.0394941	3	4	5	6	7	8	9	10	11	12	13	14
7460	0.103063	0.0394206	0.0395124	3	4	5	6	7	8	9	10	11	12	13	14
7470	0.103154	0.0394271	0.0395017	3	4	5	6	7	8	9	10	11	12	13	14
7480	0.10315	0.0395014	0.0394965	3	4	5	6	7	8	9	10	11	12	13	14
7490	0.1032	0.0395697	0.039544	3	4	5	6	7	8	9	10	11	12	13	14
7500	0.103242	0.0396078	0.0395992	3	4	5	6	7	8	9	10	11	12	13	14
7510	0.103229	0.039548	0.0396421	3	4	5	6	7	8	9	10	11	12	13	14
7520	0.103251	0.0395432	0.0396749	3	4	5	6	7	8	9	10	11	12	13	14
7530	0.103315	0.0395353	0.0396934	3	4	5	6	7	8	9	10	11	12	13	14
7540	0.103361	0.0395704	0.0397239	3	4	5	6	7	8	9	10	11	12	13	14
7550	0.10331	0.0395286	0.0397083	3	4	5	6	7	8	9	10	11	12	13	14
7561	0.1034	0.0395615	0.0397093	3	4	5	6	7	8	9	10	11	12	13	14
7571	0.10342	0.0395799	0.0397111	3	4	5	6	7	8	9	10	11	12	13	14
7581	0.103418	0.0396115	0.0396683	3	4	5	6	7	8	9	10	11	12	13	14
7591	0.103433	0.0395724	0.0396894	3	4	5	6	7	8	9	10	11	12	13	14
7601	0.103404	0.0395667	0.0397208	3	4	5	6	7	8	9	10	11	12	13	14
7611	0.103406	0.039497	0.0396812	3	4	5	6	7	8	9	10	11	12	13	14
7621	0.103383	0.0394742	0.0396783	3	4	5	6	7	8	9	10	11	12	13	14
7631	0.103383	0.0394742	0.0396783	3	4	5	6	7	8	9	10	11	12	13	14
7641	0.10338	0.0395434	0.0397877	3	4	5	6	7	8	9	10	11	12	13	14
7651	0.103373	0.0395222	0.0399026	3	4	5	6	7	8	9	10	11	12	13	14
7661	0.10093	0.0395041	0.0399271	3	4	5	6	7	8	9	10	11	12	13	14
7671	0.100988	0.0395333	0.0399754	3	4	5	6	7	8	9	10	11	12	13	14
7681	0.101018	0.0395345	0.0399734	3	4	5	6	7	8	9	10	11	12	13	14
7692	0.101034	0.0395051	0.0400306	3	4	5	6	7	8	9	10	11	12	13	14
7702	0.101081	0.0395043	0.0400607	3	4	5	6	7	8	9	10	11	12	13	14
7712	0.101123	0.0394888	0.0400839	3	4	5	6	7	8	9	10	11	12	13	14
7722	0.101063	0.039538	0.0401094	3	4	5	6	7	8	9	10	11	12	13	14
7732	0.101063	0.039538	0.0401094	3	4	5	6	7	8	9	10	11	12	13	14
7742	0.101077	0.0396044	0.0401084	3	4	5	6	7	8	9	10	11	12	13	14
7752	0.101078	0.0396065	0.0400733	3	4	5	6	7	8	9	10	11	12	13	14
7762	0.101083	0.0396125	0.0401164	3	4	5	6	7	8	9	10	11	12	13	14
7772	0.101081	0.0396294	0.0400713	3	4	5	6	7	8	9	10	11	12	13	14
7782	0.101108	0.0396652	0.0400906	3	4	5	6	7	8	9	10	11	12	13	14
7792	0.101117	0.0396096	0.0400565	3	4	5	6	7	8	9	10	11	12	13	14
7802	0.101122	0.0395349	0.0400042	3	4	5	6	7	8	9	10	11	12	13	14
7812	0.101148	0.0395518	0.040043	3	4	5	6	7	8	9	10	11	12	13	14
7822	0.101188	0.0395326	0.0400936	3	4	5	6	7	8	9	10	11	12	13	14
7832	0.101197	0.039512	0.0400682	3	4	5	6	7	8	9	10	11	12	13	14
7843	0.101212	0.0395171	0.0401168	3	4	5	6	7	8	9	10	11	12	13	14
7853	0.101212	0.0395171	0.0401168	3	4	5	6	7	8	9	10	11	12	13	14
7863	0.101245	0.0395014	0.040227	3	4	5	6	7	8	9	10	11	12	13	14
7873	0.101245	0.0395014	0.040227	3	4	5	6	7	8	9	10	11	12	13	14
7883	0.101463	0.0394661	0.0402227	3	4	5	6	7	8	9	10	11	12	13	14
7893	0.101463	0.0394661	0.0402227	3	4	5	6	7	8	9	10	11	12	13	14
7903	0.101567	0.0394832	0.0402643	3	4	5	6	7	8	9	10	11	12	13	14
7913	0.101646	0.0395819	0.0402826	3	4	5	6	7	8	9	10	11	12	13	14
7923	0.101703	0.039544	0.040282	3	4	5	6	7	8	9	10	11	12	13	14
7933	0.101705	0.0396284	0.0403095	3	4	5	6	7	8	9	10	11	12	13	14
7943	0.101731	0.0395844	0.0403299	3	4	5	6	7	8	9	10	11	12	13	14
7953	0.10178	0.039544	0.0403111	3	4	5	6	7	8	9	10	11	12	13	14
7963	0.101862	0.0395699	0.0403213	3	4	5	6	7	8	9	10	11	12	13	14
7974	0.101908	0.039572	0.0402883	3	4	5	6	7	8	9	10	11	12	13	14
7984	0.102003	0.0395237	0.0404096	3	4	5	6	7	8	9	10	11	12	13	14
7994	0.102101	0.039529	0.0404324	3	4	5	6	7	8	9	10	11	12	13	14
8004	0.102136	0.039496	0.0404642	3	4	5	6	7	8	9	10	11	12	13	14
8014	0.102168	0.0394829	0.04048	3	4	5	6	7	8	9	10	11	12	13	14
8024	0.102259	0.039505	0.0405593	3	4	5	6	7	8	9	10	11	12	13	14
8034	0.102295	0.0395555	0.0405746	3	4	5	6	7	8	9	10	11	12	13	14
8044	0.102478	0.0396104	0.0406687	3	4	5	6	7	8	9	10	11	12	13	14
8054	0.102523	0.0395363	0.0407738	3	4	5	6	7	8	9	10	11	12	13	14
8064	0.102597	0.0395522	0.0408361	3	4	5	6	7	8	9	10	11	12	13	14
8074	0.102649	0.0395342	0.0409194	3	4	5	6	7	8	9	10	11	12	13	14
8084	0.102648	0.0396737	0.0409291	3	4	5	6	7	8	9	10	11	12	13	14
8094	0.102738	0.0397065	0.040964	3	4	5	6	7	8	9	10	11	12	13	14
8104	0.102802	0.0397193	0.0410022	3	4	5	6	7	8	9	10	11	12	13	14
8114	0.102888	0.0397038	0.0410417	3	4	5	6	7	8	9	10	11	12	13	14
8124	0.102951	0.0397294	0.0411339	3	4	5	6	7	8	9	10	11	12	13	14
8135	0.102959	0.0397457	0.0411362	3	4	5	6	7	8	9	10	11	12	13	14
8145	0.102978	0.039734	0.0411519	3	4	5	6	7	8	9	10	11	12	13	14
8155	0.103023	0.0396322	0.0411924	3	4	5	6	7	8	9	10	11	12	13	14
8165	0.103067	0.0395942	0.041254	3	4	5	6	7	8	9	10	11	12	13	14
8175	0.103103	0.0395706	0.0412861	3	4	5	6	7	8	9	10	11	12	13	14
8185	0.103164	0.0395094	0.0413414	3	4	5	6	7	8	9	10	11	12	13	14
8195	0.103201	0.0395568	0.0414297	3	4	5	6	7	8	9	10	11	12	13	14
8205	0.103305	0.0395974	0.0414128	3	4	5	6	7	8	9	10	11	12	13	14
8215	0.103363	0.0397082	0.0414303	3	4	5	6	7	8	9	10	11	12	13	14
8225	0.103409	0.0397198	0.0414711	3	4	5	6	7	8	9	10	11	12	13	14
8235	0.10341	0.0397399	0.0414998	3	4	5	6	7	8	9	10	11	12	13	14
8245	0.103463	0.0397511	0.041465	3	4	5	6	7	8	9	10	11	12	13	14
8255	0.103495	0.0397317	0.0415121	3	4	5	6	7	8	9	10	11	12	13	14
8265	0.103572	0.0398308	0.041488	3	4	5	6	7	8	9	10	11	12	13	14
8275	0.103613	0.0398309	0.0414961	3	4	5	6	7	8	9	10	11	12	13	14
8286	0.103649	0.0398424	0.0414817	3	4	5	6	7	8	9	10	11	12	13	14
8296	0.10369	0.0398572	0.0415993	3	4	5	6	7	8	9	10	11	12	13	14
8306	0.103727	0.0398966	0.0416678	3	4	5	6	7	8	9	10	11	12	13	14
8316	0.103772	0.0398989	0.0417284	3	4	5	6	7	8	9	10	11	12	13	14
8326	0.103753	0.0398974	0.041783	3	4	5	6	7	8	9	10	11	12	13	14
8336	0.103754	0.0398761	0.0418417	3	4	5	6	7	8	9	10	11	12	13	14
8346	0.103783	0.0398276	0.0418368	3	4	5	6	7	8	9	10	11	12	13	14
8356	0.103865	0.0398441	0.0419069	3	4	5	6	7	8	9	10	11	12	13	14
8366	0.103979	0.039834	0.0419284	3	4	5	6	7	8	9	10	11	12	13	14
8376	0.104012	0.0398304	0.0419216	3	4	5	6	7	8	9	10	11	12	13	14
8386	0.10406	0.0398585	0.0419898	3	4	5	6	7	8	9	10	11	12	13	14
8396	0.10406	0.0398585	0.0419898	3	4	5	6	7	8	9	10	11	12	13	14
8406	0.104152	0.0398101	0.0419987	3	4	5	6	7	8	9	10	11	12	13	14
8416	0.104198	0.0397907	0.0419659	3	4	5	6	7	8	9	10	11	12	13	14
8426	0.104231	0.0398575	0.0419185	3	4	5	6	7	8	9	10	11	12	13	14
8437	0.104231	0.0398575	0.0419185	3	4	5	6	7	8	9	10	11	12	13	14
8447	0.104288	0.0398224	0.0418654	3	4	5	6	7	8	9	10	11	12	13	14
8457	0.104305	0.0398124	0.0418051	3	4	5	6	7	8	9	10	11	12	13	14
8467	0.104347	0.0397604	0.0417859	3	4	5	6	7	8	9	10	11	12	13	14
8477	0.10445	0.0397493	0.0418062	3	4	5	6	7	8	9	10	11	12	13	14
8487	0.104483	0.0397898	0.0417649	3	4	5	6	7	8	9	10	11	12	13	14
8497	0.104546	0.0397735	0.0418171	3	4	5	6	7	8	9	10	11	12	13	14
8507	0.104627	0.0397504	0.0418193	3	4	5	6	7	8	9	10	11	12	13	14
8517	0.104691	0.0397071	0.0418189	3	4	5	6	7	8	9	10	11	12	13	14
8527	0.104988	0.0396947	0.0418139	3	4	5	6	7	8	9	10	11	12	13	14
8537	0.105121	0.0397717	0.0417988	3	4	5	6	7	8	9	10	11	12	13	14
8547	0.105207	0.0397517	0.0418296	3	4	5	6	7	8	9	10	11	12	13	14
8557	0.105207	0.0397517	0.0418296	3	4	5	6	7	8	9	10	11	12	13	14
8567	0.105309	0.0396993	0.0419285	3	4	5	6	7	8	9	10	11	12	13	14
8578	0.105309	0.0396993	0.0419285	3	4	5	6	7	8	9	10	11	12	13	14
8588	0.105289	0.0396833	0.0419471	3	4	5	6	7	8	9	10	11	12	13	14
8598	0.105439	0.0396231	0.0420176	3	4	5	6	7	8	9	10	11	12	13	14
8608	0.105492	0.0395643	0.0420347	3	4	5	6	7	8	9	10	11	12	13	14
8618	0.105519	0.0395532	0.0420748	3	4	5	6	7	8	9	10	11	12	13	14
8628	0.105571	0.0395275	0.0421134	3	4	5	6	7	8	9	10	11	12	13	14
8638	0.105644	0.0395484	0.0421401	3	4	5	6	7	8	9	10	11	12	13	14
8648	0.10577	0.0395658	0.0422155	3	4	5	6	7	8	9	10	11	12	13	14
8658	0.105809	0.039517	0.0422237	3	4	5	6	7	8	9	10	11	12	13	14
8668	0.105907	0.0394505	0.0422611	3	4	5	6	7	8	9	10	11	12	13	14
8678	0.105907	0.0394505	0.0422611	3	4	5	6	7	8	9	10	11	12	13	14
8688	0.106153	0.0394438	0.0423348	3	4	5	6	7	8	9	10	11	12	13	14
8699	0.106209	0.039379	0.0424	3	4	5	6	7	8	9	10	11	12	13	14
8709	0.106285	0.0394079	0.0424282	3	4	5	6	7	8	9	10	11	12	13	14
8719	0.106322	0.039338	0.0423976	3	4	5	6	7	8	9	10	11	12	13	14
8729	0.106407	0.039296	0.0424203	3	4	5	6	7	8	9	10	11	12	13	14
8739	0.106439	0.0392605	0.0425098	3	4	5	6	7	8	9	10	11	12	13	14
8749	0.106522	0.0392553	0.0425652	3	4	5	6	7	8	9	10	11	12	13	14
8759	0.106664	0.0393482	0.0425688	3	4	5	6	7	8	9	10	11	12	13	14
8769	0.106679	0.0393383	0.0425526	3	4	5	6	7	8	9	10	11	12	13	14
8779	0.106755	0.039418	0.0426024	3	4	5	6	7	8	9	10	11	12	13	14
8789	0.104405	0.03948	0.0426732	3	4	5	6	7	8	9	10	11	12	13	14
8799	0.104407	0.0394643	0.042716	3	4	5	6	7	8	9	10	11	12	13	14
8809	0.104459	0.0394857	0.042729	3	4	5	6	7	8	9	10	11	12	13	14
8819	0.104529	0.0394974	0.0427728	3	4	5	6	7	8	9	10	11	12	13	14
8829	0.104639	0.0395193	0.0428641	3	4	5	6	7	8	9	10	11	12	13	14
8840	0.104675	0.0394985	0.0428507	3	4	5	6	7	8	9	10	11	12	13	14
8850	0.104679	0.0394934	0.0429044	3	4	5	6	7	8	9	10	11	12	13	14
8860	0.104732	0.0395148	0.0429165	3	4	5	6	7	8	9	10	11	12	13	14
8870	0.104828	0.0395392	0.0429293	3	4	5	6	7	8	9	10	11	12	13	14
8880	0.104881	0.0395403	0.0429796	3	4	5	6	7	8	9	10	11	12	13	14
8890	0.104889	0.0395551	0.042959	3	4	5	6	7	8	9	10	11	12	13	14
8900	0.104963	0.0395491	0.0429296	3	4	5	6	7	8	9	10	11	12	13	14
8910	0.10501	0.0395553	0.0429042	3	4	5	6	7	8	9	10	11	12	13	14
8920	0.105049	0.0395198	0.0429583	3	4	5	6	7	8	9	10	11	12	13	14
8930	0.105161	0.0394252	0.0430163	3	4	5	6	7	8	9	10	11	12	13	14
8940	0.10525	0.0394077	0.0430728	3	4	5	6	7	8	9	10	11	12	13	14
8950	0.105341	0.0394038	0.0431031	3	4	5	6	7	8	9	10	11	12	13	14
8960	0.105438	0.0393828	0.0431791	3	4	5	6	7	8	9	10	11	12	13	14
8970	0.105459	0.0393756	0.0432036	3	4	5	6	7	8	9	10	11	12	13	14
8980	0.105528	0.0393524	0.0432921	3	4	5	6	7	8	9	10	11	12	13	14
8991	0.105585	0.039308	0.0432863	3	4	5	6	7	8	9	10	11	12	13	14
9001	0.105601	0.0393482	0.0432968	3	4	5	6	7	8	9	10	11	12	13	14
9011	0.105701	0.0393867	0.0433133	3	4	5	6	7	8	9	10	11	12	13	14
9021	0.105767	0.0394418	0.04327	3	4	5	6	7	8	9	10	11	12	13	14
9031	0.105915	0.039479	0.0432484	3	4	5	6	7	8	9	10	11	12	13	14
9041	0.105971	0.0394814	0.0432553	3	4	5	6	7	8	9	10	11	12	13	14
9051	0.10605	0.0394868	0.0432783	3	4	5	6	7	8	9	10	11	12	13	14
9061	0.106022	0.0394539	0.043283	3	4	5	6	7	8	9	10	11	12	13	14
9071	0.106112	0.0394499	0.0432938	3	4	5	6	7	8	9	10	11	12	13	14
9081	0.106219	0.0394732	0.0433482	3	4	5	6	7	8	9	10	11	12	13	14
9091	0.106263	0.0395304	0.0433703	3	4	5	6	7	8	9	10	11	12	13	14
9101	0.106283	0.0395229	0.0434127	3	4	5	6	7	8	9	10	11	12	13	14
9111	0.106364	0.0395363	0.0434394	3	4	5	6	7	8	9	10	11	12	13	14
9121	0.106396	0.0395212	0.0434328	3	4	5	6	7	8	9	10	11	12	13	14
9131	0.106555	0.0394709	0.0434647	3	4	5	6	7	8	9	10	11	12	13	14
9142	0.106566	0.0394971	0.0435328	3	4	5	6	7	8	9	10	11	12	13	14
9152	0.1066	0.0395332	0.0435793	3	4	5	6	7	8	9	10	11	12	13	14
9162	0.106745	0.0395477	0.0436124	3	4	5	6	7	8	9	10	11	12	13	14
9172	0.106798	0.0395866	0.0436309	3	4	5	6	7	8	9	10	11	12	13	14
9182	0.106933	0.0395851	0.0436084	3	4	5	6	7	8	9	10	11	12	13	14
9192	0.106985	0.0395568	0.04364	3	4	5	6	7	8	9	10	11	12	13	14
9202	0.107066	0.0395833	0.0436754	3	4	5	6	7	8	9	10	11	12	13	14
9212	0.107166	0.0395348	0.0437555	3	4	5	6	7	8	9	10	11	12	13	14
9222	0.107183	0.0395846	0.0438857	3	4	5	6	7	8	9	10	11	12	13	14
9232	0.107249	0.0396243	0.0439141	3	4	5	6	7	8	9	10	11	12	13	14
9242	0.107297	0.0396034	0.0439563	3	4	5	6	7	8	9	10	11	12	13	14
9252	0.10739	0.039613	0.0440099	3	4	5	6	7	8	9	10	11	12	13	14
9262	0.107522	0.0396743	0.0440474	3	4	5	6	7	8	9	10	11	12	13	14
9272	0.107598	0.0396396	0.044056	3	4	5	6	7	8	9	10	11	12	13	14
9282	0.107673	0.0396552	0.0440901	3	4	5	6	7	8	9	10	11	12	13	14
9293	0.107746	0.0396423	0.0441302	3	4	5	6	7	8	9	10	11	12	13	14
9303	0.107842	0.0396168	0.0441889	3	4	5	6	7	8	9	10	11	12	13	14
9313	0.107885	0.0396085	0.0441719	3	4	5	6	7	8	9	10	11	12	13	14
9323	0.107914	0.0396498	0.0441967	3	4	5	6	7	8	9	10	11	12	13	14
9333	0.107973	0.0396997	0.0442443	3	4	5	6	7	8	9	10	11	12	13	14
9343	0.108088	0.0396777	0.0443043	3	4	5	6	7	8	9	10	11	12	13	14
9353	0.108221	0.0396526	0.0443512	3	4	5	6	7	8	9	10	11	12	13	14
9363	0.108326	0.0396299	0.0443847	3	4	5	6	7	8	9	10	11	12	13	14
9373	0.108403	0.0396528	0.0444226	3	4	5	6	7	8	9	10	11	12	13	14
9383	0.108418	0.0396592	0.0444466	3	4	5	6	7	8	9	10	11	12	13	14
9393	0.108523	0.0397057	0.0444622	3	4	5	6	7	8	9	10	11	12	13	14
9403	0.108575	0.0397136	0.0444141	3	4	5	6	7	8	9	10	11	12	13	14
9413	0.108683	0.0397183	0.0443828	3	4	5	6	7	8	9	10	11	12	13	14
9423	0.10874	0.0397105	0.0443658	3	4	5	6	7	8	9	10	11	12	13	14
9433	0.108837	0.0397431	0.0443511	3	4	5	6	7	8	9	10	11	12	13	14
9444	0.108892	0.0397632	0.0444156	3	4	5	6	7	8	9	10	11	12	13	14
9454	0.109004	0.0397955	0.0444335	3	4	5	6	7	8	9	10	11	12	13	14
9464	0.109035	0.0398854	0.0444621	3	4	5	6	7	8	9	10	11	12	13	14
9474	0.109106	0.0398826	0.0445198	3	4	5	6	7	8	9	10	11	12	13	14
9484	0.109306	0.0399277	0.0445904	3	4	5	6	7	8	9	10	11	12	13	14
9494	0.109423	0.0399011	0.0446072	3	4	5	6	7	8	9	10	11	12	13	14
9504	0.109577	0.0399024	0.0446113	3	4	5	6	7	8	9	10	11	12	13	14
9514	0.109681	0.039936	0.0446766	3	4	5	6	7	8	9	10	11	12	13	14
9524	0.109736	0.0399689	0.0446781	3	4	5	6	7	8	9	10	11	12	13	14
9534	0.109764	0.0399985	0.0447216	3	4	5	6	7	8	9	10	11	12	13	14
9544	0.109861	0.0400947	0.0447758	3	4	5	6	7	8	9	10	11	12	13	14
9554	0.109958	0.0401329	0.0448205	3	4	5	6	7	8	9	10	11	12	13	14
9564	0.109972	0.040109	0.0448715	3	4	5	6	7	8	9	10	11	12	13	14
9574	0.110056	0.0401025	0.04488	3	4	5	6	7	8	9	10	11	12	13	14
9585	0.110139	0.0401476	0.0449114	3	4	5	6	7	8	9	10	11	12	13	14
9595	0.110292	0.0401084	0.0449169	3	4	5	6	7	8	9	10	11	12	13	14
