Time	Roll	Pitch	Yaw	ForceX	ForceY	ForceZ	TorqueRoll	TorquePitch	TorqueYaw	PWM0	PWM1	PWM2	PWM3	PWM4	PWM5	
71	0	1	2	3	4	5	6	7	8	9	10	11	12	13	14
71	0	1	0	3	4	5	6	7	8	9	10	11	12	13	14
81	0.0251984	-0.0451076	0	3	4	5	6	7	8	9	10	11	12	13	14
91	0.0252216	-0.0451076	0	3	4	5	6	7	8	9	10	11	12	13	14
91	0.0252216	-0.0451076	90.958	3	4	5	6	7	8	9	10	11	12	13	14
101	0.0252296	-0.0451302	91.0021	3	4	5	6	7	8	9	10	11	12	13	14
112	0.0252843	-0.0451756	91.0841	3	4	5	6	7	8	9	10	11	12	13	14
122	0.0252658	-0.0451127	91.1471	3	4	5	6	7	8	9	10	11	12	13	14
132	0.025215	-0.0451653	91.2101	3	4	5	6	7	8	9	10	11	12	13	14
142	0.0252173	-0.0451808	91.2543	3	4	5	6	7	8	9	10	11	12	13	14
152	0.0252359	-0.0451203	91.3173	3	4	5	6	7	8	9	10	11	12	13	14
162	0.0251407	-0.0451318	91.4119	3	4	5	6	7	8	9	10	11	12	13	14
172	0.0251913	-0.0451727	91.4623	3	4	5	6	7	8	9	10	11	12	13	14
182	0.0252616	-0.0451454	91.5253	3	4	5	6	7	8	9	10	11	12	13	14
192	0.0253209	-0.0451801	91.5695	3	4	5	6	7	8	9	10	11	12	13	14
202	0.0253765	-0.0452	91.6325	3	4	5	6	7	8	9	10	11	12	13	14
212	0.0254507	-0.0452315	91.7143	3	4	5	6	7	8	9	10	11	12	13	14
222	0.0254858	-0.0453545	91.7773	3	4	5	6	7	8	9	10	11	12	13	14
232	0.0254839	-0.0453724	91.853	3	4	5	6	7	8	9	10	11	12	13	14
242	0.0254983	-0.0454058	91.9035	3	4	5	6	7	8	9	10	11	12	13	14
253	0.0255164	-0.045498	91.9665	3	4	5	6	7	8	9	10	11	12	13	14
263	0.0255014	-0.0455039	92.0295	3	4	5	6	7	8	9	10	11	12	13	14
273	0.0254564	-0.0454892	92.0798	3	4	5	6	7	8	9	10	11	12	13	14
283	0.0255489	-0.0454808	92.1743	3	4	5	6	7	8	9	10	11	12	13	14
293	0.0255714	-0.0454641	92.2373	3	4	5	6	7	8	9	10	11	12	13	14
303	0.0255898	-0.0454771	92.2813	3	4	5	6	7	8	9	10	11	12	13	14
313	0.0255944	-0.0454731	92.3443	3	4	5	6	7	8	9	10	11	12	13	14
323	0.025575	-0.0454672	92.4262	3	4	5	6	7	8	9	10	11	12	13	14
333	0.0256167	-0.0454512	92.5017	3	4	5	6	7	8	9	10	11	12	13	14
343	0.0255812	-0.0454548	92.5522	3	4	5	6	7	8	9	10	11	12	13	14
353	0.0255861	-0.0455021	92.5963	3	4	5	6	7	8	9	10	11	12	13	14
363	0.0255829	-0.0455426	92.6907	3	4	5	6	7	8	9	10	11	12	13	14
373	0.0256652	-0.0454517	92.7537	3	4	5	6	7	8	9	10	11	12	13	14
383	0.0256714	-0.0454759	92.8041	3	4	5	6	7	8	9	10	11	12	13	14
394	0.0257399	-0.0455039	92.8482	3	4	5	6	7	8	9	10	11	12	13	14
404	0.0258115	-0.0455598	92.9112	3	4	5	6	7	8	9	10	11	12	13	14
414	0.0258803	-0.0456459	93.0056	3	4	5	6	7	8	9	10	11	12	13	14
424	0.0259193	-0.0456589	93.0561	3	4	5	6	7	8	9	10	11	12	13	14
434	0.0259415	-0.0456233	93.1191	3	4	5	6	7	8	9	10	11	12	13	14
444	0.0259548	-0.0456274	93.1633	3	4	5	6	7	8	9	10	11	12	13	14
454	0.0259332	-0.0456391	93.2577	3	4	5	6	7	8	9	10	11	12	13	14
464	0.0259021	-0.0456524	93.3208	3	4	5	6	7	8	9	10	11	12	13	14
474	0.0259428	-0.0457118	93.3713	3	4	5	6	7	8	9	10	11	12	13	14
484	0.0260582	-0.0456998	93.4469	3	4	5	6	7	8	9	10	11	12	13	14
494	0.0261334	-0.045699	93.5098	3	4	5	6	7	8	9	10	11	12	13	14
504	0.0261775	-0.0457413	93.5728	3	4	5	6	7	8	9	10	11	12	13	14
514	0.0261634	-0.045777	93.6232	3	4	5	6	7	8	9	10	11	12	13	14
524	0.026184	-0.0457676	93.6673	3	4	5	6	7	8	9	10	11	12	13	14
535	0.0261793	-0.0457471	93.7618	3	4	5	6	7	8	9	10	11	12	13	14
545	0.0261609	-0.0457662	93.8248	3	4	5	6	7	8	9	10	11	12	13	14
555	0.0261524	-0.0458225	93.8752	3	4	5	6	7	8	9	10	11	12	13	14
565	0.0261521	-0.0458005	93.9382	3	4	5	6	7	8	9	10	11	12	13	14
575	0.0262002	-0.0457998	94.0139	3	4	5	6	7	8	9	10	11	12	13	14
585	0.0262886	-0.0458072	94.0769	3	4	5	6	7	8	9	10	11	12	13	14
595	0.0263717	-0.0458135	94.1399	3	4	5	6	7	8	9	10	11	12	13	14
605	0.0264308	-0.0458124	94.2029	3	4	5	6	7	8	9	10	11	12	13	14
615	0.0264635	-0.0458432	94.266	3	4	5	6	7	8	9	10	11	12	13	14
625	0.0264905	-0.0458734	94.329	3	4	5	6	7	8	9	10	11	12	13	14
635	0.0265151	-0.04585	94.3794	3	4	5	6	7	8	9	10	11	12	13	14
645	0.026546	-0.0458951	94.4551	3	4	5	6	7	8	9	10	11	12	13	14
655	0.0265234	-0.0458839	94.5181	3	4	5	6	7	8	9	10	11	12	13	14
665	0.0264921	-0.0459075	94.5684	3	4	5	6	7	8	9	10	11	12	13	14
676	0.0265392	-0.0459328	94.6316	3	4	5	6	7	8	9	10	11	12	13	14
686	0.0266092	-0.0459727	94.7261	3	4	5	6	7	8	9	10	11	12	13	14
696	0.0266489	-0.0459245	94.7702	3	4	5	6	7	8	9	10	11	12	13	14
706	0.026722	-0.0459882	94.8332	3	4	5	6	7	8	9	10	11	12	13	14
716	0.0268023	-0.0460567	94.8962	3	4	5	6	7	8	9	10	11	12	13	14
726	0.0267631	-0.0460841	94.9593	3	4	5	6	7	8	9	10	11	12	13	14
736	0.0267838	-0.046146	95.0224	3	4	5	6	7	8	9	10	11	12	13	14
746	0.0267599	-0.0461516	95.0854	3	4	5	6	7	8	9	10	11	12	13	14
756	0.0267372	-0.0462141	95.1358	3	4	5	6	7	8	9	10	11	12	13	14
766	0.026757	-0.0462588	95.2114	3	4	5	6	7	8	9	10	11	12	13	14
776	0.0268473	-0.0461857	95.2745	3	4	5	6	7	8	9	10	11	12	13	14
786	0.0269241	-0.046161	95.3375	3	4	5	6	7	8	9	10	11	12	13	14
796	0.0269876	-0.046135	95.4006	3	4	5	6	7	8	9	10	11	12	13	14
806	0.0270269	-0.0461866	95.4636	3	4	5	6	7	8	9	10	11	12	13	14
816	0.0270782	-0.0461964	95.5455	3	4	5	6	7	8	9	10	11	12	13	14
827	0.0271345	-0.0461269	95.5897	3	4	5	6	7	8	9	10	11	12	13	14
837	0.0271066	-0.0460864	95.6401	3	4	5	6	7	8	9	10	11	12	13	14
847	0.0270943	-0.0461122	95.7157	3	4	5	6	7	8	9	10	11	12	13	14
857	0.0269542	-0.0460864	95.7976	3	4	5	6	7	8	9	10	11	12	13	14
867	0.0269406	-0.0460968	95.8418	3	4	5	6	7	8	9	10	11	12	13	14
877	0.0269537	-0.0460812	95.9049	3	4	5	6	7	8	9	10	11	12	13	14
887	0.0269885	-0.0460194	95.9679	3	4	5	6	7	8	9	10	11	12	13	14
897	0.0270117	-0.0460402	96.0309	3	4	5	6	7	8	9	10	11	12	13	14
907	0.027018	-0.0460164	96.0939	3	4	5	6	7	8	9	10	11	12	13	14
917	0.0270441	-0.0460132	96.1569	3	4	5	6	7	8	9	10	11	12	13	14
927	0.0269922	-0.0461089	96.2199	3	4	5	6	7	8	9	10	11	12	13	14
937	0.0270573	-0.0461239	96.2829	3	4	5	6	7	8	9	10	11	12	13	14
947	0.0270821	-0.0461502	96.3459	3	4	5	6	7	8	9	10	11	12	13	14
958	0.0269866	-0.0461471	96.4278	3	4	5	6	7	8	9	10	11	12	13	14
968	0.0269825	-0.0462251	96.4908	3	4	5	6	7	8	9	10	11	12	13	14
978	0.0271498	-0.0462366	96.5538	3	4	5	6	7	8	9	10	11	12	13	14
988	0.027201	-0.0462755	96.6293	3	4	5	6	7	8	9	10	11	12	13	14
998	0.0271734	-0.0462693	96.6609	3	4	5	6	7	8	9	10	11	12	13	14
1008	0.0272101	-0.0462742	96.7239	3	4	5	6	7	8	9	10	11	12	13	14
1018	0.027263	-0.0462493	96.7869	3	4	5	6	7	8	9	10	11	12	13	14
1028	0.0272929	-0.046251	96.8689	3	4	5	6	7	8	9	10	11	12	13	14
1038	0.0273532	-0.0462853	96.9319	3	4	5	6	7	8	9	10	11	12	13	14
1048	0.0273664	-0.046273	96.995	3	4	5	6	7	8	9	10	11	12	13	14
1058	0.027422	-0.0462918	97.0391	3	4	5	6	7	8	9	10	11	12	13	14
1068	0.0274452	-0.0463192	97.1022	3	4	5	6	7	8	9	10	11	12	13	14
1078	0.0275433	-0.0463535	97.1967	3	4	5	6	7	8	9	10	11	12	13	14
1089	0.0275943	-0.0463275	97.247	3	4	5	6	7	8	9	10	11	12	13	14
1099	0.0276374	-0.0463832	97.3101	3	4	5	6	7	8	9	10	11	12	13	14
1109	0.0276722	-0.0463384	97.3606	3	4	5	6	7	8	9	10	11	12	13	14
1119	0.0277308	-0.0463654	97.4238	3	4	5	6	7	8	9	10	11	12	13	14
1129	0.0277626	-0.0463882	97.4872	3	4	5	6	7	8	9	10	11	12	13	14
1139	0.0277194	-0.046454	97.563	3	4	5	6	7	8	9	10	11	12	13	14
1149	0.0277179	-0.0465768	97.6264	3	4	5	6	7	8	9	10	11	12	13	14
1159	0.0276207	-0.046572	97.6897	3	4	5	6	7	8	9	10	11	12	13	14
1169	0.0275835	-0.0466107	97.7403	3	4	5	6	7	8	9	10	11	12	13	14
1179	0.0276083	-0.0466323	97.8036	3	4	5	6	7	8	9	10	11	12	13	14
1189	0.0276437	-0.0466392	97.8668	3	4	5	6	7	8	9	10	11	12	13	14
1199	0.0277686	-0.0466492	97.9428	3	4	5	6	7	8	9	10	11	12	13	14
1209	0.0278259	-0.0467186	98.0249	3	4	5	6	7	8	9	10	11	12	13	14
1219	0.0278637	-0.0467341	98.0693	3	4	5	6	7	8	9	10	11	12	13	14
1229	0.0277848	-0.0467416	98.1325	3	4	5	6	7	8	9	10	11	12	13	14
1240	0.0277497	-0.0467386	98.1958	3	4	5	6	7	8	9	10	11	12	13	14
1250	0.0277389	-0.046809	98.2464	3	4	5	6	7	8	9	10	11	12	13	14
1260	0.0277496	-0.0467977	98.3413	3	4	5	6	7	8	9	10	11	12	13	14
1270	0.0278034	-0.0468019	98.4045	3	4	5	6	7	8	9	10	11	12	13	14
1280	0.027865	-0.0467452	98.4677	3	4	5	6	7	8	9	10	11	12	13	14
1290	0.0279479	-0.0467466	98.5119	3	4	5	6	7	8	9	10	11	12	13	14
1300	0.0279672	-0.0467834	98.575	3	4	5	6	7	8	9	10	11	12	13	14
1310	0.0280073	-0.0467695	98.6255	3	4	5	6	7	8	9	10	11	12	13	14
1320	0.0279984	-0.0467872	98.7013	3	4	5	6	7	8	9	10	11	12	13	14
1330	0.0280278	-0.0467047	98.7833	3	4	5	6	7	8	9	10	11	12	13	14
1340	0.0279933	-0.0467261	98.8465	3	4	5	6	7	8	9	10	11	12	13	14
1350	0.0279719	-0.0467256	98.9097	3	4	5	6	7	8	9	10	11	12	13	14
1360	0.0279567	-0.0467217	98.9539	3	4	5	6	7	8	9	10	11	12	13	14
1370	0.027945	-0.0466988	99.0169	3	4	5	6	7	8	9	10	11	12	13	14
1381	0.0280049	-0.0466715	99.08	3	4	5	6	7	8	9	10	11	12	13	14
1391	0.0280542	-0.0466769	99.1621	3	4	5	6	7	8	9	10	11	12	13	14
1401	0.0281177	-0.0467131	99.2378	3	4	5	6	7	8	9	10	11	12	13	14
1411	0.0281164	-0.0467441	99.2883	3	4	5	6	7	8	9	10	11	12	13	14
1421	0.0281739	-0.0467693	99.3325	3	4	5	6	7	8	9	10	11	12	13	14
1431	0.0281656	-0.0467904	99.3956	3	4	5	6	7	8	9	10	11	12	13	14
1441	0.0281266	-0.0467554	99.4587	3	4	5	6	7	8	9	10	11	12	13	14
1451	0.0281071	-0.0467736	99.5219	3	4	5	6	7	8	9	10	11	12	13	14
1461	0.0280662	-0.0468769	99.6165	3	4	5	6	7	8	9	10	11	12	13	14
1471	0.0280585	-0.0468743	99.667	3	4	5	6	7	8	9	10	11	12	13	14
1481	0.0280872	-0.0469153	99.7112	3	4	5	6	7	8	9	10	11	12	13	14
1491	0.028163	-0.0469103	99.7742	3	4	5	6	7	8	9	10	11	12	13	14
1501	0.0282373	-0.0469157	99.8374	3	4	5	6	7	8	9	10	11	12	13	14
1511	0.0282975	-0.0469108	99.9004	3	4	5	6	7	8	9	10	11	12	13	14
1522	0.0283662	-0.0468688	99.9951	3	4	5	6	7	8	9	10	11	12	13	14
1532	0.02837	-0.0468813	100.046	3	4	5	6	7	8	9	10	11	12	13	14
1542	0.0284132	-0.046912	100.121	3	4	5	6	7	8	9	10	11	12	13	14
1552	0.0283687	-0.0468762	100.172	3	4	5	6	7	8	9	10	11	12	13	14
1562	0.0283754	-0.0468868	100.216	3	4	5	6	7	8	9	10	11	12	13	14
1572	0.0283	-0.0468742	100.298	3	4	5	6	7	8	9	10	11	12	13	14
1582	0.0283722	-0.0468996	100.361	3	4	5	6	7	8	9	10	11	12	13	14
1592	0.0284573	-0.0469258	100.424	3	4	5	6	7	8	9	10	11	12	13	14
1602	0.0285052	-0.0469103	100.5	3	4	5	6	7	8	9	10	11	12	13	14
1612	0.0285394	-0.0469113	100.55	3	4	5	6	7	8	9	10	11	12	13	14
1622	0.028511	-0.0469248	100.613	3	4	5	6	7	8	9	10	11	12	13	14
1632	0.0284193	-0.0469941	100.677	3	4	5	6	7	8	9	10	11	12	13	14
1642	0.0284344	-0.0470595	100.721	3	4	5	6	7	8	9	10	11	12	13	14
1652	0.0282814	-0.0470934	100.815	3	4	5	6	7	8	9	10	11	12	13	14
1663	0.0282605	-0.047125	100.879	3	4	5	6	7	8	9	10	11	12	13	14
1673	0.0283316	-0.0471262	100.942	3	4	5	6	7	8	9	10	11	12	13	14
1683	0.0283448	-0.0471097	100.992	3	4	5	6	7	8	9	10	11	12	13	14
1693	0.0283932	-0.047124	101.055	3	4	5	6	7	8	9	10	11	12	13	14
1703	0.028418	-0.0471744	101.099	3	4	5	6	7	8	9	10	11	12	13	14
1713	0.0284341	-0.0472796	101.181	3	4	5	6	7	8	9	10	11	12	13	14
1723	0.0284298	-0.0473061	101.244	3	4	5	6	7	8	9	10	11	12	13	14
1733	0.0284014	-0.0473286	101.32	3	4	5	6	7	8	9	10	11	12	13	14
1743	0.0283871	-0.0473479	101.383	3	4	5	6	7	8	9	10	11	12	13	14
1753	0.0284402	-0.0473459	101.446	3	4	5	6	7	8	9	10	11	12	13	14
1763	0.0284077	-0.0473718	101.509	3	4	5	6	7	8	9	10	11	12	13	14
1773	0.0284773	-0.0473479	101.56	3	4	5	6	7	8	9	10	11	12	13	14
1783	0.0286232	-0.0474184	101.635	3	4	5	6	7	8	9	10	11	12	13	14
1794	0.0286391	-0.0474842	101.699	3	4	5	6	7	8	9	10	11	12	13	14
1804	0.0286502	-0.0474702	101.762	3	4	5	6	7	8	9	10	11	12	13	14
1814	0.028645	-0.0474681	101.825	3	4	5	6	7	8	9	10	11	12	13	14
1824	0.028629	-0.0474579	101.888	3	4	5	6	7	8	9	10	11	12	13	14
1834	0.0286586	-0.0474815	101.938	3	4	5	6	7	8	9	10	11	12	13	14
1844	0.0286469	-0.0475549	102.001	3	4	5	6	7	8	9	10	11	12	13	14
1854	0.0285807	-0.047606	102.077	3	4	5	6	7	8	9	10	11	12	13	14
1864	0.028577	-0.0476671	102.159	3	4	5	6	7	8	9	10	11	12	13	14
1874	0.02863	-0.0476954	102.203	3	4	5	6	7	8	9	10	11	12	13	14
1884	0.0286247	-0.047693	102.254	3	4	5	6	7	8	9	10	11	12	13	14
1894	0.0287608	-0.0476498	102.317	3	4	5	6	7	8	9	10	11	12	13	14
1904	0.0288069	-0.0476244	102.393	3	4	5	6	7	8	9	10	11	12	13	14
1914	0.028776	-0.0476115	102.443	3	4	5	6	7	8	9	10	11	12	13	14
1924	0.0287999	-0.0476451	102.519	3	4	5	6	7	8	9	10	11	12	13	14
1935	0.0287865	-0.0476687	102.601	3	4	5	6	7	8	9	10	11	12	13	14
1945	0.0287579	-0.047675	102.645	3	4	5	6	7	8	9	10	11	12	13	14
1955	0.028693	-0.0476941	102.695	3	4	5	6	7	8	9	10	11	12	13	14
1965	0.0286282	-0.047723	102.758	3	4	5	6	7	8	9	10	11	12	13	14
1975	0.0287156	-0.0478012	102.84	3	4	5	6	7	8	9	10	11	12	13	14
1985	0.0287788	-0.047812	102.916	3	4	5	6	7	8	9	10	11	12	13	14
1995	0.0287912	-0.0478164	102.966	3	4	5	6	7	8	9	10	11	12	13	14
2005	0.028789	-0.0478351	103.029	3	4	5	6	7	8	9	10	11	12	13	14
2015	0.0288333	-0.0478043	103.074	3	4	5	6	7	8	9	10	11	12	13	14
2025	0.0287942	-0.0478162	103.155	3	4	5	6	7	8	9	10	11	12	13	14
2035	0.028711	-0.0478599	103.231	3	4	5	6	7	8	9	10	11	12	13	14
2045	0.0286537	-0.0478888	103.281	3	4	5	6	7	8	9	10	11	12	13	14
2055	0.0285547	-0.0479275	103.344	3	4	5	6	7	8	9	10	11	12	13	14
2066	0.0285162	-0.0479471	103.42	3	4	5	6	7	8	9	10	11	12	13	14
2076	0.0285997	-0.0479741	103.483	3	4	5	6	7	8	9	10	11	12	13	14
2086	0.0285981	-0.0479898	103.546	3	4	5	6	7	8	9	10	11	12	13	14
2096	0.0286428	-0.0479509	103.596	3	4	5	6	7	8	9	10	11	12	13	14
2106	0.02867	-0.0479619	103.659	3	4	5	6	7	8	9	10	11	12	13	14
2116	0.0287211	-0.0479773	103.704	3	4	5	6	7	8	9	10	11	12	13	14
2126	0.0286795	-0.0479799	103.786	3	4	5	6	7	8	9	10	11	12	13	14
2136	0.0286646	-0.0480198	103.861	3	4	5	6	7	8	9	10	11	12	13	14
2146	0.0286624	-0.0480366	103.924	3	4	5	6	7	8	9	10	11	12	13	14
2156	0.0286317	-0.0480304	103.974	3	4	5	6	7	8	9	10	11	12	13	14
2166	0.0286295	-0.0481048	104.037	3	4	5	6	7	8	9	10	11	12	13	14
2176	0.0287362	-0.0481078	104.082	3	4	5	6	7	8	9	10	11	12	13	14
2186	0.0288679	-0.0481046	104.176	3	4	5	6	7	8	9	10	11	12	13	14
2196	0.0288812	-0.0481308	104.239	3	4	5	6	7	8	9	10	11	12	13	14
2207	0.0289221	-0.0481578	104.302	3	4	5	6	7	8	9	10	11	12	13	14
2217	0.0289294	-0.0482617	104.365	3	4	5	6	7	8	9	10	11	12	13	14
2227	0.0289402	-0.048324	104.416	3	4	5	6	7	8	9	10	11	12	13	14
2237	0.028954	-0.0483543	104.479	3	4	5	6	7	8	9	10	11	12	13	14
2247	0.0288968	-0.0483611	104.554	3	4	5	6	7	8	9	10	11	12	13	14
2257	0.0289105	-0.048381	104.617	3	4	5	6	7	8	9	10	11	12	13	14
2267	0.0289313	-0.0483431	104.68	3	4	5	6	7	8	9	10	11	12	13	14
2277	0.0289846	-0.0483435	104.743	3	4	5	6	7	8	9	10	11	12	13	14
2287	0.0290191	-0.0483772	104.794	3	4	5	6	7	8	9	10	11	12	13	14
2297	0.0290855	-0.0483814	104.857	3	4	5	6	7	8	9	10	11	12	13	14
2307	0.0291628	-0.0484188	104.932	3	4	5	6	7	8	9	10	11	12	13	14
2317	0.0291824	-0.04837	105.014	3	4	5	6	7	8	9	10	11	12	13	14
2327	0.0292294	-0.0483944	105.058	3	4	5	6	7	8	9	10	11	12	13	14
2337	0.029198	-0.0484073	105.109	3	4	5	6	7	8	9	10	11	12	13	14
2348	0.0292107	-0.0484385	105.172	3	4	5	6	7	8	9	10	11	12	13	14
2358	0.029213	-0.0484892	105.247	3	4	5	6	7	8	9	10	11	12	13	14
2368	0.029219	-0.0485326	105.298	3	4	5	6	7	8	9	10	11	12	13	14
2378	0.0293578	-0.0485632	105.392	3	4	5	6	7	8	9	10	11	12	13	14
2388	0.0293872	-0.0485803	105.436	3	4	5	6	7	8	9	10	11	12	13	14
2398	0.0294334	-0.0485568	105.499	3	4	5	6	7	8	9	10	11	12	13	14
2408	0.0295159	-0.04854	105.563	3	4	5	6	7	8	9	10	11	12	13	14
2418	0.0295261	-0.0486312	105.644	3	4	5	6	7	8	9	10	11	12	13	14
2428	0.0295375	-0.0486707	105.707	3	4	5	6	7	8	9	10	11	12	13	14
2438	0.0295479	-0.0486495	105.752	3	4	5	6	7	8	9	10	11	12	13	14
2448	0.0295264	-0.0486323	105.808	3	4	5	6	7	8	9	10	11	12	13	14
2458	0.0294299	-0.0487791	105.878	3	4	5	6	7	8	9	10	11	12	13	14
2468	0.0293458	-0.0488038	105.928	3	4	5	6	7	8	9	10	11	12	13	14
2478	0.0294748	-0.0487754	106.004	3	4	5	6	7	8	9	10	11	12	13	14
2489	0.0295324	-0.0487863	106.067	3	4	5	6	7	8	9	10	11	12	13	14
2499	0.0296079	-0.0487615	106.149	3	4	5	6	7	8	9	10	11	12	13	14
2509	0.0296103	-0.048795	106.212	3	4	5	6	7	8	9	10	11	12	13	14
2519	0.0295829	-0.0488125	106.256	3	4	5	6	7	8	9	10	11	12	13	14
2529	0.0295144	-0.0488652	106.319	3	4	5	6	7	8	9	10	11	12	13	14
2539	0.0294958	-0.048889	106.382	3	4	5	6	7	8	9	10	11	12	13	14
2549	0.0294516	-0.0488095	106.445	3	4	5	6	7	8	9	10	11	12	13	14
2559	0.0293916	-0.0488178	106.527	3	4	5	6	7	8	9	10	11	12	13	14
2569	0.0294093	-0.0487741	106.59	3	4	5	6	7	8	9	10	11	12	13	14
2579	0.0294801	-0.0487874	106.653	3	4	5	6	7	8	9	10	11	12	13	14
2589	0.029555	-0.0487644	106.716	3	4	5	6	7	8	9	10	11	12	13	14
2599	0.0296206	-0.0487632	106.779	3	4	5	6	7	8	9	10	11	12	13	14
2609	0.0296731	-0.0487789	106.823	3	4	5	6	7	8	9	10	11	12	13	14
2619	0.0296619	-0.0487841	106.886	3	4	5	6	7	8	9	10	11	12	13	14
2629	0.0296304	-0.0487839	106.949	3	4	5	6	7	8	9	10	11	12	13	14
2640	0.0296977	-0.048798	107.031	3	4	5	6	7	8	9	10	11	12	13	14
2650	0.0297153	-0.0488589	107.094	3	4	5	6	7	8	9	10	11	12	13	14
2660	0.0296976	-0.0489199	107.138	3	4	5	6	7	8	9	10	11	12	13	14
2670	0.0297061	-0.0489735	107.201	3	4	5	6	7	8	9	10	11	12	13	14
2680	0.0297768	-0.0489621	107.283	3	4	5	6	7	8	9	10	11	12	13	14
2690	0.0297215	-0.0489393	107.359	3	4	5	6	7	8	9	10	11	12	13	14
2700	0.0297447	-0.04899	107.409	3	4	5	6	7	8	9	10	11	12	13	14
2710	0.0298076	-0.0490234	107.453	3	4	5	6	7	8	9	10	11	12	13	14
2720	0.029868	-0.0490691	107.516	3	4	5	6	7	8	9	10	11	12	13	14
2730	0.0298312	-0.0491198	107.579	3	4	5	6	7	8	9	10	11	12	13	14
2740	0.0298278	-0.0490783	107.642	3	4	5	6	7	8	9	10	11	12	13	14
2750	0.0297923	-0.049139	107.724	3	4	5	6	7	8	9	10	11	12	13	14
2760	0.0296783	-0.0491349	107.8	3	4	5	6	7	8	9	10	11	12	13	14
2771	0.0297545	-0.0491934	107.85	3	4	5	6	7	8	9	10	11	12	13	14
2781	0.0298553	-0.0491839	107.894	3	4	5	6	7	8	9	10	11	12	13	14
2791	0.0299517	-0.049195	107.957	3	4	5	6	7	8	9	10	11	12	13	14
2801	0.0299977	-0.0492466	108.039	3	4	5	6	7	8	9	10	11	12	13	14
2811	0.0300584	-0.0492231	108.102	3	4	5	6	7	8	9	10	11	12	13	14
2821	0.0300901	-0.049276	108.185	3	4	5	6	7	8	9	10	11	12	13	14
2831	0.0301127	-0.0492925	108.229	3	4	5	6	7	8	9	10	11	12	13	14
2841	0.0300976	-0.0493011	108.292	3	4	5	6	7	8	9	10	11	12	13	14
2851	0.0301132	-0.0493331	108.343	3	4	5	6	7	8	9	10	11	12	13	14
2861	0.0300372	-0.0493905	108.406	3	4	5	6	7	8	9	10	11	12	13	14
2871	0.0300338	-0.0494383	108.482	3	4	5	6	7	8	9	10	11	12	13	14
2881	0.0300836	-0.0494729	108.564	3	4	5	6	7	8	9	10	11	12	13	14
2891	0.030154	-0.0494312	108.628	3	4	5	6	7	8	9	10	11	12	13	14
2902	0.0301508	-0.04944	108.672	3	4	5	6	7	8	9	10	11	12	13	14
2912	0.0301891	-0.0494727	108.735	3	4	5	6	7	8	9	10	11	12	13	14
2922	0.030235	-0.0494695	108.786	3	4	5	6	7	8	9	10	11	12	13	14
2932	0.0302375	-0.0495109	108.862	3	4	5	6	7	8	9	10	11	12	13	14
2942	0.0301601	-0.0495434	108.944	3	4	5	6	7	8	9	10	11	12	13	14
2952	0.0300364	-0.0495646	109.007	3	4	5	6	7	8	9	10	11	12	13	14
2962	0.029973	-0.0496201	109.071	3	4	5	6	7	8	9	10	11	12	13	14
2972	0.0300555	-0.049528	109.115	3	4	5	6	7	8	9	10	11	12	13	14
2982	0.0300998	-0.04955	109.178	3	4	5	6	7	8	9	10	11	12	13	14
2992	0.0301052	-0.0495749	109.241	3	4	5	6	7	8	9	10	11	12	13	14
3002	0.0301492	-0.0495806	109.323	3	4	5	6	7	8	9	10	11	12	13	14
3012	0.030148	-0.0495968	109.387	3	4	5	6	7	8	9	10	11	12	13	14
3022	0.0302265	-0.0495993	109.45	3	4	5	6	7	8	9	10	11	12	13	14
3033	0.0302158	-0.0496297	109.513	3	4	5	6	7	8	9	10	11	12	13	14
3043	0.0302401	-0.0496401	109.557	3	4	5	6	7	8	9	10	11	12	13	14
3053	0.0302071	-0.0496935	109.62	3	4	5	6	7	8	9	10	11	12	13	14
3063	0.0301849	-0.0496681	109.702	3	4	5	6	7	8	9	10	11	12	13	14
3073	0.0302231	-0.0496097	109.765	3	4	5	6	7	8	9	10	11	12	13	14
3083	0.0302233	-0.0495967	109.81	3	4	5	6	7	8	9	10	11	12	13	14
3093	0.0302652	-0.0496103	109.892	3	4	5	6	7	8	9	10	11	12	13	14
3103	0.0302982	-0.0495581	109.936	3	4	5	6	7	8	9	10	11	12	13	14
3113	0.0302971	-0.0495811	109.999	3	4	5	6	7	8	9	10	11	12	13	14
3123	0.0303416	-0.0496492	110.081	3	4	5	6	7	8	9	10	11	12	13	14
3133	0.0303447	-0.0496357	110.144	3	4	5	6	7	8	9	10	11	12	13	14
3143	0.0302808	-0.0496714	110.22	3	4	5	6	7	8	9	10	11	12	13	14
3153	0.0302323	-0.04973	110.27	3	4	5	6	7	8	9	10	11	12	13	14
3164	0.0301903	-0.0497674	110.346	3	4	5	6	7	8	9	10	11	12	13	14
3174	0.0302208	-0.0497813	110.397	3	4	5	6	7	8	9	10	11	12	13	14
3184	0.0302452	-0.0498032	110.441	3	4	5	6	7	8	9	10	11	12	13	14
3194	0.030276	-0.049815	110.523	3	4	5	6	7	8	9	10	11	12	13	14
3204	0.0303793	-0.0498648	110.599	3	4	5	6	7	8	9	10	11	12	13	14
3214	0.0304147	-0.0498635	110.662	3	4	5	6	7	8	9	10	11	12	13	14
3224	0.0304933	-0.0498594	110.712	3	4	5	6	7	8	9	10	11	12	13	14
3234	0.0305036	-0.0498684	110.756	3	4	5	6	7	8	9	10	11	12	13	14
3244	0.0304389	-0.0499077	110.819	3	4	5	6	7	8	9	10	11	12	13	14
3254	0.0303741	-0.0498879	110.901	3	4	5	6	7	8	9	10	11	12	13	14
3264	0.0302789	-0.0499343	110.965	3	4	5	6	7	8	9	10	11	12	13	14
3274	0.0303779	-0.0499353	111.04	3	4	5	6	7	8	9	10	11	12	13	14
3284	0.0304546	-0.0499841	111.104	3	4	5	6	7	8	9	10	11	12	13	14
3295	0.0304854	-0.0499582	111.167	3	4	5	6	7	8	9	10	11	12	13	14
3305	0.0304116	-0.050011	111.217	3	4	5	6	7	8	9	10	11	12	13	14
3315	0.0304376	-0.0500078	111.293	3	4	5	6	7	8	9	10	11	12	13	14
3325	0.0304101	-0.0500998	111.356	3	4	5	6	7	8	9	10	11	12	13	14
3335	0.0303906	-0.0501687	111.407	3	4	5	6	7	8	9	10	11	12	13	14
3345	0.0304343	-0.0502435	111.47	3	4	5	6	7	8	9	10	11	12	13	14
3355	0.030466	-0.0502596	111.533	3	4	5	6	7	8	9	10	11	12	13	14
3365	0.03039	-0.0502675	111.596	3	4	5	6	7	8	9	10	11	12	13	14
3375	0.0305698	-0.0503497	111.672	3	4	5	6	7	8	9	10	11	12	13	14
3385	0.0306617	-0.0504073	111.735	3	4	5	6	7	8	9	10	11	12	13	14
3395	0.0306792	-0.0504351	111.798	3	4	5	6	7	8	9	10	11	12	13	14
3405	0.0306963	-0.0504644	111.848	3	4	5	6	7	8	9	10	11	12	13	14
3415	0.0306846	-0.0504864	111.911	3	4	5	6	7	8	9	10	11	12	13	14
3425	0.030713	-0.0505133	111.974	3	4	5	6	7	8	9	10	11	12	13	14
3436	0.0307111	-0.0505399	112.05	3	4	5	6	7	8	9	10	11	12	13	14
3446	0.0306435	-0.050545	112.113	3	4	5	6	7	8	9	10	11	12	13	14
3456	0.0306191	-0.0505752	112.176	3	4	5	6	7	8	9	10	11	12	13	14
3466	0.0305437	-0.0505931	112.227	3	4	5	6	7	8	9	10	11	12	13	14
3476	0.0306214	-0.0506263	112.29	3	4	5	6	7	8	9	10	11	12	13	14
3486	0.0306884	-0.0506348	112.365	3	4	5	6	7	8	9	10	11	12	13	14
3496	0.0306873	-0.0506556	112.428	3	4	5	6	7	8	9	10	11	12	13	14
3506	0.0306944	-0.0507025	112.491	3	4	5	6	7	8	9	10	11	12	13	14
3516	0.0307013	-0.0507458	112.555	3	4	5	6	7	8	9	10	11	12	13	14
3526	0.030703	-0.0507528	112.605	3	4	5	6	7	8	9	10	11	12	13	14
3536	0.0307187	-0.0507755	112.681	3	4	5	6	7	8	9	10	11	12	13	14
3546	0.030768	-0.050758	112.744	3	4	5	6	7	8	9	10	11	12	13	14
3556	0.0307444	-0.0508702	112.794	3	4	5	6	7	8	9	10	11	12	13	14
3566	0.0307542	-0.0508583	112.87	3	4	5	6	7	8	9	10	11	12	13	14
3576	0.0308582	-0.050836	112.933	3	4	5	6	7	8	9	10	11	12	13	14
3587	0.0308989	-0.0508644	112.996	3	4	5	6	7	8	9	10	11	12	13	14
3597	0.0309559	-0.0508816	113.047	3	4	5	6	7	8	9	10	11	12	13	14
3607	0.0310489	-0.0509111	113.122	3	4	5	6	7	8	9	10	11	12	13	14
3617	0.0311347	-0.0509365	113.204	3	4	5	6	7	8	9	10	11	12	13	14
3627	0.0311473	-0.0509786	113.248	3	4	5	6	7	8	9	10	11	12	13	14
3637	0.031122	-0.0510145	113.311	3	4	5	6	7	8	9	10	11	12	13	14
3647	0.0310455	-0.0510476	113.374	3	4	5	6	7	8	9	10	11	12	13	14
3657	0.0310344	-0.0510967	113.425	3	4	5	6	7	8	9	10	11	12	13	14
3667	0.0309515	-0.0511475	113.507	3	4	5	6	7	8	9	10	11	12	13	14
3677	0.0310312	-0.0511672	113.582	3	4	5	6	7	8	9	10	11	12	13	14
3687	0.031009	-0.0511969	113.645	3	4	5	6	7	8	9	10	11	12	13	14
3697	0.0310676	-0.0511999	113.696	3	4	5	6	7	8	9	10	11	12	13	14
3707	0.0310669	-0.0512146	113.759	3	4	5	6	7	8	9	10	11	12	13	14
3718	0.0310892	-0.051197	113.803	3	4	5	6	7	8	9	10	11	12	13	14
3728	0.0311659	-0.0511414	113.897	3	4	5	6	7	8	9	10	11	12	13	14
3738	0.0311459	-0.0511355	113.96	3	4	5	6	7	8	9	10	11	12	13	14
3748	0.0311122	-0.0511594	114.023	3	4	5	6	7	8	9	10	11	12	13	14
3758	0.0310844	-0.0511553	114.074	3	4	5	6	7	8	9	10	11	12	13	14
3768	0.0311293	-0.0511482	114.118	3	4	5	6	7	8	9	10	11	12	13	14
3778	0.0312054	-0.0511744	114.2	3	4	5	6	7	8	9	10	11	12	13	14
3788	0.0312271	-0.0511134	114.275	3	4	5	6	7	8	9	10	11	12	13	14
3798	0.0313045	-0.0511805	114.338	3	4	5	6	7	8	9	10	11	12	13	14
3808	0.0313452	-0.051249	114.389	3	4	5	6	7	8	9	10	11	12	13	14
3818	0.0313515	-0.051329	114.452	3	4	5	6	7	8	9	10	11	12	13	14
3828	0.0313348	-0.0513122	114.527	3	4	5	6	7	8	9	10	11	12	13	14
3838	0.0312316	-0.0512857	114.59	3	4	5	6	7	8	9	10	11	12	13	14
3848	0.0313138	-0.0513357	114.653	3	4	5	6	7	8	9	10	11	12	13	14
3858	0.031267	-0.0513159	114.704	3	4	5	6	7	8	9	10	11	12	13	14
3869	0.0312403	-0.0514255	114.767	3	4	5	6	7	8	9	10	11	12	13	14
3879	0.031322	-0.0514898	114.83	3	4	5	6	7	8	9	10	11	12	13	14
3889	0.0314154	-0.0515043	114.893	3	4	5	6	7	8	9	10	11	12	13	14
3899	0.0314577	-0.0514629	114.968	3	4	5	6	7	8	9	10	11	12	13	14
3909	0.0315357	-0.0514669	115.031	3	4	5	6	7	8	9	10	11	12	13	14
3919	0.0315339	-0.0514906	115.082	3	4	5	6	7	8	9	10	11	12	13	14
3929	0.0315269	-0.0515609	115.145	3	4	5	6	7	8	9	10	11	12	13	14
3939	0.0315502	-0.0515783	115.22	3	4	5	6	7	8	9	10	11	12	13	14
3949	0.0315156	-0.0515819	115.283	3	4	5	6	7	8	9	10	11	12	13	14
3959	0.031427	-0.0515912	115.346	3	4	5	6	7	8	9	10	11	12	13	14
3969	0.0313737	-0.0516311	115.409	3	4	5	6	7	8	9	10	11	12	13	14
3979	0.0314233	-0.0516305	115.472	3	4	5	6	7	8	9	10	11	12	13	14
3989	0.0314406	-0.0516668	115.523	3	4	5	6	7	8	9	10	11	12	13	14
4000	0.0314655	-0.0517341	115.599	3	4	5	6	7	8	9	10	11	12	13	14
4010	0.0315199	-0.0517921	115.68	3	4	5	6	7	8	9	10	11	12	13	14
4020	0.0315471	-0.0518157	115.725	3	4	5	6	7	8	9	10	11	12	13	14
4030	0.0315146	-0.0517811	115.806	3	4	5	6	7	8	9	10	11	12	13	14
4040	0.0315393	-0.0518045	115.851	3	4	5	6	7	8	9	10	11	12	13	14
4050	0.0315177	-0.0518133	115.901	3	4	5	6	7	8	9	10	11	12	13	14
4060	0.0314313	-0.0518608	115.995	3	4	5	6	7	8	9	10	11	12	13	14
4070	0.0315055	-0.051875	116.04	3	4	5	6	7	8	9	10	11	12	13	14
4080	0.0315764	-0.0518348	116.121	3	4	5	6	7	8	9	10	11	12	13	14
4090	0.0316409	-0.0518795	116.166	3	4	5	6	7	8	9	10	11	12	13	14
4100	0.0316178	-0.0518565	116.216	3	4	5	6	7	8	9	10	11	12	13	14
4110	0.0315927	-0.0518297	116.279	3	4	5	6	7	8	9	10	11	12	13	14
4120	0.0316195	-0.0518637	116.355	3	4	5	6	7	8	9	10	11	12	13	14
4130	0.0316649	-0.0518821	116.437	3	4	5	6	7	8	9	10	11	12	13	14
4140	0.0316733	-0.0518183	116.5	3	4	5	6	7	8	9	10	11	12	13	14
4150	0.0316645	-0.0518508	116.563	3	4	5	6	7	8	9	10	11	12	13	14
4161	0.0316762	-0.0518741	116.607	3	4	5	6	7	8	9	10	11	12	13	14
4171	0.0317125	-0.0518855	116.689	3	4	5	6	7	8	9	10	11	12	13	14
4181	0.0317739	-0.0518959	116.764	3	4	5	6	7	8	9	10	11	12	13	14
4191	0.0317791	-0.0518688	116.815	3	4	5	6	7	8	9	10	11	12	13	14
4201	0.0318405	-0.0518433	116.859	3	4	5	6	7	8	9	10	11	12	13	14
4211	0.0318508	-0.0518439	116.922	3	4	5	6	7	8	9	10	11	12	13	14
4221	0.0319091	-0.0518034	116.985	3	4	5	6	7	8	9	10	11	12	13	14
4231	0.0319104	-0.0518537	117.048	3	4	5	6	7	8	9	10	11	12	13	14
4241	0.0318409	-0.0518467	117.13	3	4	5	6	7	8	9	10	11	12	13	14
4251	0.0318064	-0.0518216	117.193	3	4	5	6	7	8	9	10	11	12	13	14
4261	0.0316925	-0.0518296	117.256	3	4	5	6	7	8	9	10	11	12	13	14
4271	0.0317229	-0.0518467	117.3	3	4	5	6	7	8	9	10	11	12	13	14
4281	0.0318629	-0.051845	117.363	3	4	5	6	7	8	9	10	11	12	13	14
4291	0.0319307	-0.0517998	117.426	3	4	5	6	7	8	9	10	11	12	13	14
4301	0.0320146	-0.0518151	117.489	3	4	5	6	7	8	9	10	11	12	13	14
4312	0.0321009	-0.0518491	117.584	3	4	5	6	7	8	9	10	11	12	13	14
4322	0.0320702	-0.0518075	117.634	3	4	5	6	7	8	9	10	11	12	13	14
4332	0.0320617	-0.051763	117.678	3	4	5	6	7	8	9	10	11	12	13	14
4342	0.0320458	-0.0517781	117.741	3	4	5	6	7	8	9	10	11	12	13	14
4352	0.0320334	-0.0517875	117.823	3	4	5	6	7	8	9	10	11	12	13	14
4362	0.0319186	-0.0518751	117.886	3	4	5	6	7	8	9	10	11	12	13	14
4372	0.0319427	-0.0518497	117.962	3	4	5	6	7	8	9	10	11	12	13	14
4382	0.0320083	-0.0518417	118.012	3	4	5	6	7	8	9	10	11	12	13	14
4392	0.0320326	-0.0518309	118.056	3	4	5	6	7	8	9	10	11	12	13	14
4402	0.0320421	-0.0518641	118.151	3	4	5	6	7	8	9	10	11	12	13	14
4412	0.0320648	-0.0519315	118.214	3	4	5	6	7	8	9	10	11	12	13	14
4422	0.0321154	-0.0519425	118.277	3	4	5	6	7	8	9	10	11	12	13	14
4432	0.0320823	-0.0519577	118.327	3	4	5	6	7	8	9	10	11	12	13	14
4443	0.0321046	-0.0519719	118.39	3	4	5	6	7	8	9	10	11	12	13	14
4453	0.0320957	-0.0519788	118.453	3	4	5	6	7	8	9	10	11	12	13	14
4463	0.0320528	-0.0520109	118.516	3	4	5	6	7	8	9	10	11	12	13	14
4473	0.0321006	-0.0519942	118.579	3	4	5	6	7	8	9	10	11	12	13	14
4483	0.032253	-0.0520127	118.655	3	4	5	6	7	8	9	10	11	12	13	14
4493	0.0323157	-0.0520295	118.718	3	4	5	6	7	8	9	10	11	12	13	14
4503	0.0323756	-0.0520574	118.781	3	4	5	6	7	8	9	10	11	12	13	14
4513	0.0323275	-0.052086	118.831	3	4	5	6	7	8	9	10	11	12	13	14
4523	0.0323754	-0.0521311	118.875	3	4	5	6	7	8	9	10	11	12	13	14
4533	0.0323437	-0.0521533	118.957	3	4	5	6	7	8	9	10	11	12	13	14
4543	0.0323025	-0.0522316	119.04	3	4	5	6	7	8	9	10	11	12	13	14
4553	0.0322676	-0.0522897	119.103	3	4	5	6	7	8	9	10	11	12	13	14
4563	0.0322057	-0.0522966	119.147	3	4	5	6	7	8	9	10	11	12	13	14
4573	0.0321142	-0.0523466	119.211	3	4	5	6	7	8	9	10	11	12	13	14
4584	0.0321629	-0.052386	119.274	3	4	5	6	7	8	9	10	11	12	13	14
4594	0.032261	-0.0523099	119.356	3	4	5	6	7	8	9	10	11	12	13	14
4604	0.0322201	-0.0522597	119.4	3	4	5	6	7	8	9	10	11	12	13	14
4614	0.0322677	-0.0523049	119.464	3	4	5	6	7	8	9	10	11	12	13	14
4624	0.0323203	-0.0522947	119.546	3	4	5	6	7	8	9	10	11	12	13	14
4634	0.0323158	-0.0523459	119.622	3	4	5	6	7	8	9	10	11	12	13	14
4644	0.0322834	-0.0523912	119.673	3	4	5	6	7	8	9	10	11	12	13	14
4654	0.032316	-0.0523915	119.717	3	4	5	6	7	8	9	10	11	12	13	14
4664	0.032311	-0.0524584	119.78	3	4	5	6	7	8	9	10	11	12	13	14
4674	0.0322454	-0.0525057	119.843	3	4	5	6	7	8	9	10	11	12	13	14
4684	0.0322158	-0.0525082	119.925	3	4	5	6	7	8	9	10	11	12	13	14
4694	0.0322262	-0.0525193	119.988	3	4	5	6	7	8	9	10	11	12	13	14
4704	0.0322991	-0.0525811	120.052	3	4	5	6	7	8	9	10	11	12	13	14
4715	0.0323558	-0.0525484	120.096	3	4	5	6	7	8	9	10	11	12	13	14
4725	0.0324611	-0.0525726	120.159	3	4	5	6	7	8	9	10	11	12	13	14
4735	0.0325028	-0.052621	120.222	3	4	5	6	7	8	9	10	11	12	13	14
4745	0.032537	-0.0525949	120.285	3	4	5	6	7	8	9	10	11	12	13	14
4755	0.0325182	-0.0526325	120.367	3	4	5	6	7	8	9	10	11	12	13	14
4765	0.0325184	-0.0526935	120.412	3	4	5	6	7	8	9	10	11	12	13	14
4775	0.0324692	-0.0527535	120.475	3	4	5	6	7	8	9	10	11	12	13	14
4785	0.0324812	-0.052841	120.557	3	4	5	6	7	8	9	10	11	12	13	14
4795	0.0325853	-0.0527703	120.633	3	4	5	6	7	8	9	10	11	12	13	14
4805	0.0326412	-0.0527708	120.683	3	4	5	6	7	8	9	10	11	12	13	14
4815	0.0326581	-0.0527739	120.727	3	4	5	6	7	8	9	10	11	12	13	14
4825	0.0327037	-0.0528258	120.809	3	4	5	6	7	8	9	10	11	12	13	14
4835	0.0327696	-0.0528628	120.885	3	4	5	6	7	8	9	10	11	12	13	14
4845	0.0328063	-0.0529299	120.948	3	4	5	6	7	8	9	10	11	12	13	14
4856	0.0327775	-0.052992	121.011	3	4	5	6	7	8	9	10	11	12	13	14
4866	0.0327519	-0.0530423	121.062	3	4	5	6	7	8	9	10	11	12	13	14
4876	0.0327037	-0.0530428	121.106	3	4	5	6	7	8	9	10	11	12	13	14
4886	0.0327	-0.0530831	121.188	3	4	5	6	7	8	9	10	11	12	13	14
4896	0.0328293	-0.0531119	121.264	3	4	5	6	7	8	9	10	11	12	13	14
4906	0.0328439	-0.0531386	121.327	3	4	5	6	7	8	9	10	11	12	13	14
4916	0.0328311	-0.0531791	121.377	3	4	5	6	7	8	9	10	11	12	13	14
4926	0.0328455	-0.0531406	121.421	3	4	5	6	7	8	9	10	11	12	13	14
4936	0.0329572	-0.0531242	121.503	3	4	5	6	7	8	9	10	11	12	13	14
4946	0.0329522	-0.0531577	121.567	3	4	5	6	7	8	9	10	11	12	13	14
4956	0.0330115	-0.053198	121.642	3	4	5	6	7	8	9	10	11	12	13	14
4966	0.032924	-0.0532133	121.705	3	4	5	6	7	8	9	10	11	12	13	14
4976	0.0328893	-0.053248	121.756	3	4	5	6	7	8	9	10	11	12	13	14
4987	0.0328573	-0.0532322	121.819	3	4	5	6	7	8	9	10	11	12	13	14
4997	0.0329873	-0.0532859	121.895	3	4	5	6	7	8	9	10	11	12	13	14
5007	0.0330827	-0.0533418	121.958	3	4	5	6	7	8	9	10	11	12	13	14
5017	0.0330918	-0.0533303	122.021	3	4	5	6	7	8	9	10	11	12	13	14
5027	0.0331289	-0.053341	122.071	3	4	5	6	7	8	9	10	11	12	13	14
5037	0.0331122	-0.0534074	122.134	3	4	5	6	7	8	9	10	11	12	13	14
5047	0.0331129	-0.0534227	122.198	3	4	5	6	7	8	9	10	11	12	13	14
5057	0.0331325	-0.0534394	122.273	3	4	5	6	7	8	9	10	11	12	13	14
5067	0.0330711	-0.0534963	122.336	3	4	5	6	7	8	9	10	11	12	13	14
5077	0.0330411	-0.0535482	122.387	3	4	5	6	7	8	9	10	11	12	13	14
5087	0.0330834	-0.0535472	122.45	3	4	5	6	7	8	9	10	11	12	13	14
5097	0.0331208	-0.0536021	122.526	3	4	5	6	7	8	9	10	11	12	13	14
5107	0.0331369	-0.0536332	122.589	3	4	5	6	7	8	9	10	11	12	13	14
5117	0.0331856	-0.0536241	122.652	3	4	5	6	7	8	9	10	11	12	13	14
5128	0.0331967	-0.0536034	122.702	3	4	5	6	7	8	9	10	11	12	13	14
5138	0.0331535	-0.0536486	122.765	3	4	5	6	7	8	9	10	11	12	13	14
5148	0.0330399	-0.0536859	122.841	3	4	5	6	7	8	9	10	11	12	13	14
5158	0.0329506	-0.0537629	122.923	3	4	5	6	7	8	9	10	11	12	13	14
5168	0.0329341	-0.0537243	122.967	3	4	5	6	7	8	9	10	11	12	13	14
5178	0.032906	-0.0537504	123.017	3	4	5	6	7	8	9	10	11	12	13	14
5188	0.0330235	-0.0537354	123.08	3	4	5	6	7	8	9	10	11	12	13	14
5198	0.0331306	-0.0536817	123.156	3	4	5	6	7	8	9	10	11	12	13	14
5208	0.0331714	-0.0537018	123.219	3	4	5	6	7	8	9	10	11	12	13	14
5218	0.0332218	-0.0536936	123.282	3	4	5	6	7	8	9	10	11	12	13	14
5228	0.033201	-0.0537058	123.333	3	4	5	6	7	8	9	10	11	12	13	14
5238	0.0332237	-0.053736	123.408	3	4	5	6	7	8	9	10	11	12	13	14
5248	0.0332423	-0.0537178	123.49	3	4	5	6	7	8	9	10	11	12	13	14
5258	0.0332739	-0.0537748	123.534	3	4	5	6	7	8	9	10	11	12	13	14
5269	0.0332549	-0.0538329	123.585	3	4	5	6	7	8	9	10	11	12	13	14
5279	0.0331995	-0.0537839	123.648	3	4	5	6	7	8	9	10	11	12	13	14
5289	0.0333001	-0.0537674	123.723	3	4	5	6	7	8	9	10	11	12	13	14
5299	0.0333737	-0.0537586	123.805	3	4	5	6	7	8	9	10	11	12	13	14
5309	0.0334735	-0.0537628	123.869	3	4	5	6	7	8	9	10	11	12	13	14
5319	0.0335378	-0.0537988	123.913	3	4	5	6	7	8	9	10	11	12	13	14
5329	0.0335668	-0.0538	123.976	3	4	5	6	7	8	9	10	11	12	13	14
5339	0.0335249	-0.0538728	124.039	3	4	5	6	7	8	9	10	11	12	13	14
5349	0.0335968	-0.0539611	124.121	3	4	5	6	7	8	9	10	11	12	13	14
5359	0.0335501	-0.0539768	124.196	3	4	5	6	7	8	9	10	11	12	13	14
5369	0.0335016	-0.0539896	124.247	3	4	5	6	7	8	9	10	11	12	13	14
5379	0.0334925	-0.0539717	124.31	3	4	5	6	7	8	9	10	11	12	13	14
5389	0.0335554	-0.0539901	124.36	3	4	5	6	7	8	9	10	11	12	13	14
5399	0.0336549	-0.0539958	124.404	3	4	5	6	7	8	9	10	11	12	13	14
5410	0.0336727	-0.0540181	124.467	3	4	5	6	7	8	9	10	11	12	13	14
5420	0.033706	-0.0540085	124.549	3	4	5	6	7	8	9	10	11	12	13	14
5430	0.0337609	-0.0540094	124.625	3	4	5	6	7	8	9	10	11	12	13	14
5440	0.0337303	-0.0540444	124.688	3	4	5	6	7	8	9	10	11	12	13	14
5450	0.033716	-0.0541994	124.751	3	4	5	6	7	8	9	10	11	12	13	14
5460	0.0337198	-0.0542484	124.814	3	4	5	6	7	8	9	10	11	12	13	14
5470	0.0336352	-0.0542887	124.864	3	4	5	6	7	8	9	10	11	12	13	14
5480	0.0336411	-0.0542382	124.927	3	4	5	6	7	8	9	10	11	12	13	14
5490	0.0336922	-0.0542738	124.99	3	4	5	6	7	8	9	10	11	12	13	14
5500	0.0338297	-0.0542335	125.085	3	4	5	6	7	8	9	10	11	12	13	14
5510	0.0338572	-0.0542286	125.129	3	4	5	6	7	8	9	10	11	12	13	14
5520	0.0339185	-0.0542706	125.192	3	4	5	6	7	8	9	10	11	12	13	14
5530	0.0339261	-0.0542682	125.255	3	4	5	6	7	8	9	10	11	12	13	14
5541	0.0338888	-0.0543117	125.305	3	4	5	6	7	8	9	10	11	12	13	14
5551	0.0339046	-0.0543343	125.368	3	4	5	6	7	8	9	10	11	12	13	14
5561	0.0339293	-0.054306	125.443	3	4	5	6	7	8	9	10	11	12	13	14
5571	0.0338593	-0.0544186	125.525	3	4	5	6	7	8	9	10	11	12	13	14
5581	0.0339032	-0.0544095	125.569	0	0	0	-0.00304469	0.00490148	-6.40591	1117	1000	1117	1000	1118	1000
5591	0.033996	-0.0544104	125.632	0	0	0	-0.00305341	0.00490182	-6.40912	1118	1000	1117	1000	1118	1000
5601	0.0340398	-0.0543922	125.695	0	0	0	-0.00305723	0.00489907	-6.41234	1118	1000	1117	1000	1118	1000
5611	0.0340553	-0.054381	125.758	0	0	0	-0.00305693	0.00489762	-6.41555	1118	1000	1117	1000	1118	1000
5621	0.0340755	-0.0543981	125.809	0	0	0	-0.00305939	0.00489917	-6.41812	1118	1000	1118	1000	1118	1000
5631	0.0340835	-0.054435	125.884	0	0	0	-0.00306019	0.00490387	-6.42198	1118	1000	1118	1000	1118	1000
5641	0.0341008	-0.0545074	125.966	0	0	0	-0.00306254	0.00491085	-6.42616	1118	1000	1118	1000	1118	1000
5651	0.03409	-0.0545088	126.01	0	0	0	-0.0030612	0.00491096	-6.4284	1118	1000	1118	1000	1118	1000
5661	0.034084	-0.0545479	126.073	0	0	0	-0.00306089	0.00491361	-6.43162	1118	1000	1118	1000	1118	1000
5671	0.0339988	-0.0545851	126.136	0	0	0	-0.00305241	0.00491675	-6.43483	1118	1000	1118	1000	1118	1000
5682	0.0339821	-0.0545913	126.199	0	0	0	-0.00305038	0.00491724	-6.43804	1118	1000	1118	1000	1118	1000
5692	0.0340561	-0.0545752	126.262	0	0	0	-0.0030579	0.00491503	-6.44125	1118	1000	1118	1000	1118	1000
5702	0.0341172	-0.0546114	126.344	0	0	0	-0.00306302	0.00491941	-6.44543	1118	1000	1118	1000	1118	1000
5712	0.0341502	-0.0546803	126.407	0	0	0	-0.00306701	0.00492706	-6.44864	1118	1000	1118	1000	1118	1000
5722	0.0341736	-0.0546604	126.47	0	0	0	-0.00306891	0.00492489	-6.45186	1118	1000	1118	1000	1118	1000
5732	0.0342249	-0.0546931	126.514	0	0	0	-0.0030743	0.0049267	-6.45411	1118	1000	1118	1000	1118	1000
5742	0.034248	-0.0547154	126.565	0	0	0	-0.00307678	0.00492885	-6.45668	1118	1000	1118	1000	1118	1000
5752	0.0342995	-0.0547356	126.64	0	0	0	-0.00308227	0.00493055	-6.46053	1118	1000	1118	1000	1119	1000
5762	0.0342555	-0.054781	126.722	0	0	0	-0.00307711	0.00493455	-6.46471	1119	1000	1118	1000	1119	1000
5772	0.0342059	-0.054827	126.785	0	0	0	-0.00307231	0.00493772	-6.46792	1119	1000	1118	1000	1119	1000
5782	0.0342224	-0.0548358	126.829	0	0	0	-0.00307267	0.00493957	-6.47017	1119	1000	1118	1000	1119	1000
5792	0.0342934	-0.0548212	126.892	0	0	0	-0.00307907	0.00493812	-6.47339	1119	1000	1119	1000	1119	1000
5802	0.034366	-0.0548186	126.955	0	0	0	-0.00308611	0.00493752	-6.4766	1119	1000	1119	1000	1119	1000
5812	0.0343731	-0.0548473	127.037	0	0	0	-0.00308579	0.00494052	-6.48078	1119	1000	1119	1000	1119	1000
5823	0.034395	-0.0548463	127.1	0	0	0	-0.00308869	0.00494014	-6.48399	1119	1000	1119	1000	1119	1000
5833	0.0343927	-0.0548868	127.144	0	0	0	-0.00308802	0.00494401	-6.48624	1119	1000	1119	1000	1119	1000
5843	0.0344007	-0.054911	127.226	0	0	0	-0.0030895	0.00494637	-6.49042	1119	1000	1119	1000	1119	1000
5853	0.0343791	-0.0549615	127.302	0	0	0	-0.00308719	0.00495108	-6.49427	1119	1000	1119	1000	1119	1000
5863	0.0343046	-0.0550149	127.352	0	0	0	-0.00307926	0.00495624	-6.49684	1119	1000	1119	1000	1119	1000
5873	0.0342414	-0.0550444	127.409	0	0	0	-0.00307277	0.004959	-6.49973	1119	1000	1119	1000	1119	1000
5883	0.0342553	-0.0550706	127.478	0	0	0	-0.00307477	0.00496062	-6.50327	1119	1000	1119	1000	1119	1000
5893	0.0343162	-0.0550501	127.522	0	0	0	-0.00308112	0.00495853	-6.50552	1119	1000	1119	1000	1119	1000
5903	0.0343901	-0.0550646	127.586	0	0	0	-0.00308865	0.00496012	-6.50873	1119	1000	1119	1000	1119	1000
5913	0.0344047	-0.0550694	127.667	0	0	0	-0.00308932	0.00496023	-6.51291	1119	1000	1119	1000	1119	1000
5923	0.034417	-0.0551042	127.743	0	0	0	-0.00308992	0.00496388	-6.51676	1120	1000	1119	1000	1120	1000
5933	0.0344298	-0.0551041	127.793	0	0	0	-0.00309175	0.00496351	-6.51933	1120	1000	1119	1000	1120	1000
5943	0.0344313	-0.0550856	127.856	0	0	0	-0.00309227	0.00496068	-6.52254	1120	1000	1119	1000	1120	1000
5953	0.0344568	-0.0550987	127.9	0	0	0	-0.00309506	0.00496197	-6.52479	1120	1000	1119	1000	1120	1000
5964	0.0344131	-0.0551343	127.963	0	0	0	-0.00309049	0.00496544	-6.52801	1120	1000	1120	1000	1120	1000
5974	0.0343506	-0.055227	128.058	0	0	0	-0.00308487	0.00497531	-6.53282	1120	1000	1120	1000	1120	1000
5984	0.0344495	-0.0552359	128.121	0	0	0	-0.00309373	0.00497684	-6.53604	1120	1000	1120	1000	1120	1000
5994	0.0345174	-0.0552227	128.184	0	0	0	-0.00310013	0.00497472	-6.53925	1120	1000	1120	1000	1120	1000
6004	0.0345423	-0.0551972	128.234	0	0	0	-0.00310253	0.00497101	-6.54182	1120	1000	1120	1000	1120	1000
6014	0.0345997	-0.0552309	128.297	0	0	0	-0.00310736	0.00497418	-6.54503	1120	1000	1120	1000	1120	1000
6024	0.0346301	-0.0552259	128.373	0	0	0	-0.00311	0.00497407	-6.54889	1120	1000	1120	1000	1120	1000
6034	0.0346543	-0.0552429	128.404	0	0	0	-0.00311225	0.00497611	-6.55049	1120	1000	1120	1000	1120	1000
6044	0.0346915	-0.0552385	128.467	0	0	0	-0.00311661	0.00497486	-6.55371	1120	1000	1120	1000	1120	1000
6054	0.0346155	-0.0552978	128.562	0	0	0	-0.00310764	0.00498163	-6.55853	1120	1000	1120	1000	1120	1000
6064	0.0345824	-0.0553254	128.612	0	0	0	-0.00310396	0.00498364	-6.5611	1120	1000	1120	1000	1120	1000
6074	0.0345554	-0.0553684	128.656	0	0	0	-0.0031021	0.00498759	-6.56334	1120	1000	1120	1000	1120	1000
6084	0.0346211	-0.0553811	128.719	0	0	0	-0.00310996	0.00498861	-6.56656	1120	1000	1120	1000	1120	1000
6094	0.0347365	-0.0553856	128.801	0	0	0	-0.00312168	0.00498893	-6.57073	1121	1000	1120	1000	1121	1000
6105	0.0348474	-0.055396	128.877	0	0	0	-0.0031311	0.00499006	-6.57459	1121	1000	1120	1000	1121	1000
6115	0.034893	-0.0554174	128.94	0	0	0	-0.00313536	0.00499192	-6.5778	1121	1000	1120	1000	1121	1000
6125	0.0349084	-0.0554353	129.003	0	0	0	-0.00313569	0.00499362	-6.58101	1121	1000	1121	1000	1121	1000
6135	0.0349686	-0.0554644	129.066	0	0	0	-0.00314116	0.00499626	-6.58423	1121	1000	1121	1000	1121	1000
6145	0.0349866	-0.0554788	129.129	0	0	0	-0.00314346	0.00499697	-6.58744	1121	1000	1121	1000	1121	1000
6155	0.0349914	-0.0554581	129.192	0	0	0	-0.00314388	0.00499432	-6.59065	1121	1000	1121	1000	1121	1000
6165	0.0349729	-0.0554481	129.242	0	0	0	-0.00314152	0.00499223	-6.59322	1121	1000	1121	1000	1121	1000
6175	0.0349392	-0.0554882	129.286	0	0	0	-0.00313821	0.00499608	-6.59547	1121	1000	1121	1000	1121	1000
6185	0.0349773	-0.0555275	129.368	0	0	0	-0.00314176	0.00500167	-6.59965	1121	1000	1121	1000	1121	1000
6195	0.0350331	-0.0555165	129.444	0	0	0	-0.00314531	0.00500127	-6.60351	1121	1000	1121	1000	1121	1000
6205	0.0350889	-0.0554844	129.507	0	0	0	-0.00315072	0.00499695	-6.60672	1121	1000	1121	1000	1121	1000
6215	0.0351801	-0.0554872	129.57	0	0	0	-0.00316051	0.00499672	-6.60993	1121	1000	1121	1000	1121	1000
6225	0.0352387	-0.0554925	129.633	0	0	0	-0.00316719	0.00499734	-6.61314	1121	1000	1121	1000	1121	1000
6235	0.0352361	-0.0555307	129.683	0	0	0	-0.00316615	0.00500169	-6.61572	1121	1000	1121	1000	1121	1000
6246	0.0352368	-0.055547	129.746	0	0	0	-0.00316483	0.00500384	-6.61894	1121	1000	1121	1000	1121	1000
6256	0.0352085	-0.0556253	129.841	0	0	0	-0.00316161	0.00501127	-6.62378	1121	1000	1121	1000	1122	1000
6266	0.0351918	-0.0556789	129.892	0	0	0	-0.00316079	0.00501576	-6.62636	1122	1000	1121	1000	1122	1000
6276	0.0351988	-0.0557162	129.955	0	0	0	-0.00316228	0.00501935	-6.62958	1122	1000	1121	1000	1122	1000
6286	0.0352265	-0.0557106	129.999	0	0	0	-0.00316366	0.00501879	-6.63184	1122	1000	1121	1000	1122	1000
6296	0.0352731	-0.0557091	130.063	0	0	0	-0.00316647	0.005018	-6.63507	1122	1000	1122	1000	1122	1000
6306	0.0353241	-0.0557611	130.126	0	0	0	-0.00317173	0.00502364	-6.6383	1122	1000	1122	1000	1122	1000
6316	0.0353319	-0.0557818	130.221	0	0	0	-0.00317222	0.00502473	-6.64314	1122	1000	1122	1000	1122	1000
6326	0.0353402	-0.0558301	130.271	0	0	0	-0.00317334	0.00502968	-6.64572	1122	1000	1122	1000	1122	1000
6336	0.0353345	-0.0558765	130.335	0	0	0	-0.00317289	0.00503446	-6.64895	1122	1000	1122	1000	1122	1000
6346	0.0353516	-0.0559324	130.398	0	0	0	-0.00317493	0.0050393	-6.65217	1122	1000	1122	1000	1122	1000
6356	0.035343	-0.0559359	130.442	0	0	0	-0.00317428	0.00503929	-6.65443	1122	1000	1122	1000	1122	1000
6366	0.0352702	-0.0559993	130.524	0	0	0	-0.00316701	0.00504404	-6.65862	1122	1000	1122	1000	1122	1000
6376	0.0352959	-0.0560153	130.6	0	0	0	-0.00317038	0.00504532	-6.66249	1122	1000	1122	1000	1122	1000
6386	0.0353674	-0.056008	130.663	0	0	0	-0.00317632	0.00504422	-6.66571	1122	1000	1122	1000	1122	1000
6397	0.0354067	-0.0559932	130.714	0	0	0	-0.00317985	0.00504245	-6.66829	1122	1000	1122	1000	1122	1000
6407	0.0354517	-0.0559976	130.777	0	0	0	-0.00318453	0.00504323	-6.67151	1122	1000	1122	1000	1122	1000
6417	0.0355082	-0.0560033	130.821	0	0	0	-0.00319	0.00504415	-6.67377	1122	1000	1122	1000	1122	1000
6427	0.0355418	-0.0560053	130.885	0	0	0	-0.00319291	0.00504391	-6.67699	1122	1000	1122	1000	1123	1000
6437	0.0356137	-0.0560831	130.979	0	0	0	-0.00320061	0.00505265	-6.68182	1123	1000	1122	1000	1123	1000
6447	0.035595	-0.0561079	131.042	0	0	0	-0.00319711	0.005055	-6.68504	1123	1000	1122	1000	1123	1000
6457	0.0355279	-0.0561524	131.093	0	0	0	-0.00319019	0.00505823	-6.68762	1123	1000	1122	1000	1123	1000
6467	0.0354917	-0.0561742	131.137	0	0	0	-0.00318596	0.00506006	-6.68987	1123	1000	1123	1000	1123	1000
6477	0.0355248	-0.0562194	131.232	0	0	0	-0.00319102	0.00506419	-6.6947	1123	1000	1123	1000	1123	1000
6487	0.0355892	-0.0562807	131.295	0	0	0	-0.00319721	0.00507103	-6.69792	1123	1000	1123	1000	1123	1000
6497	0.0357001	-0.0562491	131.358	0	0	0	-0.00320743	0.00506707	-6.70114	1123	1000	1123	1000	1123	1000
6507	0.0357174	-0.0562669	131.409	0	0	0	-0.0032092	0.00506744	-6.70371	1123	1000	1123	1000	1123	1000
6517	0.0357097	-0.0563237	131.472	0	0	0	-0.00320636	0.00507415	-6.70693	1123	1000	1123	1000	1123	1000
6527	0.035711	-0.0563604	131.535	0	0	0	-0.00320598	0.00507806	-6.71015	1123	1000	1123	1000	1123	1000
6538	0.0356968	-0.0563366	131.598	0	0	0	-0.00320471	0.00507434	-6.71337	1123	1000	1123	1000	1123	1000
6548	0.0357287	-0.0563543	131.674	0	0	0	-0.00320916	0.00507455	-6.71723	1123	1000	1123	1000	1123	1000
6558	0.0356845	-0.0564561	131.737	0	0	0	-0.00320453	0.00508639	-6.72045	1123	1000	1123	1000	1123	1000
6568	0.0356768	-0.0565087	131.787	0	0	0	-0.00320479	0.00509238	-6.72302	1123	1000	1123	1000	1123	1000
6578	0.0356756	-0.0565913	131.85	0	0	0	-0.00320484	0.00509966	-6.72624	1123	1000	1123	1000	1123	1000
6588	0.0357261	-0.0565799	131.913	0	0	0	-0.00320859	0.00509789	-6.72946	1123	1000	1123	1000	1123	1000
6598	0.0357769	-0.0566048	131.989	0	0	0	-0.00321229	0.00509906	-6.73332	1124	1000	1123	1000	1124	1000
6608	0.0358378	-0.0566058	132.052	0	0	0	-0.00321842	0.0050992	-6.73654	1124	1000	1123	1000	1124	1000
6618	0.0358426	-0.0566275	132.115	0	0	0	-0.00321887	0.00510059	-6.73976	1124	1000	1123	1000	1124	1000
6628	0.0358396	-0.0566559	132.166	0	0	0	-0.00321776	0.00510315	-6.74234	1124	1000	1123	1000	1124	1000
6638	0.0358907	-0.0566581	132.229	0	0	0	-0.00322388	0.00510389	-6.74555	1124	1000	1124	1000	1124	1000
6648	0.0358963	-0.0566928	132.292	0	0	0	-0.00322507	0.00510614	-6.74877	1124	1000	1124	1000	1124	1000
6658	0.0358544	-0.0567073	132.368	0	0	0	-0.00322013	0.00510703	-6.75263	1124	1000	1124	1000	1124	1000
6668	0.0358486	-0.0567658	132.45	0	0	0	-0.00322007	0.00511288	-6.7568	1124	1000	1124	1000	1124	1000
6679	0.0359064	-0.0567855	132.494	0	0	0	-0.00322604	0.00511529	-6.75906	1124	1000	1124	1000	1124	1000
6689	0.0359745	-0.0567893	132.557	0	0	0	-0.00323191	0.00511561	-6.76227	1124	1000	1124	1000	1124	1000
6699	0.0359902	-0.056791	132.607	0	0	0	-0.00323213	0.00511493	-6.76484	1124	1000	1124	1000	1124	1000
6709	0.0360747	-0.0567841	132.67	0	0	0	-0.00324102	0.00511501	-6.76806	1124	1000	1124	1000	1124	1000
6719	0.0360974	-0.0567839	132.746	0	0	0	-0.00324227	0.0051139	-6.77193	1124	1000	1124	1000	1124	1000
6729	0.0362022	-0.0568434	132.828	0	0	0	-0.0032529	0.00512081	-6.77611	1124	1000	1124	1000	1124	1000
6739	0.0362173	-0.0568918	132.891	0	0	0	-0.0032552	0.00512523	-6.77932	1124	1000	1124	1000	1124	1000
6749	0.0362201	-0.05694	132.935	0	0	0	-0.00325457	0.00513029	-6.78157	1124	1000	1124	1000	1124	1000
6759	0.0361929	-0.0569702	132.998	0	0	0	-0.00325063	0.00513242	-6.78479	1124	1000	1124	1000	1124	1000
6769	0.0361853	-0.057027	133.049	0	0	0	-0.00325033	0.00513736	-6.78737	1124	1000	1124	1000	1125	1000
6779	0.0361948	-0.0570634	133.144	0	0	0	-0.00325109	0.00514034	-6.79219	1125	1000	1124	1000	1125	1000
6789	0.0362854	-0.057077	133.207	0	0	0	-0.00325932	0.00514152	-6.79541	1125	1000	1124	1000	1125	1000
6799	0.0363015	-0.0570892	133.251	0	0	0	-0.00326027	0.00514347	-6.79766	1125	1000	1125	1000	1125	1000
6810	0.0363589	-0.0570708	133.314	0	0	0	-0.00326522	0.00514095	-6.80088	1125	1000	1125	1000	1125	1000
6820	0.0363477	-0.0570993	133.364	0	0	0	-0.0032641	0.00514247	-6.80345	1125	1000	1125	1000	1125	1000
6830	0.0364038	-0.0571303	133.44	0	0	0	-0.00326964	0.00514618	-6.80731	1125	1000	1125	1000	1125	1000
6840	0.036441	-0.0571579	133.503	0	0	0	-0.00327434	0.00514904	-6.81053	1125	1000	1125	1000	1125	1000
6850	0.0364225	-0.0571528	133.566	0	0	0	-0.00327201	0.0051476	-6.81374	1125	1000	1125	1000	1125	1000
6860	0.0363807	-0.0572565	133.648	0	0	0	-0.00326709	0.00515782	-6.81792	1125	1000	1125	1000	1125	1000
6870	0.0363439	-0.0572921	133.692	0	0	0	-0.00326353	0.00516162	-6.82017	1125	1000	1125	1000	1125	1000
6880	0.0363651	-0.0573209	133.755	0	0	0	-0.00326538	0.00516359	-6.82339	1125	1000	1125	1000	1125	1000
6890	0.0364194	-0.0573517	133.806	0	0	0	-0.00327143	0.00516712	-6.82596	1125	1000	1125	1000	1125	1000
6900	0.0365068	-0.0573666	133.881	0	0	0	-0.00327949	0.00516806	-6.82982	1125	1000	1125	1000	1125	1000
6910	0.0365284	-0.0573774	133.944	0	0	0	-0.00328033	0.00516878	-6.83304	1125	1000	1125	1000	1125	1000
6920	0.0365405	-0.0573476	134.007	0	0	0	-0.00328138	0.00516436	-6.83625	1125	1000	1125	1000	1125	1000
6930	0.0365758	-0.0573855	134.089	0	0	0	-0.00328533	0.00516854	-6.84043	1125	1000	1125	1000	1126	1000
6940	0.0365932	-0.057386	134.152	0	0	0	-0.00328733	0.00516822	-6.84364	1126	1000	1125	1000	1126	1000
6951	0.0365878	-0.057383	134.196	0	0	0	-0.00328622	0.00516729	-6.84589	1126	1000	1125	1000	1126	1000
6961	0.0365866	-0.0574595	134.278	0	0	0	-0.00328658	0.00517569	-6.85007	1126	1000	1125	1000	1126	1000
6971	0.0365755	-0.0575104	134.341	0	0	0	-0.00328675	0.00518096	-6.85329	1126	1000	1126	1000	1126	1000
6981	0.0365874	-0.0575959	134.405	0	0	0	-0.00328689	0.00518964	-6.8565	1126	1000	1126	1000	1126	1000
6991	0.036655	-0.0575834	134.449	0	0	0	-0.00329179	0.00518865	-6.85875	1126	1000	1126	1000	1126	1000
7001	0.0367343	-0.057586	134.512	0	0	0	-0.0032998	0.00518786	-6.86197	1126	1000	1126	1000	1126	1000
7011	0.0367723	-0.0576258	134.575	0	0	0	-0.00330269	0.0051911	-6.86518	1126	1000	1126	1000	1126	1000
7021	0.0367767	-0.0576346	134.638	0	0	0	-0.00330283	0.00519167	-6.8684	1126	1000	1126	1000	1126	1000
7031	0.0368077	-0.0576658	134.701	0	0	0	-0.00330569	0.00519401	-6.87162	1126	1000	1126	1000	1126	1000
7041	0.0368253	-0.0576904	134.795	0	0	0	-0.00330823	0.00519626	-6.87644	1126	1000	1126	1000	1126	1000
7051	0.036808	-0.0577368	134.858	0	0	0	-0.00330609	0.0052003	-6.87966	1126	1000	1126	1000	1126	1000
7061	0.0367835	-0.0577592	134.89	0	0	0	-0.0033034	0.00520284	-6.88127	1126	1000	1126	1000	1126	1000
7071	0.0367169	-0.0578158	134.953	0	0	0	-0.00329716	0.00520804	-6.88448	1126	1000	1126	1000	1126	1000
7081	0.0367149	-0.0578446	135.035	0	0	0	-0.00329597	0.00521067	-6.88866	1126	1000	1126	1000	1126	1000
7091	0.0367634	-0.0578619	135.098	0	0	0	-0.00330059	0.00521218	-6.89187	1126	1000	1126	1000	1126	1000
7102	0.0368101	-0.0578854	135.161	0	0	0	-0.00330563	0.00521527	-6.89508	1126	1000	1126	1000	1127	1000
7112	0.0368514	-0.0578778	135.224	0	0	0	-0.00331004	0.00521286	-6.89829	1127	1000	1126	1000	1127	1000
7122	0.0368542	-0.0579166	135.274	0	0	0	-0.00331013	0.00521656	-6.90087	1127	1000	1126	1000	1127	1000
7132	0.0368596	-0.0579206	135.337	0	0	0	-0.00331033	0.00521691	-6.90408	1127	1000	1126	1000	1127	1000
7142	0.0368615	-0.0579269	135.4	0	0	0	-0.00331	0.00521701	-6.90729	1127	1000	1127	1000	1127	1000
7152	0.0368604	-0.0579785	135.463	0	0	0	-0.00331029	0.00522222	-6.9105	1127	1000	1127	1000	1127	1000
7162	0.036852	-0.0579723	135.539	0	0	0	-0.00331055	0.00522095	-6.91435	1127	1000	1127	1000	1127	1000
7172	0.0367581	-0.0580117	135.602	0	0	0	-0.00330059	0.00522482	-6.91756	1127	1000	1127	1000	1127	1000
7182	0.0367635	-0.0580334	135.652	0	0	0	-0.0033003	0.00522677	-6.92013	1127	1000	1127	1000	1127	1000
7192	0.0368796	-0.058039	135.728	0	0	0	-0.00331238	0.00522781	-6.92398	1127	1000	1127	1000	1127	1000
7202	0.0369925	-0.058058	135.81	0	0	0	-0.0033241	0.00522948	-6.92816	1127	1000	1127	1000	1127	1000
7212	0.0370216	-0.0580455	135.854	0	0	0	-0.00332685	0.00522851	-6.93041	1127	1000	1127	1000	1127	1000
7222	0.0370175	-0.0580611	135.904	0	0	0	-0.00332539	0.00522958	-6.93298	1127	1000	1127	1000	1127	1000
7233	0.0370716	-0.0580726	135.98	0	0	0	-0.00332985	0.00523033	-6.93683	1127	1000	1127	1000	1127	1000
7243	0.037077	-0.0581214	136.062	0	0	0	-0.00333017	0.00523516	-6.94101	1127	1000	1127	1000	1127	1000
7253	0.0370993	-0.058138	136.106	0	0	0	-0.00333291	0.00523708	-6.94325	1127	1000	1127	1000	1127	1000
7263	0.037082	-0.0581351	136.156	0	0	0	-0.00333177	0.00523605	-6.94583	1127	1000	1127	1000	1127	1000
7273	0.0370815	-0.0581943	136.232	0	0	0	-0.00333192	0.00524081	-6.94968	1127	1000	1127	1000	1128	1000
7283	0.0371489	-0.0581924	136.313	0	0	0	-0.00333771	0.00524138	-6.95385	1128	1000	1127	1000	1128	1000
7293	0.0371777	-0.0582178	136.376	0	0	0	-0.00333831	0.0052446	-6.95707	1128	1000	1127	1000	1128	1000
7303	0.0372239	-0.058198	136.421	0	0	0	-0.00334231	0.00524179	-6.95931	1128	1000	1127	1000	1128	1000
7313	0.0372828	-0.05821	136.483	0	0	0	-0.00334856	0.00524269	-6.96253	1128	1000	1128	1000	1128	1000
7323	0.0372791	-0.0582184	136.534	0	0	0	-0.00334854	0.00524407	-6.9651	1128	1000	1128	1000	1128	1000
7333	0.0373484	-0.058194	136.609	0	0	0	-0.0033556	0.00524014	-6.96895	1128	1000	1128	1000	1128	1000
7343	0.0373355	-0.0582511	136.691	0	0	0	-0.00335365	0.00524638	-6.97313	1128	1000	1128	1000	1128	1000
7353	0.0373508	-0.0582853	136.754	0	0	0	-0.00335502	0.00525037	-6.97633	1128	1000	1128	1000	1128	1000
7364	0.0373658	-0.0583041	136.798	0	0	0	-0.00335738	0.00525153	-6.97858	1128	1000	1128	1000	1128	1000
7374	0.0373186	-0.0583519	136.861	0	0	0	-0.00335273	0.00525614	-6.9818	1128	1000	1128	1000	1128	1000
7384	0.0373606	-0.0583642	136.924	0	0	0	-0.00335637	0.00525672	-6.98501	1128	1000	1128	1000	1128	1000
7394	0.0374375	-0.0583649	137.006	0	0	0	-0.0033628	0.00525668	-6.98919	1128	1000	1128	1000	1128	1000
7404	0.037498	-0.0583946	137.05	0	0	0	-0.00336827	0.00526049	-6.99143	1128	1000	1128	1000	1128	1000
7414	0.0375278	-0.0583896	137.113	0	0	0	-0.00337064	0.00525996	-6.99465	1128	1000	1128	1000	1128	1000
7424	0.0375625	-0.0584475	137.176	0	0	0	-0.00337343	0.00526543	-6.99786	1128	1000	1128	1000	1128	1000
7434	0.0375604	-0.0584273	137.271	0	0	0	-0.00337322	0.00526182	-7.00268	1128	1000	1128	1000	1129	1000
7444	0.0375874	-0.0584314	137.334	0	0	0	-0.00337648	0.00526107	-7.00589	1129	1000	1128	1000	1129	1000
7454	0.0375871	-0.0584595	137.384	0	0	0	-0.0033769	0.00526405	-7.00846	1129	1000	1128	1000	1129	1000
7464	0.0375562	-0.0584483	137.428	0	0	0	-0.00337367	0.00526304	-7.01071	1129	1000	1128	1000	1129	1000
7474	0.0375171	-0.0585333	137.491	0	0	0	-0.00337005	0.00527208	-7.01392	1129	1000	1128	1000	1129	1000
7484	0.037567	-0.0585892	137.554	0	0	0	-0.00337434	0.00527897	-7.01713	1129	1000	1129	1000	1129	1000
7494	0.0376161	-0.0586192	137.636	0	0	0	-0.00337842	0.00528196	-7.02131	1129	1000	1129	1000	1129	1000
7504	0.0377003	-0.0586105	137.712	0	0	0	-0.0033865	0.00527899	-7.02516	1129	1000	1129	1000	1129	1000
7515	0.037709	-0.058631	137.762	0	0	0	-0.00338689	0.00528087	-7.02773	1129	1000	1129	1000	1129	1000
7525	0.0377701	-0.0586042	137.806	0	0	0	-0.00339309	0.0052779	-7.02998	1129	1000	1129	1000	1129	1000
7535	0.0377687	-0.0586152	137.869	0	0	0	-0.00339255	0.00527825	-7.03319	1129	1000	1129	1000	1129	1000
7545	0.0377487	-0.0586334	137.932	0	0	0	-0.0033898	0.00528042	-7.03641	1129	1000	1129	1000	1129	1000
7555	0.0377256	-0.0586606	138.014	0	0	0	-0.00338814	0.00528344	-7.04058	1129	1000	1129	1000	1129	1000
7565	0.0376862	-0.0587746	138.09	0	0	0	-0.00338448	0.00529549	-7.04444	1129	1000	1129	1000	1129	1000
7575	0.0376299	-0.0588239	138.14	0	0	0	-0.00337976	0.00529997	-7.047	1129	1000	1129	1000	1129	1000
7585	0.0377106	-0.0588528	138.203	0	0	0	-0.00338737	0.00530257	-7.05021	1129	1000	1129	1000	1129	1000
7595	0.0377433	-0.0588293	138.247	0	0	0	-0.00338952	0.00529981	-7.05246	1129	1000	1129	1000	1129	1000
7605	0.0377656	-0.0588533	138.329	0	0	0	-0.0033908	0.00530124	-7.05664	1129	1000	1129	1000	1130	1000
7615	0.0377762	-0.0589063	138.404	0	0	0	-0.00339151	0.00530654	-7.06049	1130	1000	1129	1000	1130	1000
7625	0.0378018	-0.0589406	138.467	0	0	0	-0.00339429	0.0053102	-7.0637	1130	1000	1129	1000	1130	1000
7635	0.0377803	-0.0589647	138.518	0	0	0	-0.00339275	0.00531171	-7.06627	1130	1000	1129	1000	1130	1000
7645	0.0377986	-0.0590072	138.562	0	0	0	-0.00339424	0.00531566	-7.06852	1130	1000	1129	1000	1130	1000
7656	0.0378314	-0.058985	138.625	0	0	0	-0.00339879	0.00531246	-7.07173	1130	1000	1130	1000	1130	1000
7666	0.0377816	-0.0590794	138.719	0	0	0	-0.00339426	0.00532129	-7.07656	1130	1000	1130	1000	1130	1000
7676	0.037707	-0.0591259	138.782	0	0	0	-0.00338594	0.00532648	-7.07977	1130	1000	1130	1000	1130	1000
7686	0.0378034	-0.0591163	138.845	0	0	0	-0.00339531	0.00532518	-7.08298	1130	1000	1130	1000	1130	1000
7696	0.037882	-0.0590972	138.908	0	0	0	-0.00340325	0.00532264	-7.08619	1130	1000	1130	1000	1130	1000
7706	0.0378889	-0.0591506	138.959	0	0	0	-0.00340304	0.00532809	-7.08876	1130	1000	1130	1000	1130	1000
7716	0.0379361	-0.0591253	139.022	0	0	0	-0.00340694	0.00532553	-7.09197	1130	1000	1130	1000	1130	1000
7726	0.0379529	-0.0591363	139.085	0	0	0	-0.00340863	0.00532576	-7.09518	1130	1000	1130	1000	1130	1000
7736	0.0380181	-0.0591666	139.16	0	0	0	-0.00341573	0.00532895	-7.09904	1130	1000	1130	1000	1130	1000
7746	0.0380799	-0.0591914	139.223	0	0	0	-0.00342234	0.00533127	-7.10225	1130	1000	1130	1000	1130	1000
7756	0.0380488	-0.0592142	139.286	0	0	0	-0.00341905	0.0053333	-7.10546	1130	1000	1130	1000	1130	1000
7766	0.0379927	-0.0592592	139.349	0	0	0	-0.0034124	0.00533751	-7.10868	1130	1000	1130	1000	1130	1000
7776	0.0379561	-0.0592951	139.4	0	0	0	-0.00340895	0.0053407	-7.11125	1130	1000	1130	1000	1131	1000
7786	0.038073	-0.0592794	139.463	0	0	0	-0.00342023	0.00533879	-7.11446	1131	1000	1130	1000	1131	1000
7797	0.0381622	-0.0592513	139.526	0	0	0	-0.00342958	0.00533578	-7.11767	1131	1000	1130	1000	1131	1000
7807	0.0382175	-0.059285	139.57	0	0	0	-0.00343419	0.00533946	-7.11992	1131	1000	1130	1000	1131	1000
7817	0.038219	-0.0592803	139.664	0	0	0	-0.00343183	0.00533908	-7.12474	1131	1000	1131	1000	1131	1000
7827	0.0382019	-0.0592916	139.727	0	0	0	-0.0034299	0.00533984	-7.12795	1131	1000	1131	1000	1131	1000
7837	0.0381711	-0.0593168	139.777	0	0	0	-0.00342679	0.00534261	-7.13052	1131	1000	1131	1000	1131	1000
7847	0.0381541	-0.0593368	139.84	0	0	0	-0.00342518	0.00534469	-7.13373	1131	1000	1131	1000	1131	1000
7857	0.0381511	-0.0593754	139.903	0	0	0	-0.00342626	0.0053478	-7.13694	1131	1000	1131	1000	1131	1000
7867	0.0381422	-0.0593837	139.966	0	0	0	-0.00342707	0.00534765	-7.14016	1131	1000	1131	1000	1131	1000
7877	0.0381321	-0.059451	140.061	0	0	0	-0.00342539	0.00535511	-7.14497	1131	1000	1131	1000	1131	1000
7887	0.0381874	-0.0594611	140.105	0	0	0	-0.00343044	0.00535655	-7.14722	1131	1000	1131	1000	1131	1000
7897	0.0382308	-0.0594687	140.168	0	0	0	-0.00343383	0.00535716	-7.15043	1131	1000	1131	1000	1131	1000
7907	0.0382393	-0.0595357	140.218	0	0	0	-0.00343409	0.00536377	-7.153	1131	1000	1131	1000	1131	1000
7917	0.0382773	-0.0595492	140.281	0	0	0	-0.00343719	0.00536482	-7.15622	1131	1000	1131	1000	1131	1000
7927	0.0383231	-0.059587	140.357	0	0	0	-0.00344265	0.00536783	-7.16007	1131	1000	1131	1000	1131	1000
7938	0.0383604	-0.059661	140.439	0	0	0	-0.00344678	0.00537505	-7.16425	1131	1000	1131	1000	1131	1000
7948	0.0383712	-0.05972	140.502	0	0	0	-0.00344777	0.00538081	-7.16746	1131	1000	1131	1000	1132	1000
7958	0.0383679	-0.0597404	140.552	0	0	0	-0.00344729	0.00538146	-7.17004	1132	1000	1131	1000	1132	1000
7968	0.0383459	-0.0597938	140.616	0	0	0	-0.00344495	0.00538576	-7.17327	1132	1000	1131	1000	1132	1000
7978	0.0383583	-0.0598249	140.679	0	0	0	-0.00344627	0.00538837	-7.17649	1132	1000	1131	1000	1132	1000
7988	0.0384474	-0.0597885	140.723	0	0	0	-0.00345425	0.00538477	-7.17875	1132	1000	1132	1000	1132	1000
7998	0.0385186	-0.0598044	140.818	0	0	0	-0.00345956	0.00538711	-7.18358	1132	1000	1132	1000	1132	1000
8008	0.0385573	-0.0598487	140.869	0	0	0	-0.00346343	0.00539112	-7.18617	1132	1000	1132	1000	1132	1000
8018	0.038566	-0.0598788	140.913	0	0	0	-0.00346383	0.00539457	-7.18843	1132	1000	1132	1000	1132	1000
8028	0.0385858	-0.0599573	141.008	0	0	0	-0.00346553	0.00540186	-7.19327	1132	1000	1132	1000	1132	1000
8038	0.0385798	-0.0599738	141.058	0	0	0	-0.00346529	0.00540301	-7.19585	1132	1000	1132	1000	1132	1000
8048	0.0385713	-0.059979	141.103	0	0	0	-0.00346429	0.00540274	-7.19811	1132	1000	1132	1000	1132	1000
8058	0.0384595	-0.060013	141.197	0	0	0	-0.00345249	0.0054047	-7.20294	1132	1000	1132	1000	1132	1000
8068	0.0383764	-0.0600389	141.248	0	0	0	-0.00344445	0.00540638	-7.20553	1132	1000	1132	1000	1132	1000
8078	0.0383929	-0.0600442	141.292	0	0	0	-0.00344693	0.00540676	-7.20778	1132	1000	1132	1000	1132	1000
8089	0.0384964	-0.0600732	141.374	0	0	0	-0.00345872	0.00541129	-7.21197	1132	1000	1132	1000	1132	1000
8099	0.0385778	-0.0601102	141.45	0	0	0	-0.00346605	0.00541545	-7.21584	1132	1000	1132	1000	1132	1000
8109	0.0386067	-0.0601234	141.482	0	0	0	-0.00346855	0.00541655	-7.21745	1132	1000	1132	1000	1132	1000
8119	0.0386076	-0.0601304	141.545	0	0	0	-0.00346782	0.0054164	-7.22067	1132	1000	1132	1000	1133	1000
