Time	Roll	Pitch	Yaw	ForceX	ForceY	ForceZ	TorqueRoll	TorquePitch	TorqueYaw	PWM0	PWM1	PWM2	PWM3	PWM4	PWM5	
70	0	1	2	3	4	5	6	7	8	9	10	11	12	13	14
70	0	1	0	3	4	5	6	7	8	9	10	11	12	13	14
80	0.107035	0.0223434	0	3	4	5	6	7	8	9	10	11	12	13	14
90	0.106966	0.0223434	0	3	4	5	6	7	8	9	10	11	12	13	14
90	0.106966	0.0223434	-149.619	3	4	5	6	7	8	9	10	11	12	13	14
100	0.106943	0.0223112	-149.569	3	4	5	6	7	8	9	10	11	12	13	14
110	0.106908	0.0223354	-149.507	3	4	5	6	7	8	9	10	11	12	13	14
120	0.106901	0.0223418	-149.432	3	4	5	6	7	8	9	10	11	12	13	14
130	0.106955	0.0223319	-149.351	3	4	5	6	7	8	9	10	11	12	13	14
140	0.106983	0.0223305	-149.307	3	4	5	6	7	8	9	10	11	12	13	14
150	0.106943	0.0223013	-149.244	3	4	5	6	7	8	9	10	11	12	13	14
160	0.106879	0.022271	-149.194	3	4	5	6	7	8	9	10	11	12	13	14
171	0.106809	0.0223094	-149.132	3	4	5	6	7	8	9	10	11	12	13	14
181	0.106777	0.022272	-149.07	3	4	5	6	7	8	9	10	11	12	13	14
191	0.106702	0.022305	-148.995	3	4	5	6	7	8	9	10	11	12	13	14
201	0.106652	0.0222789	-148.932	3	4	5	6	7	8	9	10	11	12	13	14
211	0.106675	0.022269	-148.851	3	4	5	6	7	8	9	10	11	12	13	14
221	0.106755	0.022172	-148.808	3	4	5	6	7	8	9	10	11	12	13	14
231	0.106786	0.0221581	-148.745	3	4	5	6	7	8	9	10	11	12	13	14
241	0.106857	0.0221379	-148.664	3	4	5	6	7	8	9	10	11	12	13	14
251	0.106841	0.0220522	-148.602	3	4	5	6	7	8	9	10	11	12	13	14
261	0.10674	0.0220541	-148.539	3	4	5	6	7	8	9	10	11	12	13	14
271	0.106688	0.0220529	-148.477	3	4	5	6	7	8	9	10	11	12	13	14
281	0.106624	0.0219558	-148.414	3	4	5	6	7	8	9	10	11	12	13	14
291	0.106641	0.0219788	-148.352	3	4	5	6	7	8	9	10	11	12	13	14
301	0.106616	0.0219709	-148.29	3	4	5	6	7	8	9	10	11	12	13	14
311	0.106567	0.0219214	-148.227	3	4	5	6	7	8	9	10	11	12	13	14
322	0.10655	0.0218729	-148.184	3	4	5	6	7	8	9	10	11	12	13	14
332	0.106602	0.0218781	-148.121	3	4	5	6	7	8	9	10	11	12	13	14
342	0.106642	0.0218958	-148.071	3	4	5	6	7	8	9	10	11	12	13	14
352	0.106681	0.0218191	-147.996	3	4	5	6	7	8	9	10	11	12	13	14
362	0.106486	0.0218445	-147.903	3	4	5	6	7	8	9	10	11	12	13	14
372	0.106414	0.021816	-147.84	3	4	5	6	7	8	9	10	11	12	13	14
382	0.106389	0.0218228	-147.809	3	4	5	6	7	8	9	10	11	12	13	14
392	0.106369	0.0217983	-147.747	3	4	5	6	7	8	9	10	11	12	13	14
402	0.106363	0.021826	-147.684	3	4	5	6	7	8	9	10	11	12	13	14
412	0.106371	0.0218771	-147.603	3	4	5	6	7	8	9	10	11	12	13	14
422	0.106384	0.021865	-147.56	3	4	5	6	7	8	9	10	11	12	13	14
432	0.10646	0.0218257	-147.478	3	4	5	6	7	8	9	10	11	12	13	14
442	0.106502	0.0218032	-147.435	3	4	5	6	7	8	9	10	11	12	13	14
452	0.1065	0.0217576	-147.341	3	4	5	6	7	8	9	10	11	12	13	14
463	0.106515	0.0217501	-147.31	3	4	5	6	7	8	9	10	11	12	13	14
473	0.106451	0.0217403	-147.229	3	4	5	6	7	8	9	10	11	12	13	14
483	0.106356	0.0216911	-147.185	3	4	5	6	7	8	9	10	11	12	13	14
493	0.106239	0.0216736	-147.123	3	4	5	6	7	8	9	10	11	12	13	14
503	0.106166	0.0217139	-147.029	3	4	5	6	7	8	9	10	11	12	13	14
513	0.106119	0.0217732	-146.967	3	4	5	6	7	8	9	10	11	12	13	14
523	0.106127	0.0218131	-146.904	3	4	5	6	7	8	9	10	11	12	13	14
533	0.106167	0.0218279	-146.855	3	4	5	6	7	8	9	10	11	12	13	14
543	0.106227	0.0217773	-146.792	3	4	5	6	7	8	9	10	11	12	13	14
553	0.106141	0.0217661	-146.717	3	4	5	6	7	8	9	10	11	12	13	14
563	0.106026	0.0217602	-146.655	3	4	5	6	7	8	9	10	11	12	13	14
573	0.105943	0.0216812	-146.592	3	4	5	6	7	8	9	10	11	12	13	14
583	0.105986	0.0216722	-146.561	3	4	5	6	7	8	9	10	11	12	13	14
594	0.105934	0.0216196	-146.48	3	4	5	6	7	8	9	10	11	12	13	14
604	0.105941	0.0216026	-146.418	3	4	5	6	7	8	9	10	11	12	13	14
614	0.105976	0.0215372	-146.343	3	4	5	6	7	8	9	10	11	12	13	14
624	0.105991	0.0215494	-146.312	3	4	5	6	7	8	9	10	11	12	13	14
634	0.105973	0.0215746	-146.249	3	4	5	6	7	8	9	10	11	12	13	14
644	0.106027	0.0215979	-146.168	3	4	5	6	7	8	9	10	11	12	13	14
654	0.105938	0.0216	-146.093	3	4	5	6	7	8	9	10	11	12	13	14
664	0.105905	0.0215925	-146.031	3	4	5	6	7	8	9	10	11	12	13	14
674	0.105844	0.0215593	-145.969	3	4	5	6	7	8	9	10	11	12	13	14
684	0.105806	0.0215724	-145.919	3	4	5	6	7	8	9	10	11	12	13	14
694	0.105773	0.0215399	-145.856	3	4	5	6	7	8	9	10	11	12	13	14
704	0.105751	0.0215694	-145.794	3	4	5	6	7	8	9	10	11	12	13	14
714	0.105782	0.0214545	-145.719	3	4	5	6	7	8	9	10	11	12	13	14
725	0.105773	0.0214893	-145.657	3	4	5	6	7	8	9	10	11	12	13	14
735	0.105862	0.0215261	-145.594	3	4	5	6	7	8	9	10	11	12	13	14
745	0.105996	0.0215096	-145.532	3	4	5	6	7	8	9	10	11	12	13	14
755	0.105872	0.0215313	-145.482	3	4	5	6	7	8	9	10	11	12	13	14
765	0.105739	0.0215222	-145.42	3	4	5	6	7	8	9	10	11	12	13	14
775	0.105629	0.0215141	-145.345	3	4	5	6	7	8	9	10	11	12	13	14
785	0.105553	0.0215489	-145.295	3	4	5	6	7	8	9	10	11	12	13	14
795	0.105539	0.0215694	-145.22	3	4	5	6	7	8	9	10	11	12	13	14
805	0.10554	0.0215858	-145.158	3	4	5	6	7	8	9	10	11	12	13	14
815	0.105523	0.0215538	-145.095	3	4	5	6	7	8	9	10	11	12	13	14
825	0.105577	0.0215501	-145.033	3	4	5	6	7	8	9	10	11	12	13	14
835	0.105642	0.0215871	-144.971	3	4	5	6	7	8	9	10	11	12	13	14
845	0.105685	0.0215378	-144.921	3	4	5	6	7	8	9	10	11	12	13	14
855	0.105618	0.0215606	-144.858	3	4	5	6	7	8	9	10	11	12	13	14
865	0.105553	0.0215797	-144.783	3	4	5	6	7	8	9	10	11	12	13	14
876	0.105502	0.0216124	-144.721	3	4	5	6	7	8	9	10	11	12	13	14
886	0.105433	0.0216102	-144.64	3	4	5	6	7	8	9	10	11	12	13	14
896	0.105375	0.0215765	-144.596	3	4	5	6	7	8	9	10	11	12	13	14
906	0.105294	0.0215485	-144.515	3	4	5	6	7	8	9	10	11	12	13	14
916	0.105339	0.0215092	-144.472	3	4	5	6	7	8	9	10	11	12	13	14
926	0.105362	0.0215202	-144.409	3	4	5	6	7	8	9	10	11	12	13	14
936	0.105395	0.0215439	-144.347	3	4	5	6	7	8	9	10	11	12	13	14
946	0.105427	0.0215746	-144.297	3	4	5	6	7	8	9	10	11	12	13	14
956	0.105245	0.0215227	-144.222	3	4	5	6	7	8	9	10	11	12	13	14
966	0.105167	0.0215154	-144.141	3	4	5	6	7	8	9	10	11	12	13	14
976	0.105186	0.0214551	-144.097	3	4	5	6	7	8	9	10	11	12	13	14
986	0.105162	0.0214604	-144.035	3	4	5	6	7	8	9	10	11	12	13	14
996	0.105043	0.021381	-143.972	3	4	5	6	7	8	9	10	11	12	13	14
1007	0.105016	0.0213876	-143.922	3	4	5	6	7	8	9	10	11	12	13	14
1017	0.104994	0.0213801	-143.86	3	4	5	6	7	8	9	10	11	12	13	14
1027	0.105007	0.0213229	-143.785	3	4	5	6	7	8	9	10	11	12	13	14
1037	0.105027	0.0213999	-143.704	3	4	5	6	7	8	9	10	11	12	13	14
1047	0.105042	0.0214457	-143.642	3	4	5	6	7	8	9	10	11	12	13	14
1057	0.104965	0.0214205	-143.579	3	4	5	6	7	8	9	10	11	12	13	14
1067	0.104913	0.0214182	-143.536	3	4	5	6	7	8	9	10	11	12	13	14
1077	0.104839	0.0214252	-143.473	3	4	5	6	7	8	9	10	11	12	13	14
1087	0.104715	0.0214178	-143.411	3	4	5	6	7	8	9	10	11	12	13	14
1097	0.1047	0.0213501	-143.348	3	4	5	6	7	8	9	10	11	12	13	14
1107	0.104691	0.0213468	-143.286	3	4	5	6	7	8	9	10	11	12	13	14
1117	0.104684	0.0212771	-143.192	3	4	5	6	7	8	9	10	11	12	13	14
1127	0.10472	0.0213154	-143.143	3	4	5	6	7	8	9	10	11	12	13	14
1137	0.104748	0.0212503	-143.08	3	4	5	6	7	8	9	10	11	12	13	14
1148	0.104794	0.0212423	-143.037	3	4	5	6	7	8	9	10	11	12	13	14
1158	0.104644	0.0211982	-142.974	3	4	5	6	7	8	9	10	11	12	13	14
1168	0.104501	0.0211198	-142.912	3	4	5	6	7	8	9	10	11	12	13	14
1178	0.104453	0.0211122	-142.831	3	4	5	6	7	8	9	10	11	12	13	14
1188	0.104354	0.0211162	-142.768	3	4	5	6	7	8	9	10	11	12	13	14
1198	0.104332	0.0210907	-142.706	3	4	5	6	7	8	9	10	11	12	13	14
1208	0.104322	0.0210519	-142.643	3	4	5	6	7	8	9	10	11	12	13	14
1218	0.104311	0.0210501	-142.6	3	4	5	6	7	8	9	10	11	12	13	14
1228	0.104352	0.0210225	-142.537	3	4	5	6	7	8	9	10	11	12	13	14
1238	0.104387	0.0210082	-142.456	3	4	5	6	7	8	9	10	11	12	13	14
1248	0.10436	0.020947	-142.381	3	4	5	6	7	8	9	10	11	12	13	14
1258	0.104342	0.0209378	-142.35	3	4	5	6	7	8	9	10	11	12	13	14
1268	0.104223	0.0208443	-142.288	3	4	5	6	7	8	9	10	11	12	13	14
1279	0.104208	0.0208258	-142.225	3	4	5	6	7	8	9	10	11	12	13	14
1289	0.104152	0.0208237	-142.163	3	4	5	6	7	8	9	10	11	12	13	14
1299	0.104067	0.0207318	-142.07	3	4	5	6	7	8	9	10	11	12	13	14
1309	0.104079	0.0207451	-142.02	3	4	5	6	7	8	9	10	11	12	13	14
1319	0.103984	0.0206929	-141.945	3	4	5	6	7	8	9	10	11	12	13	14
1329	0.104011	0.020756	-141.895	3	4	5	6	7	8	9	10	11	12	13	14
1339	0.104029	0.0207651	-141.851	3	4	5	6	7	8	9	10	11	12	13	14
1349	0.104099	0.0207876	-141.77	3	4	5	6	7	8	9	10	11	12	13	14
1359	0.104018	0.0207938	-141.726	3	4	5	6	7	8	9	10	11	12	13	14
1369	0.103902	0.0207783	-141.645	3	4	5	6	7	8	9	10	11	12	13	14
1379	0.1038	0.0207848	-141.571	3	4	5	6	7	8	9	10	11	12	13	14
1389	0.103777	0.0208622	-141.521	3	4	5	6	7	8	9	10	11	12	13	14
1399	0.103753	0.0208128	-141.477	3	4	5	6	7	8	9	10	11	12	13	14
1409	0.103732	0.0207357	-141.383	3	4	5	6	7	8	9	10	11	12	13	14
1420	0.103774	0.0206956	-141.321	3	4	5	6	7	8	9	10	11	12	13	14
1430	0.103794	0.0207041	-141.259	3	4	5	6	7	8	9	10	11	12	13	14
1440	0.103844	0.0207146	-141.209	3	4	5	6	7	8	9	10	11	12	13	14
1450	0.103907	0.0207475	-141.147	3	4	5	6	7	8	9	10	11	12	13	14
1460	0.103819	0.0207538	-141.103	3	4	5	6	7	8	9	10	11	12	13	14
1470	0.103745	0.0207198	-141.022	3	4	5	6	7	8	9	10	11	12	13	14
1480	0.103701	0.0207083	-140.978	3	4	5	6	7	8	9	10	11	12	13	14
1490	0.103583	0.0206149	-140.897	3	4	5	6	7	8	9	10	11	12	13	14
1500	0.103575	0.0206445	-140.835	3	4	5	6	7	8	9	10	11	12	13	14
1510	0.103557	0.0206822	-140.76	3	4	5	6	7	8	9	10	11	12	13	14
1520	0.10353	0.02065	-140.697	3	4	5	6	7	8	9	10	11	12	13	14
1530	0.103564	0.0206265	-140.635	3	4	5	6	7	8	9	10	11	12	13	14
1540	0.103595	0.0206507	-140.585	3	4	5	6	7	8	9	10	11	12	13	14
1551	0.103597	0.0206604	-140.523	3	4	5	6	7	8	9	10	11	12	13	14
1561	0.103472	0.0206558	-140.46	3	4	5	6	7	8	9	10	11	12	13	14
1571	0.103386	0.020642	-140.398	3	4	5	6	7	8	9	10	11	12	13	14
1581	0.103387	0.0206171	-140.323	3	4	5	6	7	8	9	10	11	12	13	14
1591	0.103314	0.0206299	-140.261	3	4	5	6	7	8	9	10	11	12	13	14
1601	0.10328	0.0206493	-140.198	3	4	5	6	7	8	9	10	11	12	13	14
1611	0.103273	0.0206396	-140.148	3	4	5	6	7	8	9	10	11	12	13	14
1621	0.103308	0.0206493	-140.086	3	4	5	6	7	8	9	10	11	12	13	14
1631	0.103434	0.0206729	-140.011	3	4	5	6	7	8	9	10	11	12	13	14
1641	0.103539	0.0206619	-139.93	3	4	5	6	7	8	9	10	11	12	13	14
1651	0.103531	0.0206642	-139.887	3	4	5	6	7	8	9	10	11	12	13	14
1661	0.103443	0.0206756	-139.837	3	4	5	6	7	8	9	10	11	12	13	14
1671	0.10339	0.0206381	-139.774	3	4	5	6	7	8	9	10	11	12	13	14
1682	0.103263	0.0206191	-139.712	3	4	5	6	7	8	9	10	11	12	13	14
1692	0.103197	0.0206426	-139.637	3	4	5	6	7	8	9	10	11	12	13	14
1702	0.103185	0.0206236	-139.556	3	4	5	6	7	8	9	10	11	12	13	14
1712	0.103147	0.0206757	-139.494	3	4	5	6	7	8	9	10	11	12	13	14
1722	0.103086	0.0206766	-139.45	3	4	5	6	7	8	9	10	11	12	13	14
1732	0.103135	0.0207043	-139.387	3	4	5	6	7	8	9	10	11	12	13	14
1742	0.103247	0.0206299	-139.325	3	4	5	6	7	8	9	10	11	12	13	14
1752	0.103255	0.02058	-139.275	3	4	5	6	7	8	9	10	11	12	13	14
1762	0.10307	0.020589	-139.2	3	4	5	6	7	8	9	10	11	12	13	14
1772	0.102989	0.0206085	-139.138	3	4	5	6	7	8	9	10	11	12	13	14
1782	0.102939	0.0206116	-139.076	3	4	5	6	7	8	9	10	11	12	13	14
1792	0.102912	0.0205652	-139.026	3	4	5	6	7	8	9	10	11	12	13	14
1802	0.102816	0.0205423	-138.932	3	4	5	6	7	8	9	10	11	12	13	14
1812	0.102751	0.0204955	-138.87	3	4	5	6	7	8	9	10	11	12	13	14
1823	0.102753	0.0205006	-138.826	3	4	5	6	7	8	9	10	11	12	13	14
1833	0.102783	0.0204647	-138.745	3	4	5	6	7	8	9	10	11	12	13	14
1843	0.102827	0.0204431	-138.701	3	4	5	6	7	8	9	10	11	12	13	14
1853	0.102759	0.0204402	-138.639	3	4	5	6	7	8	9	10	11	12	13	14
1863	0.102661	0.0203967	-138.577	3	4	5	6	7	8	9	10	11	12	13	14
1873	0.102618	0.0203502	-138.514	3	4	5	6	7	8	9	10	11	12	13	14
1883	0.102588	0.0203412	-138.433	3	4	5	6	7	8	9	10	11	12	13	14
1893	0.102568	0.0203663	-138.389	3	4	5	6	7	8	9	10	11	12	13	14
1903	0.102559	0.0203779	-138.327	3	4	5	6	7	8	9	10	11	12	13	14
1913	0.102609	0.0203508	-138.246	3	4	5	6	7	8	9	10	11	12	13	14
1923	0.102613	0.0203513	-138.183	3	4	5	6	7	8	9	10	11	12	13	14
1933	0.102668	0.0203843	-138.108	3	4	5	6	7	8	9	10	11	12	13	14
1943	0.102728	0.0204432	-138.059	3	4	5	6	7	8	9	10	11	12	13	14
1953	0.102673	0.020433	-137.996	3	4	5	6	7	8	9	10	11	12	13	14
1963	0.102557	0.0204302	-137.952	3	4	5	6	7	8	9	10	11	12	13	14
1974	0.102507	0.020413	-137.89	3	4	5	6	7	8	9	10	11	12	13	14
1984	0.102445	0.0204129	-137.828	3	4	5	6	7	8	9	10	11	12	13	14
1994	0.102467	0.0204234	-137.765	3	4	5	6	7	8	9	10	11	12	13	14
2004	0.102403	0.0204162	-137.672	3	4	5	6	7	8	9	10	11	12	13	14
2014	0.102411	0.0204657	-137.622	3	4	5	6	7	8	9	10	11	12	13	14
2024	0.102467	0.020476	-137.547	3	4	5	6	7	8	9	10	11	12	13	14
2034	0.102492	0.0204773	-137.485	3	4	5	6	7	8	9	10	11	12	13	14
2044	0.102514	0.0204845	-137.435	3	4	5	6	7	8	9	10	11	12	13	14
2054	0.102414	0.0204631	-137.372	3	4	5	6	7	8	9	10	11	12	13	14
2064	0.102342	0.020468	-137.329	3	4	5	6	7	8	9	10	11	12	13	14
2074	0.102241	0.0204369	-137.266	3	4	5	6	7	8	9	10	11	12	13	14
2084	0.102231	0.0204408	-137.185	3	4	5	6	7	8	9	10	11	12	13	14
2094	0.102126	0.0204647	-137.11	3	4	5	6	7	8	9	10	11	12	13	14
2104	0.102133	0.0204772	-137.06	3	4	5	6	7	8	9	10	11	12	13	14
2115	0.102126	0.0204893	-136.985	3	4	5	6	7	8	9	10	11	12	13	14
2125	0.102153	0.0205255	-136.936	3	4	5	6	7	8	9	10	11	12	13	14
2135	0.102094	0.0204994	-136.892	3	4	5	6	7	8	9	10	11	12	13	14
2145	0.102182	0.0204725	-136.811	3	4	5	6	7	8	9	10	11	12	13	14
2155	0.102134	0.0204725	-136.748	3	4	5	6	7	8	9	10	11	12	13	14
2165	0.102085	0.0204839	-136.686	3	4	5	6	7	8	9	10	11	12	13	14
2175	0.102006	0.0204506	-136.611	3	4	5	6	7	8	9	10	11	12	13	14
2185	0.102028	0.0204635	-136.561	3	4	5	6	7	8	9	10	11	12	13	14
2195	0.102009	0.0204497	-136.499	3	4	5	6	7	8	9	10	11	12	13	14
2205	0.101949	0.0204649	-136.436	3	4	5	6	7	8	9	10	11	12	13	14
2215	0.10197	0.0204346	-136.362	3	4	5	6	7	8	9	10	11	12	13	14
2225	0.101978	0.0204495	-136.299	3	4	5	6	7	8	9	10	11	12	13	14
2235	0.102001	0.0204404	-136.237	3	4	5	6	7	8	9	10	11	12	13	14
2245	0.102029	0.020438	-136.175	3	4	5	6	7	8	9	10	11	12	13	14
2256	0.10203	0.0204222	-136.125	3	4	5	6	7	8	9	10	11	12	13	14
2266	0.101896	0.0203805	-136.062	3	4	5	6	7	8	9	10	11	12	13	14
2276	0.10184	0.0203618	-136.019	3	4	5	6	7	8	9	10	11	12	13	14
2286	0.10177	0.020357	-135.937	3	4	5	6	7	8	9	10	11	12	13	14
2296	0.101746	0.0203519	-135.887	3	4	5	6	7	8	9	10	11	12	13	14
2306	0.101689	0.0203345	-135.781	3	4	5	6	7	8	9	10	11	12	13	14
2316	0.101743	0.0203478	-135.731	3	4	5	6	7	8	9	10	11	12	13	14
2326	0.101767	0.0203467	-135.687	3	4	5	6	7	8	9	10	11	12	13	14
2336	0.101731	0.0203701	-135.624	3	4	5	6	7	8	9	10	11	12	13	14
2346	0.101802	0.0203369	-135.562	3	4	5	6	7	8	9	10	11	12	13	14
2356	0.101711	0.0203222	-135.499	3	4	5	6	7	8	9	10	11	12	13	14
2366	0.101533	0.0202945	-135.405	3	4	5	6	7	8	9	10	11	12	13	14
2376	0.101499	0.0202932	-135.355	3	4	5	6	7	8	9	10	11	12	13	14
2387	0.10142	0.0203099	-135.292	3	4	5	6	7	8	9	10	11	12	13	14
2397	0.101349	0.020286	-135.248	3	4	5	6	7	8	9	10	11	12	13	14
2407	0.101379	0.0202643	-135.186	3	4	5	6	7	8	9	10	11	12	13	14
2417	0.101411	0.0202645	-135.104	3	4	5	6	7	8	9	10	11	12	13	14
2427	0.101418	0.0202015	-135.029	3	4	5	6	7	8	9	10	11	12	13	14
2437	0.101457	0.0202144	-134.979	3	4	5	6	7	8	9	10	11	12	13	14
2447	0.101481	0.0202083	-134.935	3	4	5	6	7	8	9	10	11	12	13	14
2457	0.101395	0.0201946	-134.873	3	4	5	6	7	8	9	10	11	12	13	14
2467	0.1013	0.0202152	-134.81	3	4	5	6	7	8	9	10	11	12	13	14
2477	0.101164	0.0201466	-134.729	3	4	5	6	7	8	9	10	11	12	13	14
2487	0.10111	0.0201375	-134.654	3	4	5	6	7	8	9	10	11	12	13	14
2497	0.101095	0.0201333	-134.591	3	4	5	6	7	8	9	10	11	12	13	14
2507	0.1011	0.0200984	-134.541	3	4	5	6	7	8	9	10	11	12	13	14
2517	0.101099	0.0200834	-134.498	3	4	5	6	7	8	9	10	11	12	13	14
2528	0.101136	0.0201449	-134.404	3	4	5	6	7	8	9	10	11	12	13	14
2538	0.101165	0.0201404	-134.341	3	4	5	6	7	8	9	10	11	12	13	14
2548	0.101204	0.0201516	-134.31	3	4	5	6	7	8	9	10	11	12	13	14
2558	0.101093	0.020165	-134.248	3	4	5	6	7	8	9	10	11	12	13	14
2568	0.101041	0.0201814	-134.166	3	4	5	6	7	8	9	10	11	12	13	14
2578	0.101032	0.0201329	-134.104	3	4	5	6	7	8	9	10	11	12	13	14
2588	0.101009	0.0200404	-134.029	3	4	5	6	7	8	9	10	11	12	13	14
2598	0.101044	0.0200255	-133.979	3	4	5	6	7	8	9	10	11	12	13	14
2608	0.100984	0.0199979	-133.935	3	4	5	6	7	8	9	10	11	12	13	14
2618	0.100897	0.020073	-133.854	3	4	5	6	7	8	9	10	11	12	13	14
2628	0.100904	0.0200746	-133.779	3	4	5	6	7	8	9	10	11	12	13	14
2638	0.100959	0.019995	-133.717	3	4	5	6	7	8	9	10	11	12	13	14
2648	0.100929	0.0199428	-133.654	3	4	5	6	7	8	9	10	11	12	13	14
2658	0.100842	0.0199086	-133.604	3	4	5	6	7	8	9	10	11	12	13	14
2669	0.100791	0.0198579	-133.56	3	4	5	6	7	8	9	10	11	12	13	14
2679	0.100747	0.0198495	-133.479	3	4	5	6	7	8	9	10	11	12	13	14
2689	0.100626	0.0198348	-133.404	3	4	5	6	7	8	9	10	11	12	13	14
2699	0.100537	0.0197996	-133.342	3	4	5	6	7	8	9	10	11	12	13	14
2709	0.100545	0.0197976	-133.279	3	4	5	6	7	8	9	10	11	12	13	14
2719	0.100599	0.019831	-133.217	3	4	5	6	7	8	9	10	11	12	13	14
2729	0.100698	0.0198397	-133.154	3	4	5	6	7	8	9	10	11	12	13	14
2739	0.100739	0.0198466	-133.104	3	4	5	6	7	8	9	10	11	12	13	14
2749	0.100827	0.0198405	-133.042	3	4	5	6	7	8	9	10	11	12	13	14
2759	0.10078	0.0198494	-132.967	3	4	5	6	7	8	9	10	11	12	13	14
2769	0.100712	0.0198305	-132.904	3	4	5	6	7	8	9	10	11	12	13	14
2779	0.100646	0.0198212	-132.842	3	4	5	6	7	8	9	10	11	12	13	14
2789	0.100641	0.0198166	-132.792	3	4	5	6	7	8	9	10	11	12	13	14
2799	0.100591	0.0197638	-132.717	3	4	5	6	7	8	9	10	11	12	13	14
2810	0.10054	0.0196922	-132.654	3	4	5	6	7	8	9	10	11	12	13	14
2820	0.100478	0.0196891	-132.592	3	4	5	6	7	8	9	10	11	12	13	14
2830	0.100495	0.0195924	-132.511	3	4	5	6	7	8	9	10	11	12	13	14
2840	0.100539	0.0195982	-132.467	3	4	5	6	7	8	9	10	11	12	13	14
2850	0.10057	0.0194824	-132.405	3	4	5	6	7	8	9	10	11	12	13	14
2860	0.100445	0.0194718	-132.342	3	4	5	6	7	8	9	10	11	12	13	14
2870	0.100365	0.0194815	-132.292	3	4	5	6	7	8	9	10	11	12	13	14
2880	0.1003	0.0194949	-132.23	3	4	5	6	7	8	9	10	11	12	13	14
2890	0.100304	0.019483	-132.155	3	4	5	6	7	8	9	10	11	12	13	14
2900	0.10031	0.0194145	-132.092	3	4	5	6	7	8	9	10	11	12	13	14
2910	0.100275	0.0194082	-132.011	3	4	5	6	7	8	9	10	11	12	13	14
2920	0.100262	0.0194136	-131.968	3	4	5	6	7	8	9	10	11	12	13	14
2930	0.100276	0.0193489	-131.905	3	4	5	6	7	8	9	10	11	12	13	14
2940	0.100309	0.0193767	-131.824	3	4	5	6	7	8	9	10	11	12	13	14
2951	0.10027	0.0193534	-131.762	3	4	5	6	7	8	9	10	11	12	13	14
2961	0.100229	0.0193101	-131.718	3	4	5	6	7	8	9	10	11	12	13	14
2971	0.100094	0.0193215	-131.655	3	4	5	6	7	8	9	10	11	12	13	14
2981	0.100009	0.0193595	-131.605	3	4	5	6	7	8	9	10	11	12	13	14
2991	0.0999906	0.0193575	-131.53	3	4	5	6	7	8	9	10	11	12	13	14
3001	0.0999725	0.0193495	-131.481	3	4	5	6	7	8	9	10	11	12	13	14
3011	0.0998911	0.0193574	-131.387	3	4	5	6	7	8	9	10	11	12	13	14
3021	0.099936	0.0193551	-131.324	3	4	5	6	7	8	9	10	11	12	13	14
3031	0.0999117	0.0194029	-131.262	3	4	5	6	7	8	9	10	11	12	13	14
3041	0.0998941	0.0194716	-131.218	3	4	5	6	7	8	9	10	11	12	13	14
3051	0.0998372	0.0194803	-131.156	3	4	5	6	7	8	9	10	11	12	13	14
3061	0.0997059	0.0195008	-131.093	3	4	5	6	7	8	9	10	11	12	13	14
3071	0.0996235	0.0195218	-131.031	3	4	5	6	7	8	9	10	11	12	13	14
3081	0.0996257	0.0194928	-130.95	3	4	5	6	7	8	9	10	11	12	13	14
3091	0.0996024	0.0195157	-130.887	3	4	5	6	7	8	9	10	11	12	13	14
3102	0.0995349	0.0194695	-130.844	3	4	5	6	7	8	9	10	11	12	13	14
3112	0.099494	0.0195105	-130.781	3	4	5	6	7	8	9	10	11	12	13	14
3122	0.0994606	0.0195569	-130.719	3	4	5	6	7	8	9	10	11	12	13	14
3132	0.0995179	0.0195601	-130.656	3	4	5	6	7	8	9	10	11	12	13	14
3142	0.0996451	0.0195825	-130.575	3	4	5	6	7	8	9	10	11	12	13	14
3152	0.0995798	0.0195471	-130.513	3	4	5	6	7	8	9	10	11	12	13	14
3162	0.0994692	0.0195597	-130.45	3	4	5	6	7	8	9	10	11	12	13	14
3172	0.0993798	0.019608	-130.407	3	4	5	6	7	8	9	10	11	12	13	14
3182	0.0992738	0.0195977	-130.344	3	4	5	6	7	8	9	10	11	12	13	14
3192	0.0992476	0.0196083	-130.251	3	4	5	6	7	8	9	10	11	12	13	14
3202	0.0993467	0.0195659	-130.201	3	4	5	6	7	8	9	10	11	12	13	14
3212	0.0993493	0.0196104	-130.138	3	4	5	6	7	8	9	10	11	12	13	14
3222	0.0993422	0.0196527	-130.094	3	4	5	6	7	8	9	10	11	12	13	14
3233	0.0993278	0.0197405	-130.032	3	4	5	6	7	8	9	10	11	12	13	14
3243	0.0993894	0.0197903	-129.97	3	4	5	6	7	8	9	10	11	12	13	14
3253	0.0993294	0.0197988	-129.907	3	4	5	6	7	8	9	10	11	12	13	14
3263	0.0992472	0.0197694	-129.845	3	4	5	6	7	8	9	10	11	12	13	14
3273	0.0991714	0.0197151	-129.751	3	4	5	6	7	8	9	10	11	12	13	14
3283	0.0991526	0.0196854	-129.701	3	4	5	6	7	8	9	10	11	12	13	14
3293	0.0991013	0.0196744	-129.658	3	4	5	6	7	8	9	10	11	12	13	14
3303	0.0990372	0.0195981	-129.595	3	4	5	6	7	8	9	10	11	12	13	14
3313	0.0990686	0.0196211	-129.514	3	4	5	6	7	8	9	10	11	12	13	14
3323	0.099077	0.0196302	-129.439	3	4	5	6	7	8	9	10	11	12	13	14
3333	0.0991018	0.0196827	-129.389	3	4	5	6	7	8	9	10	11	12	13	14
3343	0.0991842	0.0197015	-129.346	3	4	5	6	7	8	9	10	11	12	13	14
3353	0.0991693	0.01974	-129.265	3	4	5	6	7	8	9	10	11	12	13	14
3363	0.0990954	0.0197904	-129.202	3	4	5	6	7	8	9	10	11	12	13	14
3373	0.0989682	0.019827	-129.127	3	4	5	6	7	8	9	10	11	12	13	14
3384	0.0989489	0.0198359	-129.065	3	4	5	6	7	8	9	10	11	12	13	14
3394	0.0989277	0.0197798	-129.002	3	4	5	6	7	8	9	10	11	12	13	14
3404	0.098877	0.0197929	-128.94	3	4	5	6	7	8	9	10	11	12	13	14
3414	0.0989081	0.0198049	-128.89	3	4	5	6	7	8	9	10	11	12	13	14
3424	0.0988819	0.0198322	-128.828	3	4	5	6	7	8	9	10	11	12	13	14
3434	0.0989607	0.0197903	-128.765	3	4	5	6	7	8	9	10	11	12	13	14
3444	0.0990556	0.0197125	-128.69	3	4	5	6	7	8	9	10	11	12	13	14
3454	0.0989886	0.0197518	-128.628	3	4	5	6	7	8	9	10	11	12	13	14
3464	0.0989089	0.0198063	-128.565	3	4	5	6	7	8	9	10	11	12	13	14
3474	0.0988636	0.0198223	-128.503	3	4	5	6	7	8	9	10	11	12	13	14
3484	0.0988311	0.0198623	-128.453	3	4	5	6	7	8	9	10	11	12	13	14
3494	0.09871	0.0198401	-128.378	3	4	5	6	7	8	9	10	11	12	13	14
3504	0.0986609	0.0198694	-128.316	3	4	5	6	7	8	9	10	11	12	13	14
3514	0.0986633	0.0198243	-128.253	3	4	5	6	7	8	9	10	11	12	13	14
3525	0.0986495	0.0198146	-128.191	3	4	5	6	7	8	9	10	11	12	13	14
3535	0.0986981	0.0197428	-128.128	3	4	5	6	7	8	9	10	11	12	13	14
3545	0.0987457	0.0196957	-128.079	3	4	5	6	7	8	9	10	11	12	13	14
3555	0.0986885	0.0196393	-128.004	3	4	5	6	7	8	9	10	11	12	13	14
3565	0.0986026	0.0196987	-127.923	3	4	5	6	7	8	9	10	11	12	13	14
3575	0.0985473	0.0196623	-127.879	3	4	5	6	7	8	9	10	11	12	13	14
3585	0.0984708	0.0196746	-127.816	3	4	5	6	7	8	9	10	11	12	13	14
3595	0.0984124	0.019664	-127.767	3	4	5	6	7	8	9	10	11	12	13	14
3605	0.0985097	0.0196468	-127.692	3	4	5	6	7	8	9	10	11	12	13	14
3615	0.0984533	0.0196081	-127.629	3	4	5	6	7	8	9	10	11	12	13	14
3625	0.0985598	0.0194793	-127.567	3	4	5	6	7	8	9	10	11	12	13	14
3635	0.098603	0.0194901	-127.504	3	4	5	6	7	8	9	10	11	12	13	14
3645	0.0986017	0.0195098	-127.454	3	4	5	6	7	8	9	10	11	12	13	14
3656	0.0984458	0.0195169	-127.379	3	4	5	6	7	8	9	10	11	12	13	14
3666	0.098365	0.0195438	-127.298	3	4	5	6	7	8	9	10	11	12	13	14
3676	0.0982875	0.0195256	-127.236	3	4	5	6	7	8	9	10	11	12	13	14
3686	0.0982358	0.0194786	-127.192	3	4	5	6	7	8	9	10	11	12	13	14
3696	0.0981968	0.0194864	-127.13	3	4	5	6	7	8	9	10	11	12	13	14
3706	0.0982009	0.0194734	-127.067	3	4	5	6	7	8	9	10	11	12	13	14
3716	0.0982274	0.0194322	-127.017	3	4	5	6	7	8	9	10	11	12	13	14
3726	0.0982646	0.0194661	-126.942	3	4	5	6	7	8	9	10	11	12	13	14
3736	0.0982997	0.0194993	-126.861	3	4	5	6	7	8	9	10	11	12	13	14
3746	0.0983319	0.019536	-126.818	3	4	5	6	7	8	9	10	11	12	13	14
3756	0.0982508	0.0195039	-126.755	3	4	5	6	7	8	9	10	11	12	13	14
3766	0.0981317	0.0195074	-126.693	3	4	5	6	7	8	9	10	11	12	13	14
3776	0.097976	0.019503	-126.63	3	4	5	6	7	8	9	10	11	12	13	14
3786	0.0979376	0.0195257	-126.537	3	4	5	6	7	8	9	10	11	12	13	14
3797	0.0979199	0.0195481	-126.487	3	4	5	6	7	8	9	10	11	12	13	14
3807	0.0979179	0.0195406	-126.443	3	4	5	6	7	8	9	10	11	12	13	14
3817	0.09799	0.0195514	-126.381	3	4	5	6	7	8	9	10	11	12	13	14
3827	0.098	0.01956	-126.318	3	4	5	6	7	8	9	10	11	12	13	14
3837	0.0981092	0.0196151	-126.237	3	4	5	6	7	8	9	10	11	12	13	14
3847	0.0980676	0.0195301	-126.162	3	4	5	6	7	8	9	10	11	12	13	14
3857	0.0980093	0.0195267	-126.112	3	4	5	6	7	8	9	10	11	12	13	14
3867	0.0979335	0.0195742	-126.05	3	4	5	6	7	8	9	10	11	12	13	14
3877	0.0978819	0.0195727	-125.987	3	4	5	6	7	8	9	10	11	12	13	14
3887	0.0978667	0.0195093	-125.944	3	4	5	6	7	8	9	10	11	12	13	14
3897	0.0977912	0.0195248	-125.881	3	4	5	6	7	8	9	10	11	12	13	14
3907	0.0977338	0.0194811	-125.819	3	4	5	6	7	8	9	10	11	12	13	14
3917	0.0976958	0.019523	-125.757	3	4	5	6	7	8	9	10	11	12	13	14
3928	0.0977379	0.0194871	-125.663	3	4	5	6	7	8	9	10	11	12	13	14
3938	0.097781	0.0194683	-125.601	3	4	5	6	7	8	9	10	11	12	13	14
3948	0.0978006	0.0194142	-125.551	3	4	5	6	7	8	9	10	11	12	13	14
3958	0.0977636	0.0193888	-125.507	3	4	5	6	7	8	9	10	11	12	13	14
3968	0.0976779	0.019371	-125.413	3	4	5	6	7	8	9	10	11	12	13	14
3978	0.0976726	0.019422	-125.363	3	4	5	6	7	8	9	10	11	12	13	14
3988	0.0976217	0.019436	-125.32	3	4	5	6	7	8	9	10	11	12	13	14
3998	0.0975945	0.0194489	-125.239	3	4	5	6	7	8	9	10	11	12	13	14
4008	0.097471	0.0195119	-125.164	3	4	5	6	7	8	9	10	11	12	13	14
4018	0.0974362	0.0195138	-125.114	3	4	5	6	7	8	9	10	11	12	13	14
4028	0.0974562	0.0195206	-125.07	3	4	5	6	7	8	9	10	11	12	13	14
4038	0.0975436	0.0195641	-124.976	3	4	5	6	7	8	9	10	11	12	13	14
4048	0.0976307	0.0195287	-124.913	3	4	5	6	7	8	9	10	11	12	13	14
4058	0.0976272	0.019501	-124.85	3	4	5	6	7	8	9	10	11	12	13	14
4068	0.0975267	0.0194989	-124.787	3	4	5	6	7	8	9	10	11	12	13	14
4079	0.0974526	0.0195061	-124.725	3	4	5	6	7	8	9	10	11	12	13	14
4089	0.0974084	0.0195213	-124.674	3	4	5	6	7	8	9	10	11	12	13	14
4099	0.0973841	0.0195717	-124.599	3	4	5	6	7	8	9	10	11	12	13	14
4109	0.0973595	0.0195452	-124.549	3	4	5	6	7	8	9	10	11	12	13	14
4119	0.0973882	0.0195972	-124.486	3	4	5	6	7	8	9	10	11	12	13	14
4129	0.0974744	0.0195601	-124.411	3	4	5	6	7	8	9	10	11	12	13	14
4139	0.097523	0.0195113	-124.348	3	4	5	6	7	8	9	10	11	12	13	14
4149	0.0975211	0.0195543	-124.298	3	4	5	6	7	8	9	10	11	12	13	14
4159	0.0975299	0.0195467	-124.236	3	4	5	6	7	8	9	10	11	12	13	14
4169	0.0974444	0.0195369	-124.173	3	4	5	6	7	8	9	10	11	12	13	14
4179	0.0974131	0.0194971	-124.129	3	4	5	6	7	8	9	10	11	12	13	14
4189	0.0973539	0.0194282	-124.035	3	4	5	6	7	8	9	10	11	12	13	14
4199	0.0972995	0.0194419	-123.973	3	4	5	6	7	8	9	10	11	12	13	14
4209	0.0972502	0.0194681	-123.91	3	4	5	6	7	8	9	10	11	12	13	14
4220	0.0972749	0.0195075	-123.847	3	4	5	6	7	8	9	10	11	12	13	14
4230	0.0972553	0.0194899	-123.797	3	4	5	6	7	8	9	10	11	12	13	14
4240	0.0972266	0.0195522	-123.735	3	4	5	6	7	8	9	10	11	12	13	14
4250	0.0972401	0.019535	-123.672	3	4	5	6	7	8	9	10	11	12	13	14
4260	0.0971241	0.0195581	-123.597	3	4	5	6	7	8	9	10	11	12	13	14
4270	0.097041	0.0195606	-123.535	3	4	5	6	7	8	9	10	11	12	13	14
4280	0.0969287	0.0195756	-123.472	3	4	5	6	7	8	9	10	11	12	13	14
4290	0.0969298	0.0195852	-123.422	3	4	5	6	7	8	9	10	11	12	13	14
4300	0.0969055	0.019602	-123.347	3	4	5	6	7	8	9	10	11	12	13	14
4310	0.0968802	0.0195811	-123.285	3	4	5	6	7	8	9	10	11	12	13	14
4320	0.096872	0.0194963	-123.222	3	4	5	6	7	8	9	10	11	12	13	14
4330	0.0968663	0.0195424	-123.16	3	4	5	6	7	8	9	10	11	12	13	14
4340	0.0969153	0.0195542	-123.109	3	4	5	6	7	8	9	10	11	12	13	14
4350	0.0969461	0.0195908	-123.034	3	4	5	6	7	8	9	10	11	12	13	14
4361	0.0969369	0.0195621	-122.972	3	4	5	6	7	8	9	10	11	12	13	14
4371	0.0968267	0.0195371	-122.891	3	4	5	6	7	8	9	10	11	12	13	14
4381	0.0967287	0.0195681	-122.828	3	4	5	6	7	8	9	10	11	12	13	14
4391	0.0966766	0.019595	-122.784	3	4	5	6	7	8	9	10	11	12	13	14
4401	0.0966138	0.0196043	-122.722	3	4	5	6	7	8	9	10	11	12	13	14
4411	0.0965703	0.0196184	-122.659	3	4	5	6	7	8	9	10	11	12	13	14
4421	0.0965304	0.0196019	-122.609	3	4	5	6	7	8	9	10	11	12	13	14
4431	0.0964985	0.0196215	-122.534	3	4	5	6	7	8	9	10	11	12	13	14
4441	0.0965489	0.019544	-122.453	3	4	5	6	7	8	9	10	11	12	13	14
4451	0.0965874	0.0195273	-122.39	3	4	5	6	7	8	9	10	11	12	13	14
4461	0.0965712	0.0195469	-122.328	3	4	5	6	7	8	9	10	11	12	13	14
4471	0.0964539	0.0195942	-122.284	3	4	5	6	7	8	9	10	11	12	13	14
4481	0.0964122	0.0195518	-122.222	3	4	5	6	7	8	9	10	11	12	13	14
4491	0.0964104	0.0195326	-122.159	3	4	5	6	7	8	9	10	11	12	13	14
4501	0.0964171	0.0195699	-122.097	3	4	5	6	7	8	9	10	11	12	13	14
4511	0.0963671	0.0195949	-122.015	3	4	5	6	7	8	9	10	11	12	13	14
4522	0.096287	0.0195702	-121.94	3	4	5	6	7	8	9	10	11	12	13	14
4532	0.0963065	0.0195962	-121.878	3	4	5	6	7	8	9	10	11	12	13	14
4542	0.0963319	0.0196161	-121.828	3	4	5	6	7	8	9	10	11	12	13	14
4552	0.0963554	0.0196406	-121.784	3	4	5	6	7	8	9	10	11	12	13	14
4562	0.096314	0.0196575	-121.722	3	4	5	6	7	8	9	10	11	12	13	14
4572	0.0962328	0.0196079	-121.659	3	4	5	6	7	8	9	10	11	12	13	14
4582	0.096192	0.0195626	-121.597	3	4	5	6	7	8	9	10	11	12	13	14
4592	0.0960739	0.0195235	-121.515	3	4	5	6	7	8	9	10	11	12	13	14
4602	0.0960433	0.0195338	-121.453	3	4	5	6	7	8	9	10	11	12	13	14
4612	0.0959998	0.0195521	-121.409	3	4	5	6	7	8	9	10	11	12	13	14
4622	0.0959349	0.0195733	-121.346	3	4	5	6	7	8	9	10	11	12	13	14
4632	0.0959552	0.0195981	-121.284	3	4	5	6	7	8	9	10	11	12	13	14
4642	0.0960183	0.0196529	-121.203	3	4	5	6	7	8	9	10	11	12	13	14
4652	0.096115	0.019594	-121.128	3	4	5	6	7	8	9	10	11	12	13	14
4663	0.0959653	0.0195443	-121.065	3	4	5	6	7	8	9	10	11	12	13	14
4673	0.0959587	0.0195668	-121.015	3	4	5	6	7	8	9	10	11	12	13	14
4683	0.095906	0.0195262	-120.953	3	4	5	6	7	8	9	10	11	12	13	14
4693	0.0958496	0.0195065	-120.909	3	4	5	6	7	8	9	10	11	12	13	14
4703	0.0958745	0.0195062	-120.847	3	4	5	6	7	8	9	10	11	12	13	14
4713	0.0958772	0.0195176	-120.784	3	4	5	6	7	8	9	10	11	12	13	14
4723	0.0958111	0.0195134	-120.703	3	4	5	6	7	8	9	10	11	12	13	14
4733	0.0958339	0.0194632	-120.64	3	4	5	6	7	8	9	10	11	12	13	14
4743	0.0958041	0.019501	-120.565	3	4	5	6	7	8	9	10	11	12	13	14
4753	0.0957783	0.019511	-120.515	3	4	5	6	7	8	9	10	11	12	13	14
4763	0.0957206	0.0194188	-120.472	3	4	5	6	7	8	9	10	11	12	13	14
4773	0.0956808	0.0193641	-120.391	3	4	5	6	7	8	9	10	11	12	13	14
4783	0.0955628	0.0193852	-120.347	3	4	5	6	7	8	9	10	11	12	13	14
4793	0.0955241	0.0193902	-120.265	3	4	5	6	7	8	9	10	11	12	13	14
4803	0.0954967	0.0193602	-120.19	3	4	5	6	7	8	9	10	11	12	13	14
4814	0.0954619	0.0194314	-120.128	3	4	5	6	7	8	9	10	11	12	13	14
4824	0.0955114	0.0194959	-120.078	3	4	5	6	7	8	9	10	11	12	13	14
4834	0.0955005	0.019479	-120.016	3	4	5	6	7	8	9	10	11	12	13	14
4844	0.0954927	0.019451	-119.953	3	4	5	6	7	8	9	10	11	12	13	14
4854	0.0955239	0.0194647	-119.878	3	4	5	6	7	8	9	10	11	12	13	14
4864	0.0953959	0.0194549	-119.828	3	4	5	6	7	8	9	10	11	12	13	14
4874	0.0953394	0.0194689	-119.785	3	4	5	6	7	8	9	10	11	12	13	14
4884	0.0952339	0.0194599	-119.703	3	4	5	6	7	8	9	10	11	12	13	14
4894	0.0951879	0.0194975	-119.641	3	4	5	6	7	8	9	10	11	12	13	14
4904	0.0951608	0.0195292	-119.579	3	4	5	6	7	8	9	10	11	12	13	14
4914	0.0950688	0.0196125	-119.504	3	4	5	6	7	8	9	10	11	12	13	14
4924	0.0950661	0.0196104	-119.441	3	4	5	6	7	8	9	10	11	12	13	14
4934	0.0950728	0.0196281	-119.391	3	4	5	6	7	8	9	10	11	12	13	14
4944	0.0950716	0.0196001	-119.329	3	4	5	6	7	8	9	10	11	12	13	14
4955	0.0951379	0.0195884	-119.266	3	4	5	6	7	8	9	10	11	12	13	14
4965	0.0950322	0.0195473	-119.191	3	4	5	6	7	8	9	10	11	12	13	14
4975	0.0949102	0.019532	-119.129	3	4	5	6	7	8	9	10	11	12	13	14
4985	0.0948368	0.0195214	-119.079	3	4	5	6	7	8	9	10	11	12	13	14
4995	0.0947728	0.0195659	-119.017	3	4	5	6	7	8	9	10	11	12	13	14
5005	0.094754	0.0195776	-118.954	3	4	5	6	7	8	9	10	11	12	13	14
5015	0.0947284	0.0195424	-118.879	3	4	5	6	7	8	9	10	11	12	13	14
5025	0.0947444	0.0195653	-118.817	3	4	5	6	7	8	9	10	11	12	13	14
5035	0.0947714	0.0195664	-118.754	3	4	5	6	7	8	9	10	11	12	13	14
5045	0.0948296	0.019554	-118.704	3	4	5	6	7	8	9	10	11	12	13	14
5055	0.0948689	0.0195242	-118.642	3	4	5	6	7	8	9	10	11	12	13	14
5065	0.0947862	0.0195236	-118.567	3	4	5	6	7	8	9	10	11	12	13	14
5075	0.0947279	0.0195936	-118.485	3	4	5	6	7	8	9	10	11	12	13	14
5086	0.0946576	0.019572	-118.442	3	4	5	6	7	8	9	10	11	12	13	14
5096	0.0946501	0.0195902	-118.379	3	4	5	6	7	8	9	10	11	12	13	14
5106	0.0945874	0.0196381	-118.317	3	4	5	6	7	8	9	10	11	12	13	14
5116	0.0945729	0.0196401	-118.267	3	4	5	6	7	8	9	10	11	12	13	14
5126	0.094554	0.0196516	-118.192	3	4	5	6	7	8	9	10	11	12	13	14
5136	0.0945816	0.0196305	-118.111	3	4	5	6	7	8	9	10	11	12	13	14
5146	0.0945945	0.0196603	-118.067	3	4	5	6	7	8	9	10	11	12	13	14
5156	0.0946427	0.0196527	-118.005	3	4	5	6	7	8	9	10	11	12	13	14
5166	0.0945467	0.0196795	-117.955	3	4	5	6	7	8	9	10	11	12	13	14
5176	0.0944134	0.0196462	-117.88	3	4	5	6	7	8	9	10	11	12	13	14
5186	0.0944309	0.019679	-117.83	3	4	5	6	7	8	9	10	11	12	13	14
5196	0.0943749	0.0196728	-117.767	3	4	5	6	7	8	9	10	11	12	13	14
5206	0.0943772	0.0196628	-117.705	3	4	5	6	7	8	9	10	11	12	13	14
5217	0.0943626	0.0196887	-117.63	3	4	5	6	7	8	9	10	11	12	13	14
5227	0.0944328	0.0197634	-117.549	3	4	5	6	7	8	9	10	11	12	13	14
5237	0.0944712	0.0197558	-117.486	3	4	5	6	7	8	9	10	11	12	13	14
5247	0.0945213	0.0197821	-117.424	3	4	5	6	7	8	9	10	11	12	13	14
5257	0.0945404	0.0197697	-117.38	3	4	5	6	7	8	9	10	11	12	13	14
5267	0.0944849	0.0197706	-117.33	3	4	5	6	7	8	9	10	11	12	13	14
5277	0.0943477	0.0197964	-117.236	3	4	5	6	7	8	9	10	11	12	13	14
5287	0.0943692	0.0198095	-117.174	3	4	5	6	7	8	9	10	11	12	13	14
5297	0.0943924	0.0198186	-117.123	3	4	5	6	7	8	9	10	11	12	13	14
5307	0.0943945	0.0197536	-117.061	3	4	5	6	7	8	9	10	11	12	13	14
5317	0.09438	0.019699	-116.985	3	4	5	6	7	8	9	10	11	12	13	14
5327	0.0944227	0.0196911	-116.923	3	4	5	6	7	8	9	10	11	12	13	14
5337	0.0944606	0.0197263	-116.873	3	4	5	6	7	8	9	10	11	12	13	14
5348	0.094504	0.0197284	-116.81	3	4	5	6	7	8	9	10	11	12	13	14
5358	0.0945259	0.0197327	-116.735	3	4	5	6	7	8	9	10	11	12	13	14
5368	0.094512	0.0196703	-116.672	3	4	5	6	7	8	9	10	11	12	13	14
5378	0.0944362	0.0196814	-116.609	3	4	5	6	7	8	9	10	11	12	13	14
5388	0.0943835	0.0197117	-116.546	3	4	5	6	7	8	9	10	11	12	13	14
5398	0.0943923	0.0196814	-116.484	3	4	5	6	7	8	9	10	11	12	13	14
5408	0.0944082	0.0196799	-116.434	3	4	5	6	7	8	9	10	11	12	13	14
5418	0.0944245	0.0196673	-116.371	3	4	5	6	7	8	9	10	11	12	13	14
5428	0.0944218	0.0196152	-116.308	3	4	5	6	7	8	9	10	11	12	13	14
5438	0.0944622	0.0196659	-116.246	3	4	5	6	7	8	9	10	11	12	13	14
5448	0.0946523	0.0196566	-116.152	3	4	5	6	7	8	9	10	11	12	13	14
5458	0.0945687	0.0196419	-116.089	3	4	5	6	7	8	9	10	11	12	13	14
5468	0.0944745	0.0196315	-116.046	3	4	5	6	7	8	9	10	11	12	13	14
5479	0.0944546	0.0196597	-115.983	3	4	5	6	7	8	9	10	11	12	13	14
5489	0.0944488	0.019591	-115.933	3	4	5	6	7	8	9	10	11	12	13	14
5499	0.0945007	0.0196168	-115.87	3	4	5	6	7	8	9	10	11	12	13	14
5509	0.0945531	0.0195401	-115.795	3	4	5	6	7	8	9	10	11	12	13	14
5519	0.0945403	0.0195331	-115.733	3	4	5	6	7	8	9	10	11	12	13	14
5529	0.0945665	0.0195833	-115.652	3	4	5	6	7	8	9	10	11	12	13	14
5539	0.0945664	0.0195654	-115.608	3	4	5	6	7	8	9	10	11	12	13	14
5549	0.0946538	0.0195943	-115.558	3	4	5	6	7	8	9	10	11	12	13	14
5559	0.0946394	0.0196004	-115.483	3	4	5	6	7	8	9	10	11	12	13	14
5569	0.0945351	0.0196238	-115.402	3	4	5	6	7	8	9	10	11	12	13	14
5579	0.0945212	0.0196441	-115.339	3	4	5	6	7	8	9	10	11	12	13	14
5589	0.0944649	0.0196925	-115.277	3	4	5	6	7	8	9	10	11	12	13	14
5599	0.094469	0.0196854	-115.233	3	4	5	6	7	8	9	10	11	12	13	14
5609	0.0944833	0.0196888	-115.183	3	4	5	6	7	8	9	10	11	12	13	14
5620	0.0944725	0.0196016	-115.108	3	4	5	6	7	8	9	10	11	12	13	14
5630	0.0945134	0.0196733	-115.026	3	4	5	6	7	8	9	10	11	12	13	14
5640	0.0945478	0.0196342	-114.983	3	4	5	6	7	8	9	10	11	12	13	14
5650	0.094644	0.019639	-114.92	3	4	5	6	7	8	9	10	11	12	13	14
5660	0.0946469	0.0196009	-114.858	3	4	5	6	7	8	9	10	11	12	13	14
5670	0.094613	0.0195801	-114.795	3	4	5	6	7	8	9	10	11	12	13	14
5680	0.0945479	0.0195557	-114.733	3	4	5	6	7	8	9	10	11	12	13	14
5690	0.0945506	0.0194755	-114.651	3	4	5	6	7	8	9	10	11	12	13	14
5700	0.0945276	0.0194301	-114.608	3	4	5	6	7	8	9	10	11	12	13	14
5710	0.0944786	0.019459	-114.545	3	4	5	6	7	8	9	10	11	12	13	14
5720	0.0944934	0.0195059	-114.483	3	4	5	6	7	8	9	10	11	12	13	14
5730	0.0944628	0.019519	-114.401	3	4	5	6	7	8	9	10	11	12	13	14
5740	0.094517	0.0194677	-114.339	3	4	5	6	7	8	9	10	11	12	13	14
5751	0.0945521	0.0194367	-114.276	3	4	5	6	7	8	9	10	11	12	13	14
5761	0.094445	0.0193821	-114.214	3	4	5	6	7	8	9	10	11	12	13	14
5771	0.094388	0.0194268	-114.17	3	4	5	6	7	8	9	10	11	12	13	14
5781	0.0943505	0.0194583	-114.107	3	4	5	6	7	8	9	10	11	12	13	14
5791	0.094295	0.0193788	-114.045	3	4	5	6	7	8	9	10	11	12	13	14
5801	0.0942545	0.0193899	-113.951	3	4	5	6	7	8	9	10	11	12	13	14
5811	0.0942903	0.0193992	-113.889	3	4	5	6	7	8	9	10	11	12	13	14
5821	0.0943433	0.0193755	-113.839	3	4	5	6	7	8	9	10	11	12	13	14
5831	0.0943142	0.0193376	-113.776	3	4	5	6	7	8	9	10	11	12	13	14
5841	0.0943277	0.019334	-113.733	3	4	5	6	7	8	9	10	11	12	13	14
5851	0.0944092	0.019353	-113.67	3	4	5	6	7	8	9	10	11	12	13	14
5861	0.0944438	0.0193414	-113.589	3	4	5	6	7	8	9	10	11	12	13	14
5871	0.0943393	0.0192725	-113.514	3	4	5	6	7	8	9	10	11	12	13	14
5881	0.09429	0.0192537	-113.451	3	4	5	6	7	8	9	10	11	12	13	14
5892	0.0942712	0.0192344	-113.389	3	4	5	6	7	8	9	10	11	12	13	14
5902	0.0942623	0.019162	-113.326	3	4	5	6	7	8	9	10	11	12	13	14
5912	0.0943135	0.0191683	-113.276	3	4	5	6	7	8	9	10	11	12	13	14
5922	0.0943333	0.0191623	-113.233	3	4	5	6	7	8	9	10	11	12	13	14
5932	0.0943473	0.019121	-113.17	3	4	5	6	7	8	9	10	11	12	13	14
5942	0.0943668	0.0191107	-113.108	3	4	5	6	7	8	9	10	11	12	13	14
5952	0.0944851	0.0191072	-113.014	3	4	5	6	7	8	9	10	11	12	13	14
5962	0.0943939	0.0190162	-112.951	3	4	5	6	7	8	9	10	11	12	13	14
5972	0.0943459	0.0189764	-112.889	3	4	5	6	7	8	9	10	11	12	13	14
5982	0.0943395	0.0190051	-112.839	3	4	5	6	7	8	9	10	11	12	13	14
5992	0.094321	0.0189988	-112.795	3	4	5	6	7	8	9	10	11	12	13	14
6002	0.0942907	0.0190246	-112.733	3	4	5	6	7	8	9	10	11	12	13	14
6012	0.0943412	0.0190809	-112.651	3	4	5	6	7	8	9	10	11	12	13	14
6023	0.0943628	0.0190803	-112.577	3	4	5	6	7	8	9	10	11	12	13	14
6033	0.0944454	0.0190558	-112.514	3	4	5	6	7	8	9	10	11	12	13	14
6043	0.0944598	0.0190801	-112.464	3	4	5	6	7	8	9	10	11	12	13	14
6053	0.0945462	0.0191012	-112.402	3	4	5	6	7	8	9	10	11	12	13	14
6063	0.0944196	0.0190993	-112.327	3	4	5	6	7	8	9	10	11	12	13	14
6073	0.0943679	0.0191167	-112.264	3	4	5	6	7	8	9	10	11	12	13	14
6083	0.0943366	0.0191193	-112.202	3	4	5	6	7	8	9	10	11	12	13	14
6093	0.0943048	0.019112	-112.152	3	4	5	6	7	8	9	10	11	12	13	14
6103	0.0942943	0.0191864	-112.077	3	4	5	6	7	8	9	10	11	12	13	14
6113	0.0942744	0.0191916	-112.027	3	4	5	6	7	8	9	10	11	12	13	14
6123	0.0942636	0.0191534	-111.952	3	4	5	6	7	8	9	10	11	12	13	14
6133	0.094296	0.0191326	-111.889	3	4	5	6	7	8	9	10	11	12	13	14
6143	0.0943224	0.0190754	-111.827	3	4	5	6	7	8	9	10	11	12	13	14
6153	0.094318	0.0191219	-111.777	3	4	5	6	7	8	9	10	11	12	13	14
6164	0.0942742	0.0191881	-111.714	3	4	5	6	7	8	9	10	11	12	13	14
6174	0.094219	0.0191588	-111.652	3	4	5	6	7	8	9	10	11	12	13	14
6184	0.0942267	0.0191666	-111.577	3	4	5	6	7	8	9	10	11	12	13	14
6194	0.0942327	0.019169	-111.515	3	4	5	6	7	8	9	10	11	12	13	14
6204	0.0941977	0.0190853	-111.452	3	4	5	6	7	8	9	10	11	12	13	14
6214	0.0942021	0.0190866	-111.389	3	4	5	6	7	8	9	10	11	12	13	14
6224	0.0942376	0.0190735	-111.339	3	4	5	6	7	8	9	10	11	12	13	14
6234	0.0942251	0.0191	-111.277	3	4	5	6	7	8	9	10	11	12	13	14
6244	0.0942674	0.0190849	-111.202	3	4	5	6	7	8	9	10	11	12	13	14
6254	0.0943515	0.0191431	-111.14	3	4	5	6	7	8	9	10	11	12	13	14
6264	0.094315	0.0190901	-111.077	3	4	5	6	7	8	9	10	11	12	13	14
6274	0.0943237	0.0190135	-111.015	3	4	5	6	7	8	9	10	11	12	13	14
6284	0.0943335	0.018983	-110.965	3	4	5	6	7	8	9	10	11	12	13	14
6294	0.0942759	0.018951	-110.89	3	4	5	6	7	8	9	10	11	12	13	14
6305	0.0942911	0.0189651	-110.809	3	4	5	6	7	8	9	10	11	12	13	14
6315	0.0943084	0.018942	-110.765	3	4	5	6	7	8	9	10	11	12	13	14
6325	0.0943489	0.0189788	-110.702	3	4	5	6	7	8	9	10	11	12	13	14
6335	0.0943964	0.019012	-110.652	3	4	5	6	7	8	9	10	11	12	13	14
6345	0.0945049	0.0190516	-110.559	3	4	5	6	7	8	9	10	11	12	13	14
6355	0.0945245	0.0190601	-110.515	3	4	5	6	7	8	9	10	11	12	13	14
6365	0.0944332	0.0190467	-110.453	3	4	5	6	7	8	9	10	11	12	13	14
6375	0.0943036	0.0190736	-110.39	3	4	5	6	7	8	9	10	11	12	13	14
6385	0.0943102	0.0190978	-110.328	3	4	5	6	7	8	9	10	11	12	13	14
6395	0.0943096	0.019119	-110.265	3	4	5	6	7	8	9	10	11	12	13	14
6405	0.0943328	0.0191685	-110.203	3	4	5	6	7	8	9	10	11	12	13	14
6415	0.0943539	0.0191285	-110.14	3	4	5	6	7	8	9	10	11	12	13	14
6425	0.094396	0.0191314	-110.059	3	4	5	6	7	8	9	10	11	12	13	14
6435	0.0944552	0.0191446	-109.996	3	4	5	6	7	8	9	10	11	12	13	14
6446	0.0944864	0.0190393	-109.934	3	4	5	6	7	8	9	10	11	12	13	14
6456	0.0945097	0.0190541	-109.89	3	4	5	6	7	8	9	10	11	12	13	14
6466	0.0944107	0.0190099	-109.828	3	4	5	6	7	8	9	10	11	12	13	14
6476	0.0943145	0.0190144	-109.747	3	4	5	6	7	8	9	10	11	12	13	14
6486	0.094301	0.0189825	-109.684	3	4	5	6	7	8	9	10	11	12	13	14
6496	0.0942263	0.0189644	-109.622	3	4	5	6	7	8	9	10	11	12	13	14
6506	0.0941854	0.0189743	-109.578	3	4	5	6	7	8	9	10	11	12	13	14
6516	0.0941421	0.0190057	-109.516	3	4	5	6	7	8	9	10	11	12	13	14
6526	0.0941438	0.0190231	-109.453	3	4	5	6	7	8	9	10	11	12	13	14
6536	0.0941916	0.0190253	-109.359	3	4	5	6	7	8	9	10	11	12	13	14
6546	0.0942646	0.0190887	-109.31	3	4	5	6	7	8	9	10	11	12	13	14
6556	0.0942846	0.01912	-109.266	3	4	5	6	7	8	9	10	11	12	13	14
6566	0.0942117	0.0190924	-109.203	3	4	5	6	7	8	9	10	11	12	13	14
6576	0.0941251	0.0190471	-109.11	3	4	5	6	7	8	9	10	11	12	13	14
6587	0.0941128	0.0189887	-109.047	3	4	5	6	7	8	9	10	11	12	13	14
6597	0.0941208	0.0190207	-108.997	3	4	5	6	7	8	9	10	11	12	13	14
6607	0.0940974	0.0190077	-108.935	3	4	5	6	7	8	9	10	11	12	13	14
6617	0.0940945	0.0189948	-108.891	3	4	5	6	7	8	9	10	11	12	13	14
6627	0.0941832	0.0190125	-108.829	3	4	5	6	7	8	9	10	11	12	13	14
6637	0.0942439	0.0190335	-108.748	3	4	5	6	7	8	9	10	11	12	13	14
6647	0.0943667	0.0190329	-108.685	3	4	5	6	7	8	9	10	11	12	13	14
6657	0.0944171	0.0190611	-108.641	3	4	5	6	7	8	9	10	11	12	13	14
6667	0.094316	0.0190725	-108.548	3	4	5	6	7	8	9	10	11	12	13	14
6677	0.0942551	0.0190398	-108.516	3	4	5	6	7	8	9	10	11	12	13	14
6687	0.0942539	0.0190661	-108.435	3	4	5	6	7	8	9	10	11	12	13	14
6697	0.0941925	0.0190429	-108.36	3	4	5	6	7	8	9	10	11	12	13	14
6707	0.094218	0.0189645	-108.31	3	4	5	6	7	8	9	10	11	12	13	14
6718	0.0942125	0.018977	-108.248	3	4	5	6	7	8	9	10	11	12	13	14
6728	0.0942003	0.0190172	-108.204	3	4	5	6	7	8	9	10	11	12	13	14
6738	0.094239	0.0189445	-108.142	3	4	5	6	7	8	9	10	11	12	13	14
6748	0.0942794	0.0190411	-108.048	3	4	5	6	7	8	9	10	11	12	13	14
6758	0.0942244	0.0191065	-107.986	3	4	5	6	7	8	9	10	11	12	13	14
6768	0.0942026	0.0190969	-107.923	3	4	5	6	7	8	9	10	11	12	13	14
6778	0.0941891	0.0191057	-107.861	3	4	5	6	7	8	9	10	11	12	13	14
6788	0.0941938	0.0191283	-107.811	3	4	5	6	7	8	9	10	11	12	13	14
6798	0.0941951	0.019225	-107.748	3	4	5	6	7	8	9	10	11	12	13	14
6808	0.0941741	0.0191966	-107.686	3	4	5	6	7	8	9	10	11	12	13	14
6818	0.094154	0.0192026	-107.611	3	4	5	6	7	8	9	10	11	12	13	14
6828	0.09425	0.0191816	-107.548	3	4	5	6	7	8	9	10	11	12	13	14
6838	0.0943329	0.0192095	-107.486	3	4	5	6	7	8	9	10	11	12	13	14
6848	0.094423	0.0192033	-107.424	3	4	5	6	7	8	9	10	11	12	13	14
6859	0.0944771	0.0192363	-107.374	3	4	5	6	7	8	9	10	11	12	13	14
6869	0.0943788	0.019219	-107.311	3	4	5	6	7	8	9	10	11	12	13	14
6879	0.0944103	0.0191999	-107.236	3	4	5	6	7	8	9	10	11	12	13	14
6889	0.0943083	0.019216	-107.174	3	4	5	6	7	8	9	10	11	12	13	14
6899	0.0943103	0.0191921	-107.111	3	4	5	6	7	8	9	10	11	12	13	14
6909	0.0942946	0.019231	-107.061	3	4	5	6	7	8	9	10	11	12	13	14
6919	0.0942849	0.0192226	-106.999	3	4	5	6	7	8	9	10	11	12	13	14
6929	0.0944168	0.0192395	-106.905	3	4	5	6	7	8	9	10	11	12	13	14
6939	0.094424	0.0192398	-106.862	3	4	5	6	7	8	9	10	11	12	13	14
6949	0.0944713	0.0192561	-106.799	3	4	5	6	7	8	9	10	11	12	13	14
6959	0.094493	0.0192057	-106.749	3	4	5	6	7	8	9	10	11	12	13	14
6969	0.0942896	0.0191822	-106.674	3	4	5	6	7	8	9	10	11	12	13	14
6979	0.0942425	0.019176	-106.612	3	4	5	6	7	8	9	10	11	12	13	14
6989	0.094242	0.0191972	-106.549	3	4	5	6	7	8	9	10	11	12	13	14
6999	0.0942095	0.0192079	-106.487	3	4	5	6	7	8	9	10	11	12	13	14
7009	0.0941865	0.0192196	-106.425	3	4	5	6	7	8	9	10	11	12	13	14
7020	0.094245	0.0192266	-106.375	3	4	5	6	7	8	9	10	11	12	13	14
7030	0.094209	0.0191902	-106.281	3	4	5	6	7	8	9	10	11	12	13	14
7040	0.0943015	0.0191924	-106.237	3	4	5	6	7	8	9	10	11	12	13	14
7050	0.0944036	0.0191917	-106.187	3	4	5	6	7	8	9	10	11	12	13	14
7060	0.0944485	0.0191825	-106.113	3	4	5	6	7	8	9	10	11	12	13	14
7070	0.0943639	0.0191654	-106.031	3	4	5	6	7	8	9	10	11	12	13	14
7080	0.0942919	0.0191979	-105.969	3	4	5	6	7	8	9	10	11	12	13	14
7090	0.0943396	0.0191579	-105.907	3	4	5	6	7	8	9	10	11	12	13	14
7100	0.0943585	0.0191811	-105.863	3	4	5	6	7	8	9	10	11	12	13	14
7110	0.0944291	0.0191886	-105.8	3	4	5	6	7	8	9	10	11	12	13	14
7120	0.0944791	0.0192024	-105.738	3	4	5	6	7	8	9	10	11	12	13	14
7130	0.0945023	0.0192045	-105.657	3	4	5	6	7	8	9	10	11	12	13	14
7140	0.0945858	0.0192955	-105.594	3	4	5	6	7	8	9	10	11	12	13	14
7150	0.094619	0.019327	-105.532	3	4	5	6	7	8	9	10	11	12	13	14
7161	0.094609	0.0193175	-105.488	3	4	5	6	7	8	9	10	11	12	13	14
7171	0.0945197	0.0193223	-105.426	3	4	5	6	7	8	9	10	11	12	13	14
7181	0.0943902	0.0193989	-105.363	3	4	5	6	7	8	9	10	11	12	13	14
7191	0.0943403	0.0194205	-105.301	3	4	5	6	7	8	9	10	11	12	13	14
7201	0.0943006	0.0194034	-105.22	3	4	5	6	7	8	9	10	11	12	13	14
7211	0.0943021	0.0193937	-105.157	3	4	5	6	7	8	9	10	11	12	13	14
7221	0.0943089	0.0193968	-105.114	3	4	5	6	7	8	9	10	11	12	13	14
7231	0.0943323	0.0194693	-105.051	3	4	5	6	7	8	9	10	11	12	13	14
7241	0.0943768	0.0194572	-104.989	3	4	5	6	7	8	9	10	11	12	13	14
7251	0.0944418	0.0194589	-104.926	3	4	5	6	7	8	9	10	11	12	13	14
7261	0.0945214	0.0195178	-104.833	3	4	5	6	7	8	9	10	11	12	13	14
7271	0.0944826	0.0195502	-104.783	3	4	5	6	7	8	9	10	11	12	13	14
7281	0.0943947	0.0195982	-104.72	3	4	5	6	7	8	9	10	11	12	13	14
7291	0.0943571	0.0196007	-104.677	3	4	5	6	7	8	9	10	11	12	13	14
7302	0.0942795	0.0196582	-104.614	3	4	5	6	7	8	9	10	11	12	13	14
7312	0.0943068	0.0196851	-104.533	3	4	5	6	7	8	9	10	11	12	13	14
7322	0.09428	0.0196815	-104.471	3	4	5	6	7	8	9	10	11	12	13	14
7332	0.0943049	0.0196714	-104.427	3	4	5	6	7	8	9	10	11	12	13	14
7342	0.0943415	0.0196788	-104.365	3	4	5	6	7	8	9	10	11	12	13	14
7352	0.0944126	0.019674	-104.302	3	4	5	6	7	8	9	10	11	12	13	14
7362	0.0944074	0.0196099	-104.209	3	4	5	6	7	8	9	10	11	12	13	14
7372	0.0943635	0.0196266	-104.159	3	4	5	6	7	8	9	10	11	12	13	14
7382	0.0943108	0.0196362	-104.096	3	4	5	6	7	8	9	10	11	12	13	14
7392	0.0942524	0.0196668	-104.052	3	4	5	6	7	8	9	10	11	12	13	14
7402	0.0942404	0.0196575	-103.99	3	4	5	6	7	8	9	10	11	12	13	14
7412	0.0942837	0.0196815	-103.909	3	4	5	6	7	8	9	10	11	12	13	14
7422	0.0942741	0.0196823	-103.834	3	4	5	6	7	8	9	10	11	12	13	14
7432	0.0942824	0.019705	-103.784	3	4	5	6	7	8	9	10	11	12	13	14
7443	0.0943367	0.0197026	-103.74	3	4	5	6	7	8	9	10	11	12	13	14
7453	0.0943632	0.0197278	-103.678	3	4	5	6	7	8	9	10	11	12	13	14
7463	0.0943345	0.019734	-103.584	3	4	5	6	7	8	9	10	11	12	13	14
7473	0.0943108	0.0197174	-103.522	3	4	5	6	7	8	9	10	11	12	13	14
7483	0.0942665	0.0197379	-103.459	3	4	5	6	7	8	9	10	11	12	13	14
7493	0.0942388	0.0197324	-103.409	3	4	5	6	7	8	9	10	11	12	13	14
7503	0.0942229	0.0197675	-103.347	3	4	5	6	7	8	9	10	11	12	13	14
7513	0.0942168	0.0197503	-103.303	3	4	5	6	7	8	9	10	11	12	13	14
7523	0.0942415	0.0197557	-103.222	3	4	5	6	7	8	9	10	11	12	13	14
7533	0.094285	0.0197925	-103.16	3	4	5	6	7	8	9	10	11	12	13	14
7543	0.0943562	0.0197651	-103.085	3	4	5	6	7	8	9	10	11	12	13	14
7553	0.0943909	0.019776	-103.054	3	4	5	6	7	8	9	10	11	12	13	14
7563	0.0943698	0.0198321	-102.972	3	4	5	6	7	8	9	10	11	12	13	14
7574	0.094226	0.0198044	-102.898	3	4	5	6	7	8	9	10	11	12	13	14
7584	0.0942369	0.0198322	-102.848	3	4	5	6	7	8	9	10	11	12	13	14
7594	0.0941928	0.019809	-102.785	3	4	5	6	7	8	9	10	11	12	13	14
7604	0.0941961	0.0198378	-102.742	3	4	5	6	7	8	9	10	11	12	13	14
7614	0.0942049	0.0198863	-102.648	3	4	5	6	7	8	9	10	11	12	13	14
7624	0.0942264	0.0199196	-102.585	3	4	5	6	7	8	9	10	11	12	13	14
7634	0.0942906	0.0199579	-102.535	3	4	5	6	7	8	9	10	11	12	13	14
7644	0.0942717	0.0199786	-102.473	3	4	5	6	7	8	9	10	11	12	13	14
7654	0.0943796	0.0200148	-102.398	3	4	5	6	7	8	9	10	11	12	13	14
7664	0.0942814	0.0199607	-102.336	3	4	5	6	7	8	9	10	11	12	13	14
7674	0.0942702	0.0199662	-102.286	3	4	5	6	7	8	9	10	11	12	13	14
7684	0.094277	0.0199894	-102.223	3	4	5	6	7	8	9	10	11	12	13	14
7694	0.0942175	0.0199948	-102.13	3	4	5	6	7	8	9	10	11	12	13	14
7704	0.0942323	0.0199519	-102.086	3	4	5	6	7	8	9	10	11	12	13	14
7714	0.0942055	0.0199694	-102.024	3	4	5	6	7	8	9	10	11	12	13	14
7725	0.0942526	0.019952	-101.974	3	4	5	6	7	8	9	10	11	12	13	14
7735	0.0941681	0.0199902	-101.899	3	4	5	6	7	8	9	10	11	12	13	14
7745	0.0942193	0.0200576	-101.849	3	4	5	6	7	8	9	10	11	12	13	14
7755	0.0942893	0.020112	-101.774	3	4	5	6	7	8	9	10	11	12	13	14
7765	0.0942092	0.0201351	-101.711	3	4	5	6	7	8	9	10	11	12	13	14
7775	0.0941861	0.0201408	-101.662	3	4	5	6	7	8	9	10	11	12	13	14
7785	0.0940932	0.0201343	-101.599	3	4	5	6	7	8	9	10	11	12	13	14
7795	0.0939921	0.0201323	-101.524	3	4	5	6	7	8	9	10	11	12	13	14
7805	0.0939828	0.0201404	-101.443	3	4	5	6	7	8	9	10	11	12	13	14
7815	0.0939447	0.0201474	-101.399	3	4	5	6	7	8	9	10	11	12	13	14
7825	0.0939335	0.0201478	-101.337	3	4	5	6	7	8	9	10	11	12	13	14
7835	0.0939559	0.0202484	-101.274	3	4	5	6	7	8	9	10	11	12	13	14
7845	0.0939887	0.0202264	-101.224	3	4	5	6	7	8	9	10	11	12	13	14
7855	0.094079	0.0202491	-101.131	3	4	5	6	7	8	9	10	11	12	13	14
7866	0.0939496	0.0202292	-101.068	3	4	5	6	7	8	9	10	11	12	13	14
7876	0.0938896	0.0202429	-101.006	3	4	5	6	7	8	9	10	11	12	13	14
7886	0.093852	0.0202706	-100.962	3	4	5	6	7	8	9	10	11	12	13	14
7896	0.0938643	0.0202808	-100.9	3	4	5	6	7	8	9	10	11	12	13	14
7906	0.0938285	0.0202554	-100.838	3	4	5	6	7	8	9	10	11	12	13	14
7916	0.0938371	0.0202604	-100.775	3	4	5	6	7	8	9	10	11	12	13	14
7926	0.0939307	0.0202545	-100.694	3	4	5	6	7	8	9	10	11	12	13	14
7936	0.0938912	0.0202671	-100.631	3	4	5	6	7	8	9	10	11	12	13	14
7946	0.0939914	0.0202577	-100.569	3	4	5	6	7	8	9	10	11	12	13	14
7956	0.0940576	0.0203034	-100.507	3	4	5	6	7	8	9	10	11	12	13	14
7966	0.0940346	0.0202366	-100.463	3	4	5	6	7	8	9	10	11	12	13	14
7976	0.0939783	0.0202538	-100.4	3	4	5	6	7	8	9	10	11	12	13	14
7986	0.0939296	0.0203152	-100.338	3	4	5	6	7	8	9	10	11	12	13	14
7996	0.0939432	0.0203325	-100.275	3	4	5	6	7	8	9	10	11	12	13	14
8006	0.0939878	0.0203764	-100.213	3	4	5	6	7	8	9	10	11	12	13	14
8017	0.0940302	0.0204132	-100.132	3	4	5	6	7	8	9	10	11	12	13	14
8027	0.0940104	0.0204241	-100.069	3	4	5	6	7	8	9	10	11	12	13	14
8037	0.0940483	0.0203635	-100.007	3	4	5	6	7	8	9	10	11	12	13	14
8047	0.0941044	0.0203416	-99.9633	3	4	5	6	7	8	9	10	11	12	13	14
8057	0.0941602	0.020331	-99.9008	3	4	5	6	7	8	9	10	11	12	13	14
8067	0.0939741	0.0202643	-99.8071	3	4	5	6	7	8	9	10	11	12	13	14
8077	0.0939393	0.0203221	-99.7572	3	4	5	6	7	8	9	10	11	12	13	14
8087	0.0939462	0.0203039	-99.6822	3	4	5	6	7	8	9	10	11	12	13	14
8097	0.0939123	0.0203022	-99.6323	3	4	5	6	7	8	9	10	11	12	13	14
8107	0.0938772	0.0203433	-99.5699	3	4	5	6	7	8	9	10	11	12	13	14
8117	0.0939241	0.0203564	-99.5262	3	4	5	6	7	8	9	10	11	12	13	14
8127	0.0939388	0.0203855	-99.4639	3	4	5	6	7	8	9	10	11	12	13	14
8137	0.0939946	0.0204205	-99.3827	3	4	5	6	7	8	9	10	11	12	13	14
8147	0.0941287	0.0204243	-99.3202	3	4	5	6	7	8	9	10	11	12	13	14
8158	0.0941567	0.0204226	-99.2453	3	4	5	6	7	8	9	10	11	12	13	14
8168	0.0941028	0.0204547	-99.1829	3	4	5	6	7	8	9	10	11	12	13	14
8178	0.0940741	0.0204233	-99.1205	3	4	5	6	7	8	9	10	11	12	13	14
8188	0.0940954	0.0204583	-99.0705	3	4	5	6	7	8	9	10	11	12	13	14
8198	0.0940332	0.0204326	-99.0268	3	4	5	6	7	8	9	10	11	12	13	14
8208	0.09395	0.0204415	-98.9455	3	4	5	6	7	8	9	10	11	12	13	14
8218	0.0939266	0.0204502	-98.8707	3	4	5	6	7	8	9	10	11	12	13	14
8228	0.0939369	0.0204869	-98.8083	3	4	5	6	7	8	9	10	11	12	13	14
8238	0.0940263	0.0204416	-98.7583	3	4	5	6	7	8	9	10	11	12	13	14
8248	0.0941023	0.0204334	-98.6956	3	4	5	6	7	8	9	10	11	12	13	14
8258	0.0941002	0.0204489	-98.633	3	4	5	6	7	8	9	10	11	12	13	14
8268	0.0940523	0.0204308	-98.5828	3	4	5	6	7	8	9	10	11	12	13	14
8278	0.0940375	0.0204932	-98.5076	3	4	5	6	7	8	9	10	11	12	13	14
8289	0.0940173	0.0205589	-98.4261	3	4	5	6	7	8	9	10	11	12	13	14
8299	0.0940123	0.0205317	-98.3634	3	4	5	6	7	8	9	10	11	12	13	14
8309	0.0939647	0.0204854	-98.3195	3	4	5	6	7	8	9	10	11	12	13	14
8319	0.0939405	0.0204905	-98.2568	3	4	5	6	7	8	9	10	11	12	13	14
8329	0.0939487	0.0205263	-98.1942	3	4	5	6	7	8	9	10	11	12	13	14
8339	0.0940458	0.0204597	-98.1313	3	4	5	6	7	8	9	10	11	12	13	14
8349	0.0941062	0.0204391	-98.0812	3	4	5	6	7	8	9	10	11	12	13	14
8359	0.0940981	0.0204619	-97.9873	3	4	5	6	7	8	9	10	11	12	13	14
8369	0.0940551	0.0204035	-97.9246	3	4	5	6	7	8	9	10	11	12	13	14
8379	0.0939571	0.020363	-97.8807	3	4	5	6	7	8	9	10	11	12	13	14
8389	0.0939488	0.0203436	-97.8181	3	4	5	6	7	8	9	10	11	12	13	14
8399	0.0939801	0.0203528	-97.7554	3	4	5	6	7	8	9	10	11	12	13	14
8409	0.0939932	0.0203859	-97.674	3	4	5	6	7	8	9	10	11	12	13	14
8419	0.093986	0.0203956	-97.6114	3	4	5	6	7	8	9	10	11	12	13	14
8430	0.0939673	0.0203879	-97.5487	3	4	5	6	7	8	9	10	11	12	13	14
8440	0.0940038	0.0203387	-97.5049	3	4	5	6	7	8	9	10	11	12	13	14
8450	0.0941197	0.0203788	-97.4424	3	4	5	6	7	8	9	10	11	12	13	14
8460	0.0941925	0.020424	-97.3798	3	4	5	6	7	8	9	10	11	12	13	14
8470	0.0940673	0.0204659	-97.2859	3	4	5	6	7	8	9	10	11	12	13	14
8480	0.0940422	0.0205245	-97.2358	3	4	5	6	7	8	9	10	11	12	13	14
8490	0.0940786	0.020539	-97.1921	3	4	5	6	7	8	9	10	11	12	13	14
8500	0.0940409	0.0205449	-97.1296	3	4	5	6	7	8	9	10	11	12	13	14
8510	0.094059	0.0205704	-97.067	3	4	5	6	7	8	9	10	11	12	13	14
8520	0.0940951	0.020586	-96.9858	3	4	5	6	7	8	9	10	11	12	13	14
8530	0.0940725	0.0205312	-96.9107	3	4	5	6	7	8	9	10	11	12	13	14
8540	0.0941	0.0205474	-96.8606	3	4	5	6	7	8	9	10	11	12	13	14
8550	0.0942323	0.0204926	-96.7981	3	4	5	6	7	8	9	10	11	12	13	14
8561	0.0942076	0.0205444	-96.7543	3	4	5	6	7	8	9	10	11	12	13	14
8571	0.094158	0.0206273	-96.673	3	4	5	6	7	8	9	10	11	12	13	14
8581	0.0940787	0.0206422	-96.598	3	4	5	6	7	8	9	10	11	12	13	14
8591	0.0941008	0.0206499	-96.5355	3	4	5	6	7	8	9	10	11	12	13	14
8601	0.0941604	0.0206161	-96.4855	3	4	5	6	7	8	9	10	11	12	13	14
8611	0.0941427	0.0205949	-96.4417	3	4	5	6	7	8	9	10	11	12	13	14
8621	0.0941692	0.0205786	-96.3605	3	4	5	6	7	8	9	10	11	12	13	14
8631	0.0942223	0.0205518	-96.2979	3	4	5	6	7	8	9	10	11	12	13	14
8641	0.0943055	0.0204802	-96.2229	3	4	5	6	7	8	9	10	11	12	13	14
8651	0.0944185	0.0204981	-96.1604	3	4	5	6	7	8	9	10	11	12	13	14
8661	0.094341	0.0204771	-96.0978	3	4	5	6	7	8	9	10	11	12	13	14
8671	0.0942982	0.0204538	-96.0353	3	4	5	6	7	8	9	10	11	12	13	14
8681	0.0942882	0.0204225	-95.9853	3	4	5	6	7	8	9	10	11	12	13	14
8692	0.0942838	0.0203856	-95.9415	3	4	5	6	7	8	9	10	11	12	13	14
8702	0.0943424	0.0203703	-95.8603	3	4	5	6	7	8	9	10	11	12	13	14
8712	0.0943575	0.0204441	-95.7852	3	4	5	6	7	8	9	10	11	12	13	14
8722	0.0944346	0.0204888	-95.7228	3	4	5	6	7	8	9	10	11	12	13	14
8732	0.0944517	0.0205077	-95.6603	3	4	5	6	7	8	9	10	11	12	13	14
8742	0.0945248	0.0204909	-95.5978	3	4	5	6	7	8	9	10	11	12	13	14
8752	0.0946669	0.0204168	-95.5353	3	4	5	6	7	8	9	10	11	12	13	14
8762	0.0946643	0.0203904	-95.4853	3	4	5	6	7	8	9	10	11	12	13	14
8772	0.0945941	0.020378	-95.4228	3	4	5	6	7	8	9	10	11	12	13	14
8782	0.0946378	0.0203596	-95.379	3	4	5	6	7	8	9	10	11	12	13	14
8792	0.0946211	0.0202538	-95.2852	3	4	5	6	7	8	9	10	11	12	13	14
8802	0.094677	0.0202603	-95.2227	3	4	5	6	7	8	9	10	11	12	13	14
8812	0.0946441	0.0202456	-95.1601	3	4	5	6	7	8	9	10	11	12	13	14
8823	0.0946471	0.0202231	-95.0977	3	4	5	6	7	8	9	10	11	12	13	14
8833	0.0946609	0.0202332	-95.0351	3	4	5	6	7	8	9	10	11	12	13	14
8843	0.0947439	0.0202467	-94.9726	3	4	5	6	7	8	9	10	11	12	13	14
8853	0.0947828	0.020301	-94.9226	3	4	5	6	7	8	9	10	11	12	13	14
8863	0.094677	0.0203098	-94.8476	3	4	5	6	7	8	9	10	11	12	13	14
8873	0.0947273	0.0203204	-94.7851	3	4	5	6	7	8	9	10	11	12	13	14
8883	0.0947081	0.0203247	-94.7226	3	4	5	6	7	8	9	10	11	12	13	14
8893	0.0947006	0.0203454	-94.6601	3	4	5	6	7	8	9	10	11	12	13	14
8903	0.0947208	0.0203348	-94.5788	3	4	5	6	7	8	9	10	11	12	13	14
8913	0.0947511	0.0203167	-94.5351	3	4	5	6	7	8	9	10	11	12	13	14
8923	0.0947572	0.0203505	-94.4726	3	4	5	6	7	8	9	10	11	12	13	14
8933	0.0947865	0.0203351	-94.4226	3	4	5	6	7	8	9	10	11	12	13	14
8943	0.0948794	0.0203693	-94.3601	3	4	5	6	7	8	9	10	11	12	13	14
8954	0.0949439	0.0203585	-94.2851	3	4	5	6	7	8	9	10	11	12	13	14
8964	0.0948523	0.0204153	-94.2038	3	4	5	6	7	8	9	10	11	12	13	14
8974	0.0948088	0.0203861	-94.1413	3	4	5	6	7	8	9	10	11	12	13	14
8984	0.0947849	0.0204115	-94.0788	3	4	5	6	7	8	9	10	11	12	13	14
8994	0.0947922	0.0204409	-94.035	3	4	5	6	7	8	9	10	11	12	13	14
9004	0.0948234	0.0204989	-93.9851	3	4	5	6	7	8	9	10	11	12	13	14
9014	0.0948163	0.0205545	-93.9101	3	4	5	6	7	8	9	10	11	12	13	14
9024	0.0948552	0.0205935	-93.8289	3	4	5	6	7	8	9	10	11	12	13	14
9034	0.0948897	0.0206458	-93.7664	3	4	5	6	7	8	9	10	11	12	13	14
9044	0.0949585	0.020642	-93.7226	3	4	5	6	7	8	9	10	11	12	13	14
9054	0.0950404	0.0206829	-93.6601	3	4	5	6	7	8	9	10	11	12	13	14
9064	0.0950058	0.0206966	-93.5976	3	4	5	6	7	8	9	10	11	12	13	14
9074	0.0949548	0.0206925	-93.5164	3	4	5	6	7	8	9	10	11	12	13	14
9085	0.0948908	0.0206643	-93.4539	3	4	5	6	7	8	9	10	11	12	13	14
9095	0.0948887	0.0206368	-93.3913	3	4	5	6	7	8	9	10	11	12	13	14
9105	0.0948701	0.0205624	-93.3289	3	4	5	6	7	8	9	10	11	12	13	14
9115	0.0949274	0.0205505	-93.2851	3	4	5	6	7	8	9	10	11	12	13	14
9125	0.0949142	0.0205317	-93.2227	3	4	5	6	7	8	9	10	11	12	13	14
9135	0.094987	0.020496	-93.1602	3	4	5	6	7	8	9	10	11	12	13	14
9145	0.095099	0.0205152	-93.079	3	4	5	6	7	8	9	10	11	12	13	14
9155	0.095148	0.0204958	-93.0165	3	4	5	6	7	8	9	10	11	12	13	14
9165	0.0949691	0.0204832	-92.9417	3	4	5	6	7	8	9	10	11	12	13	14
9175	0.0949571	0.020532	-92.8917	3	4	5	6	7	8	9	10	11	12	13	14
9185	0.0949236	0.0205439	-92.848	3	4	5	6	7	8	9	10	11	12	13	14
9195	0.094922	0.0206079	-92.7855	3	4	5	6	7	8	9	10	11	12	13	14
9205	0.0949615	0.0206302	-92.723	3	4	5	6	7	8	9	10	11	12	13	14
9215	0.0950863	0.0205787	-92.6417	3	4	5	6	7	8	9	10	11	12	13	14
9226	0.0951247	0.020559	-92.5792	3	4	5	6	7	8	9	10	11	12	13	14
9236	0.0951682	0.020536	-92.5042	3	4	5	6	7	8	9	10	11	12	13	14
9246	0.0952379	0.0205496	-92.4542	3	4	5	6	7	8	9	10	11	12	13	14
9256	0.0952954	0.0205593	-92.4105	3	4	5	6	7	8	9	10	11	12	13	14
9266	0.0951868	0.0205284	-92.348	3	4	5	6	7	8	9	10	11	12	13	14
9276	0.0951592	0.0205515	-92.2856	3	4	5	6	7	8	9	10	11	12	13	14
9286	0.0951541	0.0205992	-92.2043	3	4	5	6	7	8	9	10	11	12	13	14
9296	0.0951519	0.0205664	-92.1292	3	4	5	6	7	8	9	10	11	12	13	14
9306	0.0951107	0.0205658	-92.0667	3	4	5	6	7	8	9	10	11	12	13	14
9316	0.0950855	0.0205774	-92.0168	3	4	5	6	7	8	9	10	11	12	13	14
9326	0.0950457	0.0206235	-91.973	3	4	5	6	7	8	9	10	11	12	13	14
9336	0.0950974	0.0206352	-91.8917	3	4	5	6	7	8	9	10	11	12	13	14
9346	0.0951604	0.020714	-91.8292	3	4	5	6	7	8	9	10	11	12	13	14
9357	0.0951483	0.0207651	-91.7543	3	4	5	6	7	8	9	10	11	12	13	14
9367	0.0950721	0.0208168	-91.7042	3	4	5	6	7	8	9	10	11	12	13	14
9377	0.0950158	0.0207989	-91.6606	3	4	5	6	7	8	9	10	11	12	13	14
9387	0.0949944	0.0207866	-91.5981	3	4	5	6	7	8	9	10	11	12	13	14
9397	0.0950088	0.0207945	-91.5356	3	4	5	6	7	8	9	10	11	12	13	14
9407	0.0950284	0.0207706	-91.4419	3	4	5	6	7	8	9	10	11	12	13	14
9417	0.095069	0.0208045	-91.3794	3	4	5	6	7	8	9	10	11	12	13	14
9427	0.0950986	0.0208378	-91.317	3	4	5	6	7	8	9	10	11	12	13	14
9437	0.0951081	0.0208426	-91.2669	3	4	5	6	7	8	9	10	11	12	13	14
9447	0.0952018	0.0208938	-91.2044	3	4	5	6	7	8	9	10	11	12	13	14
9457	0.0952927	0.0208991	-91.1419	3	4	5	6	7	8	9	10	11	12	13	14
9467	0.0952656	0.0208564	-91.0795	3	4	5	6	7	8	9	10	11	12	13	14
9477	0.0952031	0.0208209	-91.0045	3	4	5	6	7	8	9	10	11	12	13	14
9487	0.0951983	0.0208277	-90.9419	3	4	5	6	7	8	9	10	11	12	13	14
9498	0.095173	0.020836	-90.8795	3	4	5	6	7	8	9	10	11	12	13	14
9508	0.0951904	0.0208123	-90.8295	3	4	5	6	7	8	9	10	11	12	13	14
9518	0.0952238	0.0208489	-90.7858	3	4	5	6	7	8	9	10	11	12	13	14
9528	0.0952855	0.0208146	-90.692	3	4	5	6	7	8	9	10	11	12	13	14
9538	0.0953513	0.0208227	-90.6295	3	4	5	6	7	8	9	10	11	12	13	14
9548	0.0953866	0.0208128	-90.5795	3	4	5	6	7	8	9	10	11	12	13	14
9558	0.0954137	0.0208398	-90.517	3	4	5	6	7	8	9	10	11	12	13	14
9568	0.0953483	0.0208849	-90.442	3	4	5	6	7	8	9	10	11	12	13	14
9578	0.095324	0.0208885	-90.3607	3	4	5	6	7	8	9	10	11	12	13	14
9588	0.0953403	0.0208976	-90.317	3	4	5	6	7	8	9	10	11	12	13	14
9598	0.095336	0.0209109	-90.2545	3	4	5	6	7	8	9	10	11	12	13	14
9608	0.0953728	0.0209044	-90.2045	3	4	5	6	7	8	9	10	11	12	13	14
9618	0.0953628	0.0208798	-90.142	3	4	5	6	7	8	9	10	11	12	13	14
9629	0.0954526	0.020932	-90.0796	3	4	5	6	7	8	9	10	11	12	13	14
9639	0.0955616	0.0209423	-90.0045	3	4	5	6	7	8	9	10	11	12	13	14
9649	0.0956938	0.0210201	-89.9421	3	4	5	6	7	8	9	10	11	12	13	14
9659	0.095626	0.0210265	-89.8796	3	4	5	6	7	8	9	10	11	12	13	14
9669	0.0955934	0.0210089	-89.8296	3	4	5	6	7	8	9	10	11	12	13	14
9679	0.0955835	0.021034	-89.7671	3	4	5	6	7	8	9	10	11	12	13	14
9689	0.0955194	0.0209947	-89.6922	3	4	5	6	7	8	9	10	11	12	13	14
9699	0.0955351	0.0210035	-89.611	3	4	5	6	7	8	9	10	11	12	13	14
9709	0.0955295	0.0210088	-89.5485	3	4	5	6	7	8	9	10	11	12	13	14
9719	0.095592	0.020996	-89.486	3	4	5	6	7	8	9	10	11	12	13	14
9729	0.0955672	0.0209703	-89.4423	3	4	5	6	7	8	9	10	11	12	13	14
9739	0.0956143	0.021007	-89.3798	3	4	5	6	7	8	9	10	11	12	13	14
