Time	Roll	Pitch	Yaw	ForceX	ForceY	ForceZ	TorqueRoll	TorquePitch	TorqueYaw	PWM0	PWM1	PWM2	PWM3	PWM4	PWM5	
70	0	1	2	3	4	5	6	7	8	9	10	11	12	13	14
70	0	1	0	3	4	5	6	7	8	9	10	11	12	13	14
80	0.0481794	-0.00831552	0	3	4	5	6	7	8	9	10	11	12	13	14
90	0.0482603	-0.00831552	0	3	4	5	6	7	8	9	10	11	12	13	14
90	0.0482603	-0.00831552	0.0586496	3	4	5	6	7	8	9	10	11	12	13	14
100	0.048447	-0.00786219	0.0590544	3	4	5	6	7	8	9	10	11	12	13	14
110	0.0487135	-0.00742035	0.0597655	3	4	5	6	7	8	9	10	11	12	13	14
120	0.0488692	-0.00718597	0.0601546	3	4	5	6	7	8	9	10	11	12	13	14
130	0.0490034	-0.00699311	0.060499	3	4	5	6	7	8	9	10	11	12	13	14
140	0.0492472	-0.00667541	0.0611827	3	4	5	6	7	8	9	10	11	12	13	14
150	0.0493975	-0.00646986	0.0615859	3	4	5	6	7	8	9	10	11	12	13	14
160	0.0494992	-0.00616211	0.0176835	3	4	5	6	7	8	9	10	11	12	13	14
170	0.049638	-0.00595885	-0.0486654	3	4	5	6	7	8	9	10	11	12	13	14
180	0.0498624	-0.00567937	-0.135676	3	4	5	6	7	8	9	10	11	12	13	14
191	0.0499641	-0.00550163	-0.202359	3	4	5	6	7	8	9	10	11	12	13	14
201	0.0501691	-0.00519949	-0.29188	3	4	5	6	7	8	9	10	11	12	13	14
211	0.0503099	-0.00488711	-0.380334	3	4	5	6	7	8	9	10	11	12	13	14
221	0.0505591	-0.00460128	-0.470231	3	4	5	6	7	8	9	10	11	12	13	14
231	0.0508152	-0.00424326	-0.55908	3	4	5	6	7	8	9	10	11	12	13	14
241	0.051019	-0.00396448	-0.643745	3	4	5	6	7	8	9	10	11	12	13	14
251	0.051079	-0.00372133	-0.721739	3	4	5	6	7	8	9	10	11	12	13	14
261	0.0512421	-0.00349516	-0.791264	3	4	5	6	7	8	9	10	11	12	13	14
271	0.0513889	-0.00324349	-0.852869	3	4	5	6	7	8	9	10	11	12	13	14
281	0.0515314	-0.00305753	-0.907102	3	4	5	6	7	8	9	10	11	12	13	14
291	0.0517426	-0.00264706	-0.976352	3	4	5	6	7	8	9	10	11	12	13	14
301	0.0518636	-0.00241391	-1.00422	3	4	5	6	7	8	9	10	11	12	13	14
311	0.0520843	-0.00207941	-1.0579	3	4	5	6	7	8	9	10	11	12	13	14
321	0.0523047	-0.00167208	-1.17062	3	4	5	6	7	8	9	10	11	12	13	14
331	0.0524846	-0.0013201	-1.27462	3	4	5	6	7	8	9	10	11	12	13	14
341	0.0525984	-0.00100406	-1.40015	3	4	5	6	7	8	9	10	11	12	13	14
352	0.0527171	-0.000758465	-1.49453	3	4	5	6	7	8	9	10	11	12	13	14
362	0.0528275	-0.000587869	-1.56332	3	4	5	6	7	8	9	10	11	12	13	14
372	0.0529196	-0.000383839	-1.65269	3	4	5	6	7	8	9	10	11	12	13	14
382	0.0530387	-0.000179859	-1.71855	3	4	5	6	7	8	9	10	11	12	13	14
392	0.0533325	0.000169915	-1.83738	3	4	5	6	7	8	9	10	11	12	13	14
402	0.0535103	0.000425778	-1.90299	3	4	5	6	7	8	9	10	11	12	13	14
412	0.0536596	0.000642652	-1.94753	3	4	5	6	7	8	9	10	11	12	13	14
422	0.0538922	0.0009388	-2.00128	3	4	5	6	7	8	9	10	11	12	13	14
432	0.0542127	0.00138377	-2.0567	3	4	5	6	7	8	9	10	11	12	13	14
442	0.0542533	0.00151673	-2.08511	3	4	5	6	7	8	9	10	11	12	13	14
452	0.0544028	0.00170774	-2.11599	3	4	5	6	7	8	9	10	11	12	13	14
462	0.0545871	0.00200575	-2.20967	3	4	5	6	7	8	9	10	11	12	13	14
473	0.0546418	0.00212904	-2.28703	3	4	5	6	7	8	9	10	11	12	13	14
483	0.0547701	0.00236384	-2.38473	3	4	5	6	7	8	9	10	11	12	13	14
493	0.0550449	0.00278628	-2.52378	3	4	5	6	7	8	9	10	11	12	13	14
503	0.0551841	0.00308311	-2.5896	3	4	5	6	7	8	9	10	11	12	13	14
513	0.0553365	0.00344221	-2.67558	3	4	5	6	7	8	9	10	11	12	13	14
523	0.055438	0.00368077	-2.73847	3	4	5	6	7	8	9	10	11	12	13	14
533	0.055691	0.00404357	-2.81972	3	4	5	6	7	8	9	10	11	12	13	14
543	0.0558981	0.00429428	-2.90963	3	4	5	6	7	8	9	10	11	12	13	14
553	0.0560488	0.00451636	-2.98602	3	4	5	6	7	8	9	10	11	12	13	14
563	0.0561364	0.00468649	-3.02565	3	4	5	6	7	8	9	10	11	12	13	14
573	0.0563046	0.00488227	-3.07364	3	4	5	6	7	8	9	10	11	12	13	14
583	0.0565236	0.00514978	-3.11497	3	4	5	6	7	8	9	10	11	12	13	14
593	0.0566487	0.00533027	-3.14148	3	4	5	6	7	8	9	10	11	12	13	14
603	0.0569068	0.00562364	-3.17049	3	4	5	6	7	8	9	10	11	12	13	14
613	0.057218	0.00614152	-3.28764	3	4	5	6	7	8	9	10	11	12	13	14
624	0.0574336	0.00647587	-3.38578	3	4	5	6	7	8	9	10	11	12	13	14
634	0.0575768	0.00672014	-3.45717	3	4	5	6	7	8	9	10	11	12	13	14
644	0.0576313	0.00681659	-3.5266	3	4	5	6	7	8	9	10	11	12	13	14
654	0.0579261	0.00716315	-3.63681	3	4	5	6	7	8	9	10	11	12	13	14
664	0.0581181	0.00742958	-3.72233	3	4	5	6	7	8	9	10	11	12	13	14
674	0.0582571	0.00774551	-3.80537	3	4	5	6	7	8	9	10	11	12	13	14
684	0.0583694	0.00806854	-3.9022	3	4	5	6	7	8	9	10	11	12	13	14
694	0.0585649	0.00834789	-3.97166	3	4	5	6	7	8	9	10	11	12	13	14
704	0.0587409	0.00864517	-4.03324	3	4	5	6	7	8	9	10	11	12	13	14
714	0.0589815	0.00892851	-4.07341	3	4	5	6	7	8	9	10	11	12	13	14
724	0.0591181	0.00913573	-4.11107	3	4	5	6	7	8	9	10	11	12	13	14
734	0.0593581	0.0095985	-4.16433	3	4	5	6	7	8	9	10	11	12	13	14
744	0.0594267	0.00969298	-4.1915	3	4	5	6	7	8	9	10	11	12	13	14
754	0.0595073	0.0098405	-4.22153	3	4	5	6	7	8	9	10	11	12	13	14
765	0.0596536	0.0101261	-4.31421	3	4	5	6	7	8	9	10	11	12	13	14
775	0.0598666	0.0104145	-4.43941	3	4	5	6	7	8	9	10	11	12	13	14
785	0.0600071	0.0106629	-4.53481	3	4	5	6	7	8	9	10	11	12	13	14
795	0.0601619	0.0108571	-4.60525	3	4	5	6	7	8	9	10	11	12	13	14
805	0.060345	0.0111447	-4.69337	3	4	5	6	7	8	9	10	11	12	13	14
815	0.0605484	0.0115562	-4.80138	3	4	5	6	7	8	9	10	11	12	13	14
825	0.0607159	0.0118459	-4.88465	3	4	5	6	7	8	9	10	11	12	13	14
835	0.0608808	0.0121004	-4.96245	3	4	5	6	7	8	9	10	11	12	13	14
845	0.0609652	0.0122152	-5.01761	3	4	5	6	7	8	9	10	11	12	13	14
855	0.0610943	0.0123763	-5.08039	3	4	5	6	7	8	9	10	11	12	13	14
865	0.0612819	0.0125547	-5.137	3	4	5	6	7	8	9	10	11	12	13	14
875	0.0614705	0.0128187	-5.19818	3	4	5	6	7	8	9	10	11	12	13	14
885	0.061678	0.0130647	-5.23962	3	4	5	6	7	8	9	10	11	12	13	14
895	0.061778	0.0132599	-5.26799	3	4	5	6	7	8	9	10	11	12	13	14
906	0.0620038	0.0134279	-5.29712	3	4	5	6	7	8	9	10	11	12	13	14
916	0.0622477	0.0137619	-5.4107	3	4	5	6	7	8	9	10	11	12	13	14
926	0.0625638	0.0140495	-5.51161	3	4	5	6	7	8	9	10	11	12	13	14
936	0.06273	0.0143093	-5.58514	0	0	0	-0.00567103	-0.00131045	0.284966	1000	1005	1000	1005	1000	1005
946	0.0627559	0.0144767	-5.68057	0	0	0	-0.00567134	-0.00132678	0.289832	1000	1005	1000	1005	1000	1005
956	0.0628147	0.0147646	-5.79275	0	0	0	-0.00567433	-0.00135472	0.295553	1000	1005	1000	1005	1000	1005
966	0.0629257	0.0149975	-5.88069	0	0	0	-0.00568353	-0.00137536	0.300039	1000	1005	1000	1005	1000	1005
976	0.0630631	0.0153079	-5.96579	0	0	0	-0.00569802	-0.00140421	0.30438	1000	1005	1000	1005	1000	1005
986	0.0632116	0.015535	-6.02684	0	0	0	-0.00571164	-0.00142425	0.307493	1000	1005	1000	1005	1000	1005
996	0.063468	0.0157807	-6.10195	0	0	0	-0.00573707	-0.00144618	0.311323	1000	1005	1000	1005	1000	1005
1006	0.0637497	0.0161053	-6.18287	0	0	0	-0.00576344	-0.00147266	0.315451	1000	1005	1000	1005	1000	1005
1016	0.0639753	0.0163868	-6.23837	0	0	0	-0.005782	-0.00149788	0.318281	1000	1005	1000	1005	1000	1005
1026	0.0641134	0.0165326	-6.27551	0	0	0	-0.00579347	-0.00151038	0.320174	1000	1005	1000	1005	1000	1005
1036	0.064349	0.0168718	-6.33032	0	0	0	-0.0058126	-0.00154147	0.32297	1000	1005	1000	1006	1000	1005
1047	0.0645358	0.017027	-6.36701	0	0	0	-0.00583257	-0.00155624	0.324841	1000	1005	1000	1006	1000	1005
1057	0.0646281	0.0171834	-6.42431	0	0	0	-0.00584132	-0.00157026	0.327814	1000	1005	1000	1006	1000	1006
1067	0.0648071	0.0173674	-6.53173	0	0	0	-0.00585687	-0.00158624	0.333293	1000	1006	1000	1006	1000	1006
1077	0.0648707	0.0174462	-6.58325	0	0	0	-0.00586216	-0.00159244	0.33592	1000	1006	1000	1006	1000	1006
1087	0.0650342	0.0176393	-6.68472	0	0	0	-0.00587645	-0.00160907	0.341094	1000	1006	1000	1006	1000	1006
1097	0.0651627	0.0178499	-6.78138	0	0	0	-0.00588746	-0.00162786	0.346024	1000	1006	1000	1006	1000	1006
1107	0.0654076	0.0181743	-6.89916	0	0	0	-0.00591	-0.00165817	0.352031	1000	1006	1000	1006	1000	1006
1117	0.0655439	0.0184029	-6.96586	0	0	0	-0.00592221	-0.00168058	0.355433	1000	1006	1000	1006	1000	1006
1127	0.0658291	0.0189033	-7.09879	0	0	0	-0.00594643	-0.00172681	0.362214	1000	1006	1000	1006	1000	1006
1137	0.0659347	0.0190627	-7.17844	0	0	0	-0.00595672	-0.00174016	0.366276	1000	1006	1000	1006	1000	1006
1147	0.0660043	0.0191729	-7.23419	0	0	0	-0.00596305	-0.00174879	0.369119	1000	1006	1000	1006	1000	1006
1157	0.0660268	0.0192296	-7.28501	0	0	0	-0.00596465	-0.00175373	0.371711	1000	1006	1000	1006	1000	1006
1167	0.0661811	0.0195286	-7.37474	0	0	0	-0.0059788	-0.001782	0.376287	1000	1006	1000	1007	1000	1006
1177	0.066309	0.0196743	-7.42482	0	0	0	-0.00599127	-0.00179553	0.37884	1000	1006	1000	1007	1000	1006
1188	0.0664434	0.0198171	-7.46823	0	0	0	-0.00600205	-0.00180615	0.381054	1000	1006	1000	1007	1000	1007
1198	0.0666009	0.0199735	-7.50551	0	0	0	-0.00601632	-0.00181929	0.382956	1000	1006	1000	1007	1000	1007
1208	0.0667694	0.0201818	-7.55818	0	0	0	-0.00603206	-0.00183832	0.3857	1000	1006	1000	1007	1000	1007
1218	0.0669397	0.0204608	-7.64192	0	0	0	-0.00604782	-0.00186532	0.38997	1000	1007	1000	1007	1000	1007
1228	0.067173	0.0207851	-7.74972	0	0	0	-0.00606983	-0.00189591	0.395468	1000	1007	1000	1007	1000	1007
1238	0.0672193	0.0209538	-7.87776	0	0	0	-0.00607176	-0.00190953	0.401998	1000	1007	1000	1007	1000	1007
1248	0.0671978	0.0209828	-7.97655	0	0	0	-0.00606856	-0.00191013	0.407037	1000	1007	1000	1007	1000	1007
1258	0.067191	0.0211389	-8.07272	0	0	0	-0.00606719	-0.00192416	0.411941	1000	1007	1000	1007	1000	1007
1268	0.0672924	0.0212654	-8.16536	0	0	0	-0.00607781	-0.00193707	0.416666	1000	1007	1000	1007	1000	1007
1278	0.0673485	0.0214227	-8.23432	0	0	0	-0.00608393	-0.00195172	0.420183	1000	1007	1000	1007	1000	1007
1288	0.0674366	0.0215525	-8.31997	0	0	0	-0.00609136	-0.0019628	0.424551	1000	1007	1000	1007	1000	1007
1298	0.0675504	0.0217062	-8.39759	0	0	0	-0.00610157	-0.00197544	0.428509	1000	1007	1000	1008	1000	1007
1308	0.067696	0.0218564	-8.48349	0	0	0	-0.00611545	-0.00198771	0.43289	1000	1007	1000	1008	1000	1007
1318	0.0678591	0.0220416	-8.5444	0	0	0	-0.00612968	-0.00200451	0.435997	1000	1007	1000	1008	1000	1008
1328	0.0680009	0.0222149	-8.58439	0	0	0	-0.00614208	-0.00201986	0.438037	1000	1007	1000	1008	1000	1008
1339	0.0679778	0.0223572	-8.63262	0	0	0	-0.00613679	-0.00203378	0.440498	1000	1007	1000	1008	1000	1008
1349	0.0678912	0.0224352	-8.6828	0	0	0	-0.00612792	-0.00204358	0.443057	1000	1008	1000	1008	1000	1008
1359	0.0678459	0.0224653	-8.73829	0	0	0	-0.00612546	-0.00204665	0.44595	1000	1008	1000	1008	1000	1008
1369	0.0678161	0.0225538	-8.85357	0	0	0	-0.00612301	-0.0020532	0.45183	1000	1008	1000	1008	1000	1008
1379	0.06781	0.0227068	-8.96442	0	0	0	-0.00612292	-0.00206649	0.457484	1000	1008	1000	1008	1000	1008
1389	0.0678283	0.0228454	-9.07023	0	0	0	-0.00612468	-0.00208007	0.46288	1000	1008	1000	1008	1000	1008
1399	0.0679153	0.0230182	-9.17306	0	0	0	-0.0061342	-0.00209431	0.468125	1000	1008	1000	1008	1000	1008
1409	0.0679875	0.0231874	-9.27326	0	0	0	-0.00614079	-0.00210988	0.473234	1000	1008	1000	1008	1000	1008
1419	0.0680406	0.0234296	-9.36987	0	0	0	-0.00614446	-0.00213224	0.478162	1000	1008	1000	1008	1000	1008
1429	0.0681151	0.0236102	-9.44186	0	0	0	-0.00614971	-0.0021483	0.481833	1000	1008	1000	1008	1000	1008
1439	0.068092	0.0236675	-9.55187	0	0	0	-0.0061483	-0.00215193	0.487444	1000	1008	1000	1009	1000	1008
1449	0.0679494	0.0236605	-9.63154	0	0	0	-0.00613504	-0.00215149	0.491508	1000	1008	1000	1009	1000	1009
1459	0.0678224	0.0236084	-9.70466	0	0	0	-0.00612303	-0.00214654	0.495237	1000	1008	1000	1009	1000	1009
1470	0.0677643	0.0235575	-9.76986	0	0	0	-0.00611841	-0.00214023	0.498562	1000	1009	1000	1009	1000	1009
1480	0.0677496	0.0236538	-9.84126	0	0	0	-0.00611749	-0.0021505	0.502203	1000	1009	1000	1009	1000	1009
1490	0.0677501	0.0237428	-9.88844	0	0	0	-0.00611793	-0.00216012	0.504609	1000	1009	1000	1009	1000	1009
1500	0.0677663	0.0236905	-9.91926	0	0	0	-0.00612086	-0.00215414	0.50618	1000	1009	1000	1009	1000	1009
1510	0.0677809	0.0237787	-9.97852	0	0	0	-0.00612184	-0.00216091	0.509274	1000	1009	1000	1009	1000	1009
1520	0.0677804	0.0239038	-10.0987	0	0	0	-0.00612028	-0.00217208	0.515404	1000	1009	1000	1009	1000	1009
1530	0.0679164	0.0242093	-10.2439	0	0	0	-0.00613202	-0.00220029	0.522809	1000	1009	1000	1009	1000	1009
1540	0.0676682	0.0241477	-10.3526	0	0	0	-0.00610857	-0.0021962	0.528354	1000	1009	1000	1009	1000	1009
1550	0.067531	0.0240396	-10.4321	0	0	0	-0.00609642	-0.00218579	0.532409	1000	1009	1000	1009	1000	1009
1560	0.0673478	0.0239589	-10.5367	0	0	0	-0.00608014	-0.00217768	0.537743	1000	1009	1000	1010	1000	1009
1570	0.0672938	0.0238218	-10.6632	0	0	0	-0.00607797	-0.00216209	0.544195	1000	1009	1000	1010	1000	1010
1580	0.0671753	0.0238272	-10.7629	0	0	0	-0.00606708	-0.00216377	0.549279	1000	1009	1000	1010	1000	1010
1590	0.067081	0.0238253	-10.8279	0	0	0	-0.00605733	-0.00216482	0.552595	1000	1010	1000	1010	1000	1010
1600	0.0670225	0.0238117	-10.9109	0	0	0	-0.00605098	-0.00216428	0.556828	1000	1010	1000	1010	1000	1010
1611	0.0670126	0.0237885	-10.9704	0	0	0	-0.00605068	-0.00215979	0.559862	1000	1010	1000	1010	1000	1010
1621	0.0669738	0.0239951	-11.0699	0	0	0	-0.00604602	-0.00218099	0.564937	1000	1010	1000	1010	1000	1010
1631	0.0669328	0.0239803	-11.1272	0	0	0	-0.00604081	-0.0021784	0.567859	1000	1010	1000	1010	1000	1010
1641	0.0667096	0.0237741	-11.1661	0	0	0	-0.00602146	-0.00215869	0.569845	1000	1010	1000	1010	1000	1010
1651	0.0664371	0.0235922	-11.1996	0	0	0	-0.00599574	-0.00214286	0.571553	1000	1010	1000	1010	1000	1010
1661	0.0661658	0.0233733	-11.2968	0	0	0	-0.00597213	-0.00212439	0.576587	1000	1010	1000	1010	1000	1010
1671	0.0658056	0.0231412	-11.4553	0	0	0	-0.00594045	-0.00210181	0.584669	1000	1010	1000	1010	1000	1010
1681	0.0655434	0.0230522	-11.5781	0	0	0	-0.00591528	-0.00209362	0.59093	1000	1010	1000	1010	1000	1010
1691	0.065364	0.0229471	-11.6954	0	0	0	-0.00589898	-0.00208441	0.596917	1000	1010	1000	1011	1000	1010
1701	0.0652108	0.0229445	-11.8076	0	0	0	-0.00588599	-0.00208545	0.602639	1000	1010	1000	1011	1000	1011
1711	0.0651667	0.0229773	-11.89	0	0	0	-0.0058836	-0.00208891	0.606839	1000	1011	1000	1011	1000	1011
1721	0.0650711	0.0229363	-11.9968	0	0	0	-0.00587475	-0.0020834	0.612287	1000	1011	1000	1011	1000	1011
1731	0.065059	0.0230585	-12.1026	0	0	0	-0.00587383	-0.00209428	0.617686	1000	1011	1000	1011	1000	1011
1741	0.0646045	0.022677	-12.1957	0	0	0	-0.00583003	-0.0020592	0.62243	1000	1011	1000	1011	1000	1011
1752	0.0641347	0.0222618	-12.3015	0	0	0	-0.00578752	-0.00202109	0.627827	1000	1011	1000	1011	1000	1011
1762	0.0638436	0.0220984	-12.3763	0	0	0	-0.00576252	-0.00200917	0.631642	1000	1011	1000	1011	1000	1011
1772	0.0636271	0.0219273	-12.4289	0	0	0	-0.00574313	-0.00199462	0.634322	1000	1011	1000	1011	1000	1011
1782	0.0634112	0.0217532	-12.4755	0	0	0	-0.00572338	-0.00197738	0.636697	1000	1011	1000	1011	1000	1011
1792	0.0630172	0.0214461	-12.5578	0	0	0	-0.00568642	-0.00194849	0.640898	1000	1011	1000	1011	1000	1011
1802	0.0628079	0.0212715	-12.6027	0	0	0	-0.00566782	-0.00193153	0.643185	1000	1011	1000	1011	1000	1011
1812	0.0626018	0.0211769	-12.7122	0	0	0	-0.00564887	-0.00192374	0.648855	1000	1011	1000	1012	1000	1011
1822	0.0624745	0.021155	-12.841	0	0	0	-0.00563875	-0.00192112	0.655427	1000	1011	1000	1012	1000	1012
1832	0.0623991	0.0212017	-12.9368	0	0	0	-0.00563195	-0.00192545	0.660313	1000	1012	1000	1012	1000	1012
1842	0.061876	0.0207977	-13.0562	0	0	0	-0.00558321	-0.0018898	0.6664	1000	1012	1000	1012	1000	1012
1852	0.0612739	0.0202317	-13.2017	0	0	0	-0.00552869	-0.00183797	0.673822	1000	1012	1000	1012	1000	1012
1862	0.0608296	0.0198964	-13.3144	0	0	0	-0.00548893	-0.00180732	0.67957	1000	1012	1000	1012	1000	1012
1872	0.060377	0.0195931	-13.4253	0	0	0	-0.00544791	-0.00178084	0.685225	1000	1012	1000	1012	1000	1012
1882	0.0601301	0.0194038	-13.5089	0	0	0	-0.00542553	-0.00176376	0.689488	1000	1012	1000	1012	1000	1012
1892	0.0598762	0.0191308	-13.6065	0	0	0	-0.00540516	-0.00173877	0.694464	1000	1012	1000	1012	1000	1012
1903	0.0595166	0.0188252	-13.7178	0	0	0	-0.00537361	-0.00171188	0.700142	1000	1012	1000	1012	1000	1012
1913	0.0592803	0.0186513	-13.7973	0	0	0	-0.00535178	-0.0016953	0.704193	1000	1012	1000	1013	1000	1012
1923	0.0591872	0.0185755	-13.8694	0	0	0	-0.00534351	-0.00168918	0.707874	1000	1012	1000	1013	1000	1013
1933	0.05897	0.0183056	-13.9346	0	0	0	-0.00532328	-0.00166261	0.711198	1000	1012	1000	1013	1000	1013
1943	0.0584414	0.0176828	-13.9922	0	0	0	-0.00527502	-0.00160541	0.714135	1000	1013	1000	1013	1000	1013
1953	0.0581026	0.0172655	-14.0299	0	0	0	-0.0052444	-0.00156808	0.716058	1000	1013	1000	1013	1000	1013
1963	0.0575919	0.016748	-14.1569	0	0	0	-0.00520091	-0.00152478	0.722625	1000	1013	1000	1013	1000	1013
1973	0.0571075	0.016317	-14.2928	0	0	0	-0.00515557	-0.00148619	0.729555	1000	1013	1000	1013	1000	1013
1983	0.0566087	0.0158428	-14.457	0	0	0	-0.00510944	-0.00144102	0.737931	1000	1013	1000	1013	1000	1013
1993	0.0562623	0.0155619	-14.5505	0	0	0	-0.00507667	-0.00141511	0.742699	1000	1013	1000	1013	1000	1013
2003	0.0558447	0.0152226	-14.6736	0	0	0	-0.00503777	-0.00138465	0.748976	1000	1013	1000	1013	1000	1013
2013	0.0556524	0.0151301	-14.7643	0	0	0	-0.00502101	-0.00137789	0.7536	1000	1013	1000	1013	1000	1013
2023	0.0552188	0.0148617	-14.9401	0	0	0	-0.00498209	-0.001354	0.762565	1000	1013	1000	1014	1000	1014
2033	0.0547728	0.0144019	-15.05	0	0	0	-0.00494072	-0.00130929	0.768171	1000	1014	1000	1014	1000	1014
2044	0.0541247	0.0137103	-15.1508	0	0	0	-0.00488282	-0.00124675	0.773314	1000	1014	1000	1014	1000	1014
2054	0.0536759	0.0131667	-15.2198	0	0	0	-0.00484228	-0.00119697	0.776834	1000	1014	1000	1014	1000	1014
2064	0.0531758	0.0125967	-15.3045	0	0	0	-0.00479817	-0.00114712	0.781153	1000	1014	1000	1014	1000	1014
2074	0.0526478	0.0120485	-15.3817	0	0	0	-0.00475078	-0.00109774	0.785089	1000	1014	1000	1014	1000	1014
2084	0.0521561	0.011544	-15.4515	0	0	0	-0.00470516	-0.00105342	0.78865	1000	1014	1000	1014	1000	1014
2094	0.0516326	0.0109387	-15.528	0	0	0	-0.00465734	-0.000997203	0.792548	1000	1014	1000	1014	1000	1014
2104	0.0513636	0.0106014	-15.5667	0	0	0	-0.00463439	-0.000967781	0.794526	1000	1014	1000	1014	1000	1014
2114	0.0510402	0.0102711	-15.6886	0	0	0	-0.00460701	-0.000938188	0.800832	1000	1014	1000	1014	1000	1014
2124	0.0507389	0.00998708	-15.8312	0	0	0	-0.00457965	-0.000910814	0.808106	1000	1014	1000	1014	1000	1014
2134	0.0501987	0.00953284	-16.0036	0	0	0	-0.00452894	-0.000870563	0.8169	1000	1014	1000	1015	1000	1015
2144	0.0494638	0.00874194	-16.1353	0	0	0	-0.00446167	-0.00079941	0.823616	1000	1015	1000	1015	1000	1015
2154	0.0486446	0.00779952	-16.2945	0	0	0	-0.00438682	-0.000712457	0.831732	1000	1015	1000	1015	1000	1015
2164	0.0482266	0.007359	-16.3885	0	0	0	-0.00435057	-0.000673199	0.83653	1000	1015	1000	1015	1000	1015
2174	0.0476066	0.00674048	-16.5115	0	0	0	-0.0042937	-0.000619005	0.842801	1000	1015	1000	1015	1000	1015
2185	0.0472012	0.00627246	-16.5989	0	0	0	-0.00425677	-0.000575752	0.847259	1000	1015	1000	1015	1000	1015
2195	0.0467291	0.0057652	-16.708	0	0	0	-0.00421487	-0.000529827	0.852824	1000	1015	1000	1015	1000	1015
2205	0.0463534	0.00525518	-16.8068	0	0	0	-0.00418378	-0.00048491	0.857862	1000	1015	1000	1015	1000	1015
2215	0.0459184	0.00479021	-16.9194	0	0	0	-0.00414512	-0.000443085	0.863607	1000	1015	1000	1015	1000	1015
2225	0.0455973	0.00437948	-17.0171	0	0	0	-0.00411509	-0.00040668	0.868591	1000	1015	1000	1016	1000	1016
2235	0.0452245	0.00381973	-17.0708	0	0	0	-0.00408119	-0.000352831	0.871326	1000	1015	1000	1016	1000	1016
2245	0.0446358	0.00316262	-17.1195	0	0	0	-0.00402625	-0.000293237	0.873808	1000	1016	1000	1016	1000	1016
2255	0.0439895	0.00231713	-17.1766	0	0	0	-0.00396664	-0.000218047	0.876723	1000	1016	1000	1016	1000	1016
2265	0.0433519	0.00156321	-17.3075	0	0	0	-0.00390884	-0.000149602	0.883495	1000	1016	1000	1016	1000	1016
2275	0.0425416	0.000634268	-17.4908	0	0	0	-0.00383448	-6.43879e-05	0.89284	1000	1016	1000	1016	1000	1016
2285	0.0419722	-6.29158e-06	-17.6327	0	0	0	-0.00378523	-5.92934e-06	0.900078	1000	1016	1000	1016	1000	1016
2295	0.041594	-0.000404955	-17.7383	0	0	0	-0.00375137	2.83025e-05	0.905465	1000	1016	1000	1016	1000	1016
2305	0.0411399	-0.000929541	-17.8724	0	0	0	-0.00371104	7.38675e-05	0.912302	1000	1016	1000	1016	1000	1016
2315	0.0406818	-0.0014466	-18.0347	0	0	0	-0.00367194	0.000119443	0.920582	1000	1016	1000	1016	1000	1016
2326	0.0403671	-0.00178889	-18.1626	0	0	0	-0.00364407	0.000149667	0.927104	1000	1016	1000	1017	1000	1017
2336	0.039793	-0.00241503	-18.2844	0	0	0	-0.00358949	0.000209056	0.933313	1000	1017	1000	1017	1000	1017
2346	0.0390779	-0.00331259	-18.3974	0	0	0	-0.00352338	0.000290425	0.939077	1000	1017	1000	1017	1000	1017
2356	0.0384968	-0.0039199	-18.4761	0	0	0	-0.0034695	0.000344048	0.943094	1000	1017	1000	1017	1000	1017
2366	0.0377937	-0.00476625	-18.5718	0	0	0	-0.00340436	0.000420786	0.947972	1000	1017	1000	1017	1000	1017
2376	0.0370461	-0.00573473	-18.6781	0	0	0	-0.00333815	0.000509476	0.953391	1000	1017	1000	1017	1000	1017
2386	0.0365397	-0.00643471	-18.7548	0	0	0	-0.00329505	0.000572686	0.957306	1000	1017	1000	1017	1000	1017
2396	0.0359147	-0.0072002	-18.8409	0	0	0	-0.00323876	0.000639607	0.961697	1000	1017	1000	1017	1000	1017
2406	0.0355751	-0.00766853	-18.8856	0	0	0	-0.00320803	0.000682076	0.963975	1000	1017	1000	1017	1000	1017
2416	0.0350518	-0.00823598	-19.0891	0	0	0	-0.00316249	0.000732993	0.974456	1000	1017	1000	1017	1000	1017
2426	0.0348104	-0.00847169	-19.2017	0	0	0	-0.00314102	0.00075412	0.980198	1000	1017	1000	1018	1000	1018
2436	0.0342675	-0.00917936	-19.3518	0	0	0	-0.00309078	0.0008204	0.987855	1000	1018	1000	1018	1000	1018
2446	0.0333885	-0.010306	-19.5349	0	0	0	-0.0030113	0.000922296	0.997194	1000	1018	1000	1018	1000	1018
2456	0.0328767	-0.0109626	-19.6391	0	0	0	-0.00296504	0.000981607	1.00251	1000	1018	1000	1018	1000	1018
2467	0.0323874	-0.0115866	-19.7447	0	0	0	-0.00291961	0.00103833	1.00789	1000	1018	1000	1018	1000	1018
2477	0.0316291	-0.0125135	-19.9129	0	0	0	-0.0028519	0.00112078	1.01647	1000	1018	1000	1018	1000	1018
2487	0.0312222	-0.0130105	-20.0119	0	0	0	-0.00281474	0.0011656	1.02152	1000	1018	1000	1018	1000	1018
2497	0.0305322	-0.0138369	-20.16	0	0	0	-0.0027525	0.0012394	1.02907	1000	1018	1000	1018	1000	1018
2507	0.0299621	-0.0145704	-20.2949	0	0	0	-0.00270109	0.00130579	1.03595	1000	1019	1000	1019	1000	1019
2517	0.0295218	-0.0151306	-20.3933	0	0	0	-0.00266084	0.00135719	1.04097	1000	1019	1000	1019	1000	1019
2527	0.0293382	-0.0154143	-20.4565	0	0	0	-0.0026454	0.00138238	1.04419	1000	1019	1000	1019	1000	1019
2537	0.0288193	-0.0160829	-20.5378	0	0	0	-0.00259835	0.00144259	1.04834	1000	1019	1000	1019	1000	1019
2547	0.0282215	-0.0169691	-20.6114	0	0	0	-0.00254434	0.00152111	1.05209	1000	1019	1000	1019	1000	1019
2557	0.0275873	-0.0178654	-20.6767	0	0	0	-0.00248695	0.00160255	1.05542	1000	1019	1000	1019	1000	1019
2567	0.0269965	-0.0186428	-20.845	0	0	0	-0.00243358	0.00167408	1.06411	1000	1019	1000	1019	1000	1019
2577	0.0263191	-0.0195178	-21.0476	0	0	0	-0.00237316	0.00175262	1.07444	1000	1019	1000	1019	1000	1019
2587	0.0258254	-0.0201362	-21.203	0	0	0	-0.0023299	0.00180782	1.08237	1000	1019	1000	1019	1000	1019
2597	0.0252403	-0.0208746	-21.3889	0	0	0	-0.00227698	0.00187319	1.09185	1000	1020	1000	1020	1000	1020
2607	0.0248801	-0.0212918	-21.5005	0	0	0	-0.00224376	0.00191149	1.09754	1000	1020	1000	1020	1000	1020
2618	0.0245569	-0.0216454	-21.6074	0	0	0	-0.00221363	0.00194376	1.10299	1000	1020	1000	1020	1000	1020
2628	0.0241911	-0.0220313	-21.7451	0	0	0	-0.00218029	0.00197779	1.11002	1000	1020	1000	1020	1000	1020
2638	0.0236869	-0.0226267	-21.8826	0	0	0	-0.00213372	0.00203194	1.11703	1000	1020	1000	1020	1000	1020
2648	0.0230663	-0.0235056	-22.0073	0	0	0	-0.00207834	0.00211164	1.12339	1000	1020	1000	1020	1000	1020
2658	0.0223021	-0.0247038	-22.1733	0	0	0	-0.00201169	0.00222099	1.13186	1000	1020	1000	1020	1000	1020
2668	0.0218223	-0.0254834	-22.2738	0	0	0	-0.00196938	0.00229136	1.13698	1000	1020	1000	1020	1000	1020
2678	0.0214499	-0.0260657	-22.3439	0	0	0	-0.00193365	0.00234559	1.14055	1000	1020	1000	1020	1000	1021
2688	0.0209827	-0.0266595	-22.4274	0	0	0	-0.00189005	0.00239745	1.14482	1000	1021	1000	1021	1000	1021
2698	0.0205886	-0.0271077	-22.4837	0	0	0	-0.00185335	0.00243541	1.14768	1000	1021	1000	1021	1000	1021
2708	0.0201604	-0.0276968	-22.5534	0	0	0	-0.00181397	0.00248822	1.15124	1000	1021	1000	1021	1000	1021
2718	0.0197565	-0.0281753	-22.7311	0	0	0	-0.00177847	0.00253315	1.16041	1000	1021	1000	1021	1000	1021
2728	0.0193959	-0.0285627	-22.9014	0	0	0	-0.00174806	0.00256765	1.1691	1000	1021	1000	1021	1000	1021
2738	0.0189498	-0.0291823	-23.0669	0	0	0	-0.0017082	0.00262536	1.17753	1000	1021	1000	1021	1000	1021
2748	0.0181189	-0.0302069	-23.2691	0	0	0	-0.00163119	0.00271708	1.18785	1000	1021	1000	1021	1000	1021
2758	0.0175294	-0.0309867	-23.4242	0	0	0	-0.001576	0.00278801	1.19576	1000	1021	1000	1021	1000	1022
2769	0.0168947	-0.0317901	-23.6122	0	0	0	-0.00152048	0.00285935	1.20534	1000	1022	1000	1022	1000	1022
2779	0.0165711	-0.0322425	-23.7239	0	0	0	-0.00149287	0.00289902	1.21104	1000	1022	1000	1022	1000	1022
2789	0.0161478	-0.0328515	-23.8611	0	0	0	-0.00145455	0.00295372	1.21804	1000	1022	1000	1022	1000	1022
2799	0.0158196	-0.0333393	-23.9561	0	0	0	-0.00142557	0.0030004	1.22289	1000	1022	1000	1022	1000	1022
2809	0.0154245	-0.0338733	-24.0759	0	0	0	-0.00138908	0.0030485	1.22899	1000	1022	1000	1022	1000	1022
2819	0.0151066	-0.0343297	-24.1843	0	0	0	-0.00136048	0.00308863	1.23453	1000	1022	1000	1022	1000	1022
2829	0.0147182	-0.0347755	-24.3089	0	0	0	-0.00132468	0.0031271	1.24088	1000	1022	1000	1022	1000	1022
2839	0.014136	-0.035638	-24.4157	0	0	0	-0.00127115	0.00320615	1.24633	1000	1022	1000	1022	1000	1023
2849	0.0137617	-0.0361987	-24.4755	0	0	0	-0.00123658	0.00325688	1.24937	1000	1022	1000	1022	1000	1023
2859	0.0133101	-0.0368934	-24.5762	0	0	0	-0.00119642	0.00332036	1.25462	1000	1023	1000	1023	1000	1023
2869	0.0127574	-0.0376068	-24.7987	0	0	0	-0.00114796	0.00338364	1.26597	1000	1023	1000	1023	1000	1023
2879	0.0123225	-0.0381831	-24.9704	0	0	0	-0.00110949	0.00343499	1.27473	1000	1023	1000	1023	1000	1023
2889	0.0120564	-0.0385804	-25.0978	0	0	0	-0.00108629	0.00347162	1.28122	1000	1023	1000	1023	1000	1023
2899	0.0116937	-0.0390635	-25.2623	0	0	0	-0.00105351	0.00351509	1.28962	1000	1023	1000	1023	1000	1023
2910	0.0113994	-0.0394142	-25.3866	0	0	0	-0.00102621	0.00354658	1.29595	1000	1023	1000	1023	1000	1023
2920	0.0110234	-0.039969	-25.5848	0	0	0	-0.000992269	0.0035973	1.30606	1000	1024	1000	1023	1000	1024
2930	0.0107227	-0.0402468	-25.7408	0	0	0	-0.000965565	0.0036223	1.31402	1000	1024	1000	1024	1000	1024
2940	0.0103742	-0.0406263	-25.9221	0	0	0	-0.000932777	0.0036558	1.32326	1000	1024	1000	1024	1000	1024
2950	0.00994083	-0.0412547	-26.0505	0	0	0	-0.000892933	0.0037125	1.32981	1000	1024	1000	1024	1000	1024
2960	0.00964629	-0.0417261	-26.1389	0	0	0	-0.000866899	0.003755	1.33432	1000	1024	1000	1024	1000	1024
2970	0.00914759	-0.0424527	-26.2804	0	0	0	-0.000821823	0.00382037	1.34154	1000	1024	1000	1024	1000	1024
2980	0.00892488	-0.0428329	-26.356	0	0	0	-0.000802421	0.00385434	1.34539	1000	1024	1000	1024	1000	1024
2990	0.00859946	-0.0433413	-26.4485	0	0	0	-0.000772676	0.00390031	1.35011	1000	1024	1000	1024	1000	1024
3000	0.00839565	-0.0438203	-26.5318	0	0	0	-0.00075683	0.00394339	1.35436	1000	1024	1000	1024	1000	1025
3010	0.0080686	-0.0442847	-26.6674	0	0	0	-0.000726623	0.00398597	1.36139	1000	1025	1000	1025	1000	1025
3020	0.00772872	-0.0446713	-26.8556	0	0	0	-0.000694862	0.00401936	1.37098	1000	1025	1000	1025	1000	1025
3030	0.00740997	-0.0449703	-27.0359	0	0	0	-0.000665708	0.00404622	1.38018	1000	1025	1000	1025	1000	1025
3040	0.00703883	-0.0452977	-27.2573	0	0	0	-0.000630605	0.00407487	1.39147	1000	1025	1000	1025	1000	1025
3050	0.00659058	-0.0460283	-27.4642	0	0	0	-0.000591242	0.00414215	1.40202	1000	1025	1000	1025	1000	1025
3061	0.00630443	-0.0464548	-27.59	0	0	0	-0.000566536	0.00418134	1.40844	1000	1025	1000	1025	1000	1026
3071	0.00597433	-0.0469836	-27.752	0	0	0	-0.000536558	0.00422981	1.4167	1000	1026	1000	1026	1000	1026
3081	0.00569423	-0.0473456	-27.8692	0	0	0	-0.000510929	0.00426148	1.42268	1000	1026	1000	1026	1000	1026
3091	0.00541761	-0.0477732	-28.0157	0	0	0	-0.000485756	0.00429839	1.43015	1000	1026	1000	1026	1000	1026
3101	0.00515431	-0.0482658	-28.1508	0	0	0	-0.000463564	0.00434551	1.43704	1000	1026	1000	1026	1000	1026
3111	0.00481055	-0.0487234	-28.3087	0	0	0	-0.000431216	0.00438422	1.44509	1000	1026	1000	1026	1000	1026
3121	0.00454874	-0.0491562	-28.4461	0	0	0	-0.000407912	0.00442375	1.4521	1000	1026	1000	1026	1000	1026
3131	0.00435953	-0.0494362	-28.5255	0	0	0	-0.000390334	0.00444944	1.45614	1000	1026	1000	1026	1000	1026
3141	0.00417598	-0.0497858	-28.6209	0	0	0	-0.000373406	0.00448267	1.46101	1000	1026	1000	1026	1000	1026
3151	0.00390488	-0.0502012	-28.6811	0	0	0	-0.000347918	0.00452135	1.46408	1000	1026	1000	1026	1000	1027
3161	0.0035931	-0.0507491	-28.821	0	0	0	-0.000319132	0.00457027	1.47133	1000	1027	1000	1027	1000	1027
3171	0.0031813	-0.0513056	-29.0637	0	0	0	-0.000283133	0.00461897	1.48371	1000	1027	1000	1027	1000	1027
3181	0.00283675	-0.0517996	-29.2912	0	0	0	-0.000251752	0.00466233	1.49531	1000	1027	1000	1027	1000	1027
3191	0.00258968	-0.052136	-29.4294	0	0	0	-0.000230733	0.00469344	1.50236	1000	1027	1000	1027	1000	1027
3202	0.00234585	-0.0525665	-29.6026	0	0	0	-0.000208257	0.00473406	1.51119	1000	1027	1000	1027	1000	1027
3212	0.00213723	-0.0527694	-29.7287	0	0	0	-0.000189542	0.00475142	1.51762	1000	1027	1000	1027	1000	1028
3222	0.00194087	-0.0530847	-29.8979	0	0	0	-0.000173037	0.00477793	1.52625	1000	1028	1000	1028	1000	1028
3232	0.00162941	-0.0534172	-30.1037	0	0	0	-0.000143896	0.00480713	1.53675	1000	1028	1000	1028	1000	1028
3242	0.00132185	-0.0538036	-30.2877	0	0	0	-0.000114227	0.00484372	1.54613	1000	1028	1000	1028	1000	1028
3252	0.00105766	-0.0542635	-30.4247	0	0	0	-9.03757e-05	0.0048862	1.55312	1000	1028	1000	1028	1000	1028
3262	0.000826758	-0.0546519	-30.5498	0	0	0	-7.01644e-05	0.00492079	1.5595	1000	1028	1000	1028	1000	1028
3272	0.000697311	-0.0549361	-30.6394	0	0	0	-6.01615e-05	0.00494527	1.56407	1000	1028	1000	1028	1000	1028
3282	0.000471274	-0.0553468	-30.7482	0	0	0	-3.9648e-05	0.0049832	1.56962	1000	1028	1000	1028	1000	1028
3292	0.000233304	-0.0557314	-30.8486	0	0	0	-1.60889e-05	0.00501916	1.57474	1000	1028	1000	1028	1000	1029
3302	0.000102818	-0.055992	-30.9367	0	0	0	-5.37647e-06	0.00503996	1.57923	1000	1029	1000	1028	1000	1029
3312	-0.000143918	-0.0564363	-31.1596	0	0	0	1.55627e-05	0.00508131	1.59071	1000	1029	1000	1029	1000	1029
3322	-0.000382803	-0.0567483	-31.3547	0	0	0	3.74069e-05	0.0051122	1.60066	1000	1029	1000	1029	1000	1029
3332	-0.000568098	-0.0569759	-31.5448	0	0	0	5.45361e-05	0.00513085	1.61036	1000	1029	1000	1029	1000	1029
3343	-0.000713635	-0.0571169	-31.688	0	0	0	6.75128e-05	0.00514199	1.61766	1000	1029	1000	1029	1000	1029
3353	-0.000934291	-0.0574509	-31.8675	0	0	0	8.75811e-05	0.00517122	1.62681	1000	1029	1000	1029	1000	1030
3363	-0.00118036	-0.0578545	-32.0865	0	0	0	0.000109514	0.00520687	1.63798	1000	1030	1000	1030	1000	1030
3373	-0.00133262	-0.0581977	-32.2592	0	0	0	0.000121991	0.00523899	1.64679	1000	1030	1000	1030	1000	1030
3383	-0.00152608	-0.0584544	-32.4239	0	0	0	0.000139959	0.00526238	1.65519	1000	1030	1000	1030	1000	1030
3393	-0.00171474	-0.0587344	-32.578	0	0	0	0.000157829	0.00528656	1.66305	1000	1030	1000	1030	1000	1030
3403	-0.00189498	-0.059068	-32.7205	0	0	0	0.000175569	0.00531956	1.67032	1000	1030	1000	1030	1000	1030
3413	-0.00203708	-0.0593316	-32.851	0	0	0	0.000187074	0.00534309	1.67697	1000	1030	1000	1030	1000	1030
3423	-0.00212721	-0.0595663	-32.9446	0	0	0	0.000194884	0.00536492	1.68174	1000	1030	1000	1030	1000	1031
3433	-0.00229131	-0.0597591	-33.0583	0	0	0	0.000210473	0.0053806	1.68755	1000	1031	1000	1030	1000	1031
3443	-0.00246947	-0.0599965	-33.184	0	0	0	0.000227465	0.00540027	1.69395	1000	1031	1000	1031	1000	1031
3453	-0.00264181	-0.0603178	-33.2766	0	0	0	0.000244232	0.00542984	1.69868	1000	1031	1000	1031	1000	1031
3463	-0.00278921	-0.0606259	-33.4863	0	0	0	0.00025544	0.0054586	1.70949	1000	1031	1000	1031	1000	1031
3473	-0.00296236	-0.0609457	-33.6877	0	0	0	0.000270583	0.0054885	1.71975	1000	1031	1000	1031	1000	1031
3484	-0.00311981	-0.0612206	-33.9351	0	0	0	0.00028374	0.00551185	1.73238	1000	1031	1000	1031	1000	1032
3494	-0.00320646	-0.0614044	-34.0754	0	0	0	0.000290679	0.00552765	1.73953	1000	1032	1000	1031	1000	1032
3504	-0.00335122	-0.0616267	-34.2608	0	0	0	0.00030508	0.00554779	1.74899	1000	1032	1000	1032	1000	1032
3514	-0.00349444	-0.0618369	-34.4007	0	0	0	0.00031887	0.00556829	1.75612	1000	1032	1000	1032	1000	1032
3524	-0.00358687	-0.0620305	-34.5806	0	0	0	0.000326151	0.00558482	1.76529	1000	1032	1000	1032	1000	1032
3534	-0.00374363	-0.0622457	-34.8348	0	0	0	0.000340025	0.00560271	1.77826	1000	1032	1000	1032	1000	1032
3544	-0.00385317	-0.0624552	-34.9896	0	0	0	0.000350596	0.0056226	1.78615	1000	1032	1000	1032	1000	1032
3554	-0.00393316	-0.0626439	-35.1033	0	0	0	0.000357326	0.00563962	1.79195	1000	1032	1000	1032	1000	1033
3564	-0.00399353	-0.0628404	-35.2011	0	0	0	0.000363153	0.00565775	1.79694	1000	1033	1000	1032	1000	1033
3574	-0.00407923	-0.0631257	-35.3289	0	0	0	0.000370758	0.00568482	1.80346	1000	1033	1000	1033	1000	1033
3584	-0.00416995	-0.0634176	-35.4772	0	0	0	0.000379252	0.00571061	1.81102	1000	1033	1000	1033	1000	1033
3594	-0.00421872	-0.0636274	-35.5832	0	0	0	0.000383307	0.00572913	1.81643	1000	1033	1000	1033	1000	1033
3604	-0.00432292	-0.0639276	-35.7312	0	0	0	0.000393124	0.00575656	1.82409	1000	1033	1000	1033	1000	1033
3614	-0.00448113	-0.0641785	-35.9446	0	0	0	0.000407996	0.00578134	1.83497	1000	1033	1000	1033	1000	1033
3624	-0.00452177	-0.0642661	-36.1029	0	0	0	0.000411674	0.00578759	1.84305	1000	1033	1000	1033	1000	1034
3635	-0.00457477	-0.0644048	-36.2528	0	0	0	0.000414483	0.00579873	1.85069	1000	1034	1000	1033	1000	1034
3645	-0.00469156	-0.0645783	-36.4502	0	0	0	0.000425591	0.00581494	1.86076	1000	1034	1000	1034	1000	1034
3655	-0.0048465	-0.064864	-36.6952	0	0	0	0.000441628	0.00584068	1.87325	1000	1034	1000	1034	1000	1034
3665	-0.0049245	-0.0650464	-36.9254	0	0	0	0.000448403	0.0058554	1.88499	1000	1034	1000	1034	1000	1034
3675	-0.0049947	-0.0652339	-37.1103	0	0	0	0.000453258	0.0058714	1.89442	1000	1034	1000	1034	1000	1034
3685	-0.00505152	-0.0653935	-37.2434	0	0	0	0.000458379	0.00588729	1.90121	1000	1034	1000	1034	1000	1035
3695	-0.00511046	-0.0655203	-37.3662	0	0	0	0.000464067	0.00589931	1.90747	1000	1035	1000	1035	1000	1035
3705	-0.00523398	-0.0656826	-37.5209	0	0	0	0.000476391	0.00591319	1.91536	1000	1035	1000	1035	1000	1035
3715	-0.00526787	-0.0658867	-37.6642	0	0	0	0.000479026	0.00593348	1.92267	1000	1035	1000	1035	1000	1035
3725	-0.00537093	-0.0660904	-37.8615	0	0	0	0.000488696	0.00595009	1.93273	1000	1035	1000	1035	1000	1035
3735	-0.00538704	-0.0662747	-37.9788	0	0	0	0.000488381	0.00596775	1.93871	1000	1035	1000	1035	1000	1035
3745	-0.00540854	-0.0665289	-38.087	0	0	0	0.000489517	0.00599277	1.94423	1000	1035	1000	1035	1000	1035
3755	-0.00541623	-0.0666281	-38.1381	0	0	0	0.000491058	0.00600221	1.94684	1000	1035	1000	1035	1000	1035
3766	-0.00540032	-0.0667715	-38.2318	0	0	0	0.000489777	0.00601256	1.95162	1000	1035	1000	1035	1000	1036
3776	-0.00538004	-0.0669864	-38.3182	0	0	0	0.000487713	0.00603221	1.95603	1000	1036	1000	1035	1000	1036
3786	-0.00544085	-0.0672846	-38.4349	0	0	0	0.000494624	0.00606059	1.96198	1000	1036	1000	1036	1000	1036
3796	-0.00548088	-0.0674339	-38.5054	0	0	0	0.000499094	0.00607248	1.96557	1000	1036	1000	1036	1000	1036
3806	-0.00555498	-0.0676483	-38.5712	0	0	0	0.000507448	0.00609275	1.96893	1000	1036	1000	1036	1000	1036
3816	-0.00552482	-0.0677584	-38.6206	0	0	0	0.000503335	0.00610215	1.97145	1000	1036	1000	1036	1000	1036
3826	-0.00555147	-0.0679375	-38.6793	0	0	0	0.000504476	0.00611837	1.97444	1000	1036	1000	1036	1000	1036
3836	-0.00557678	-0.068095	-38.7354	0	0	0	0.00050664	0.0061332	1.9773	1000	1036	1000	1036	1000	1036
3846	-0.00561574	-0.0681909	-38.7895	0	0	0	0.000510878	0.00614028	1.98006	1000	1036	1000	1036	1000	1036
3856	-0.00560748	-0.0682978	-38.8517	0	0	0	0.000511329	0.00614707	1.98323	1000	1036	1000	1036	1000	1036
3866	-0.00559081	-0.0684265	-38.9028	0	0	0	0.000508656	0.0061589	1.98584	1000	1036	1000	1036	1000	1036
3876	-0.00554807	-0.068561	-38.9436	0	0	0	0.000504024	0.00617206	1.98792	1000	1036	1000	1036	1000	1036
3886	-0.00550969	-0.0686867	-38.9939	0	0	0	0.000499285	0.00618469	1.99049	1000	1036	1000	1036	1000	1036
3896	-0.00549487	-0.0689244	-39.054	0	0	0	0.000498626	0.00620833	1.99355	1000	1036	1000	1036	1000	1036
3906	-0.00546303	-0.0690751	-39.1047	0	0	0	0.000495466	0.00622169	1.99614	1000	1036	1000	1036	1000	1036
3917	-0.00543514	-0.0692553	-39.156	0	0	0	0.000493132	0.00623823	1.99875	1000	1036	1000	1036	1000	1036
3927	-0.00538426	-0.0693633	-39.2079	0	0	0	0.000488055	0.00624676	2.0014	1000	1036	1000	1036	1000	1036
3937	-0.00542909	-0.0694608	-39.2504	0	0	0	0.000492637	0.0062547	2.00356	1000	1036	1000	1036	1000	1037
3947	-0.00538311	-0.0696501	-39.3036	0	0	0	0.000488841	0.00627336	2.00628	1000	1036	1000	1036	1000	1037
3957	-0.00529186	-0.0698178	-39.3682	0	0	0	0.000479364	0.00628857	2.00957	1000	1036	1000	1036	1000	1037
3967	-0.00529878	-0.0699742	-39.4402	0	0	0	0.000482298	0.00630127	2.01324	1000	1037	1000	1036	1000	1037
3977	-0.00529775	-0.0700401	-39.4791	0	0	0	0.000482239	0.00630692	2.01523	1000	1037	1000	1036	1000	1037
3987	-0.00524028	-0.0701397	-39.5357	0	0	0	0.000476476	0.00631533	2.01812	1000	1037	1000	1037	1000	1037
3997	-0.00522033	-0.0703489	-39.6103	0	0	0	0.000474782	0.00633529	2.02192	1000	1037	1000	1037	1000	1037
4007	-0.0051786	-0.0703961	-39.6507	0	0	0	0.00047033	0.00633967	2.02398	1000	1037	1000	1037	1000	1037
4017	-0.00516769	-0.0705726	-39.727	0	0	0	0.000469155	0.00635493	2.02787	1000	1037	1000	1037	1000	1037
4027	-0.00513176	-0.0706454	-39.7683	0	0	0	0.00046646	0.00636251	2.02998	1000	1037	1000	1037	1000	1037
4037	-0.0051232	-0.0707002	-39.8159	0	0	0	0.000464968	0.00636607	2.03241	1000	1037	1000	1037	1000	1037
4047	-0.00505523	-0.0709125	-39.9058	0	0	0	0.000458313	0.00638721	2.03699	1000	1037	1000	1037	1000	1037
4058	-0.00501211	-0.0710497	-39.9662	0	0	0	0.000455224	0.00639931	2.04007	1000	1037	1000	1037	1000	1037
4068	-0.00498612	-0.0711206	-40.0085	0	0	0	0.000453241	0.00640559	2.04223	1000	1037	1000	1037	1000	1037
4078	-0.0049605	-0.0712272	-40.0693	0	0	0	0.000451829	0.00641436	2.04533	1000	1037	1000	1037	1000	1037
4088	-0.00489854	-0.07128	-40.1302	0	0	0	0.000445277	0.00641766	2.04844	1000	1037	1000	1037	1000	1037
4098	-0.00478362	-0.0714185	-40.1912	0	0	0	0.000432136	0.00643084	2.05155	1000	1037	1000	1037	1000	1037
4108	-0.00477859	-0.0714977	-40.2524	0	0	0	0.000432604	0.00643865	2.05467	1000	1037	1000	1037	1000	1037
4118	-0.00464589	-0.0716566	-40.3318	0	0	0	0.000420463	0.00645323	2.05872	1000	1037	1000	1037	1000	1038
4128	-0.00460846	-0.0717715	-40.3748	0	0	0	0.000416659	0.00646444	2.06091	1000	1037	1000	1037	1000	1038
4138	-0.00462464	-0.0717913	-40.436	0	0	0	0.000419904	0.00646465	2.06403	1000	1037	1000	1037	1000	1038
4148	-0.00461165	-0.0718312	-40.4972	0	0	0	0.000420001	0.00646612	2.06716	1000	1038	1000	1037	1000	1038
4158	-0.00456297	-0.0719052	-40.5645	0	0	0	0.000415902	0.00647235	2.07059	1000	1038	1000	1038	1000	1038
4168	-0.00449916	-0.0720357	-40.6256	0	0	0	0.000410043	0.00648713	2.0737	1000	1038	1000	1038	1000	1038
4178	-0.00446103	-0.0721375	-40.6866	0	0	0	0.000405649	0.00649769	2.07681	1000	1038	1000	1038	1000	1038
4188	-0.00438777	-0.0722214	-40.7598	0	0	0	0.000399452	0.00650405	2.08055	1000	1038	1000	1038	1000	1038
4198	-0.00431739	-0.0723132	-40.8085	0	0	0	0.000391885	0.00651175	2.08303	1000	1038	1000	1038	1000	1038
4209	-0.00429413	-0.0724936	-40.8693	0	0	0	0.000389299	0.00653104	2.08613	1000	1038	1000	1038	1000	1038
4219	-0.00431596	-0.0725611	-40.93	0	0	0	0.000394088	0.00653576	2.08923	1000	1038	1000	1038	1000	1038
4229	-0.00430824	-0.0726742	-41.0029	0	0	0	0.000394206	0.00654507	2.09294	1000	1038	1000	1038	1000	1038
4239	-0.00429482	-0.0727641	-41.0636	0	0	0	0.000391788	0.00655198	2.09604	1000	1038	1000	1038	1000	1038
4249	-0.00427766	-0.0728487	-41.112	0	0	0	0.00039043	0.00656072	2.09851	1000	1038	1000	1038	1000	1038
4259	-0.00418471	-0.0729312	-41.1726	0	0	0	0.000381204	0.00656842	2.1016	1000	1038	1000	1038	1000	1038
4269	-0.00408789	-0.0729437	-41.2331	0	0	0	0.000371551	0.00656871	2.10468	1000	1038	1000	1038	1000	1038
4279	-0.00405471	-0.0729596	-41.2755	0	0	0	0.000368465	0.00656815	2.10684	1000	1038	1000	1038	1000	1038
4289	-0.00391573	-0.0731046	-41.3662	0	0	0	0.00035541	0.00658314	2.11147	1000	1038	1000	1038	1000	1039
4299	-0.00385478	-0.0730881	-41.4266	0	0	0	0.000350102	0.00657977	2.11455	1000	1038	1000	1038	1000	1039
4309	-0.0038069	-0.0731885	-41.487	0	0	0	0.000346395	0.00658978	2.11763	1000	1038	1000	1038	1000	1039
4319	-0.00372834	-0.0732249	-41.5354	0	0	0	0.000338804	0.00659377	2.1201	1000	1039	1000	1038	1000	1039
4329	-0.00365081	-0.073332	-41.5958	0	0	0	0.000331065	0.00660398	2.12318	1000	1039	1000	1038	1000	1039
4339	-0.00363716	-0.0734024	-41.6562	0	0	0	0.000330526	0.00661025	2.12626	1000	1039	1000	1039	1000	1039
4350	-0.00354813	-0.073394	-41.7287	0	0	0	0.000322798	0.006607	2.12996	1000	1039	1000	1039	1000	1039
4360	-0.0034152	-0.07347	-41.8072	0	0	0	0.000311065	0.00661464	2.13396	1000	1039	1000	1039	1000	1039
4370	-0.00332983	-0.0734796	-41.8495	0	0	0	0.000303232	0.00661554	2.13612	1000	1039	1000	1039	1000	1039
4380	-0.00322329	-0.0734972	-41.8978	0	0	0	0.00029217	0.00661701	2.13858	1000	1039	1000	1039	1000	1039
4390	-0.00312832	-0.0735419	-41.9582	0	0	0	0.000283297	0.00662092	2.14167	1000	1039	1000	1039	1000	1039
4400	-0.00304835	-0.0736024	-42.0186	0	0	0	0.000276969	0.00662716	2.14474	1000	1039	1000	1039	1000	1039
4410	-0.0030212	-0.0736892	-42.0911	0	0	0	0.000276599	0.00663655	2.14844	1000	1039	1000	1039	1000	1039
4420	-0.00298781	-0.0737252	-42.1696	0	0	0	0.000274319	0.00663834	2.15245	1000	1039	1000	1039	1000	1039
4430	-0.00294112	-0.07376	-42.2119	0	0	0	0.000269809	0.00664026	2.1546	1000	1039	1000	1039	1000	1039
4440	-0.00296703	-0.0738382	-42.2724	0	0	0	0.00027219	0.00664841	2.15769	1000	1039	1000	1039	1000	1039
4450	-0.00288867	-0.0738604	-42.3328	0	0	0	0.000265388	0.00665049	2.16077	1000	1039	1000	1039	1000	1039
4460	-0.00277733	-0.073866	-42.3812	0	0	0	0.000253932	0.00665055	2.16324	1000	1039	1000	1039	1000	1039
4470	-0.00260644	-0.0739408	-42.4537	0	0	0	0.000235846	0.00665818	2.16693	1000	1039	1000	1039	1000	1040
4480	-0.00255655	-0.074024	-42.5142	0	0	0	0.000233402	0.00666703	2.17002	1000	1039	1000	1039	1000	1040
4491	-0.00244532	-0.0740161	-42.5747	0	0	0	0.000223237	0.00666549	2.17311	1000	1039	1000	1039	1000	1040
4501	-0.00240374	-0.0741055	-42.6533	0	0	0	0.00022047	0.00667279	2.17711	1000	1040	1000	1039	1000	1040
4511	-0.00237432	-0.0741614	-42.7138	0	0	0	0.000219257	0.00667814	2.1802	1000	1040	1000	1040	1000	1040
4521	-0.00236283	-0.0742177	-42.7561	0	0	0	0.000218387	0.00668363	2.18236	1000	1040	1000	1040	1000	1040
4531	-0.00232138	-0.0742941	-42.8165	0	0	0	0.000214333	0.00669121	2.18544	1000	1040	1000	1040	1000	1040
4541	-0.00233452	-0.0743516	-42.877	0	0	0	0.000215763	0.00669583	2.18852	1000	1040	1000	1040	1000	1040
4551	-0.00226705	-0.0743791	-42.9374	0	0	0	0.000210062	0.0066977	2.1916	1000	1040	1000	1040	1000	1040
4561	-0.00218388	-0.0744166	-42.9979	0	0	0	0.000201133	0.0067017	2.19469	1000	1040	1000	1040	1000	1040
4571	-0.0020918	-0.0744243	-43.0765	0	0	0	0.000192571	0.00670109	2.19869	1000	1040	1000	1040	1000	1040
4581	-0.00202382	-0.0744098	-43.1188	0	0	0	0.000186216	0.00669895	2.20085	1000	1040	1000	1040	1000	1040
4591	-0.00191083	-0.0744386	-43.1792	0	0	0	0.000175529	0.00670177	2.20394	1000	1040	1000	1040	1000	1040
4601	-0.00185526	-0.0744177	-43.2396	0	0	0	0.000169932	0.00669924	2.20701	1000	1040	1000	1040	1000	1040
4611	-0.00180926	-0.07448	-43.3001	0	0	0	0.000166581	0.0067054	2.2101	1000	1040	1000	1040	1000	1040
4622	-0.00173378	-0.0745855	-43.3787	0	0	0	0.000160301	0.00671777	2.21411	1000	1040	1000	1040	1000	1040
4632	-0.00165202	-0.0746629	-43.4512	0	0	0	0.000152231	0.00672406	2.21781	1000	1040	1000	1040	1000	1040
4642	-0.00163603	-0.0746508	-43.4996	0	0	0	0.000150375	0.00672167	2.22027	1000	1040	1000	1040	1000	1041
4652	-0.00156418	-0.0746125	-43.5419	0	0	0	0.000145032	0.00671578	2.22243	1000	1040	1000	1040	1000	1041
4662	-0.00144227	-0.0746603	-43.6024	0	0	0	0.000133111	0.00672243	2.22552	1000	1040	1000	1040	1000	1041
4672	-0.00134078	-0.0747332	-43.6629	0	0	0	0.000123737	0.00673065	2.2286	1000	1041	1000	1040	1000	1041
4682	-0.00120571	-0.0747557	-43.7235	0	0	0	0.000111616	0.00673277	2.23169	1000	1041	1000	1040	1000	1041
4692	-0.00106276	-0.0748191	-43.8141	0	0	0	9.7766e-05	0.00673801	2.23632	1000	1041	1000	1041	1000	1041
4702	-0.000963086	-0.0748189	-43.8625	0	0	0	8.78971e-05	0.00673759	2.23878	1000	1041	1000	1041	1000	1041
4712	-0.000890678	-0.0748063	-43.9049	0	0	0	8.1986e-05	0.00673525	2.24095	1000	1041	1000	1041	1000	1041
4722	-0.000853474	-0.0748801	-43.9654	0	0	0	7.98665e-05	0.00674265	2.24403	1000	1041	1000	1041	1000	1041
4732	-0.000747331	-0.0749595	-44.0258	0	0	0	7.03788e-05	0.00675063	2.24711	1000	1041	1000	1041	1000	1041
4742	-0.000647519	-0.0750548	-44.1044	0	0	0	6.04552e-05	0.00675986	2.25112	1000	1041	1000	1041	1000	1041
4752	-0.000546652	-0.0750442	-44.177	0	0	0	5.1803e-05	0.00675788	2.25482	1000	1041	1000	1041	1000	1041
4763	-0.000472836	-0.0750938	-44.2374	0	0	0	4.6825e-05	0.00676251	2.2579	1000	1041	1000	1041	1000	1041
4773	-0.000387979	-0.0752181	-44.2858	0	0	0	3.97424e-05	0.00677709	2.26037	1000	1041	1000	1041	1000	1041
4783	-0.000261927	-0.0752162	-44.3462	0	0	0	2.63779e-05	0.00677598	2.26345	1000	1041	1000	1041	1000	1041
4793	-0.000201846	-0.0752724	-44.3946	0	0	0	2.01301e-05	0.00677982	2.26592	1000	1041	1000	1041	1000	1041
4803	-0.000136377	-0.0753294	-44.4553	0	0	0	1.54594e-05	0.00678476	2.26902	1000	1041	1000	1041	1000	1041
4813	-0.000114484	-0.0753646	-44.5161	0	0	0	1.4615e-05	0.00678783	2.27212	1000	1041	1000	1041	1000	1041
4823	-5.10564e-05	-0.0754014	-44.5768	0	0	0	9.10957e-06	0.00679017	2.27522	1000	1041	1000	1041	1000	1042
4833	6.66027e-05	-0.0755085	-44.6679	0	0	0	-3.09031e-06	0.00679967	2.27987	1000	1041	1000	1041	1000	1042
4843	0.000109677	-0.0755291	-44.7104	0	0	0	-7.59045e-06	0.00680201	2.28203	1000	1041	1000	1041	1000	1042
4853	0.000264068	-0.0754851	-44.7894	0	0	0	-2.13457e-05	0.00679631	2.28606	1000	1042	1000	1041	1000	1042
4863	0.000359462	-0.0754471	-44.8319	0	0	0	-3.05014e-05	0.00679247	2.28823	1000	1042	1000	1042	1000	1042
4873	0.000449719	-0.0754381	-44.8805	0	0	0	-3.86541e-05	0.0067914	2.29071	1000	1042	1000	1042	1000	1042
4883	0.000559357	-0.0754213	-44.9535	0	0	0	-4.77258e-05	0.00678993	2.29443	1000	1042	1000	1042	1000	1042
4894	0.000605539	-0.0754166	-45.0142	0	0	0	-5.07973e-05	0.00679004	2.29753	1000	1042	1000	1042	1000	1042
4904	0.000694299	-0.07538	-45.0749	0	0	0	-5.90086e-05	0.0067864	2.30062	1000	1042	1000	1042	1000	1042
4914	0.000754551	-0.0754847	-45.1539	0	0	0	-6.34217e-05	0.00679783	2.30465	1000	1042	1000	1042	1000	1042
4924	0.000870286	-0.0755269	-45.2146	0	0	0	-7.57179e-05	0.00680222	2.30774	1000	1042	1000	1042	1000	1042
4934	0.000856394	-0.0754899	-45.2571	0	0	0	-7.44109e-05	0.00679716	2.30991	1000	1042	1000	1042	1000	1042
4944	0.000897162	-0.0754865	-45.3056	0	0	0	-7.72335e-05	0.00679547	2.31239	1000	1042	1000	1042	1000	1042
4954	0.00102309	-0.0754319	-45.3785	0	0	0	-8.87213e-05	0.00678973	2.3161	1000	1042	1000	1042	1000	1042
4964	0.00105787	-0.0754444	-45.4392	0	0	0	-9.11125e-05	0.00679285	2.3192	1000	1042	1000	1042	1000	1042
4974	0.00121	-0.0754969	-45.5179	0	0	0	-0.000105022	0.00679924	2.32321	1000	1042	1000	1042	1000	1042
4984	0.0012382	-0.0754931	-45.5786	0	0	0	-0.000108396	0.00679948	2.32631	1000	1042	1000	1042	1000	1042
4994	0.00128585	-0.0755475	-45.6391	0	0	0	-0.000111386	0.00680368	2.32939	1000	1042	1000	1042	1000	1043
5004	0.0013864	-0.07555	-45.6815	0	0	0	-0.000120886	0.00680395	2.33156	1000	1042	1000	1042	1000	1043
5014	0.00145037	-0.0756403	-45.7421	0	0	0	-0.000128389	0.00681324	2.33465	1000	1042	1000	1042	1000	1043
5024	0.00153105	-0.0757093	-45.8027	0	0	0	-0.000135688	0.0068199	2.33773	1000	1043	1000	1042	1000	1043
5035	0.00164147	-0.0757321	-45.8815	0	0	0	-0.000146349	0.00681991	2.34176	1000	1043	1000	1042	1000	1043
5045	0.00177473	-0.0757033	-45.9421	0	0	0	-0.000158971	0.00681611	2.34485	1000	1043	1000	1043	1000	1043
5055	0.00188902	-0.0756553	-46.0026	0	0	0	-0.000168793	0.00681009	2.34793	1000	1043	1000	1043	1000	1043
5065	0.00200315	-0.0756645	-46.045	0	0	0	-0.000179406	0.00681198	2.35009	1000	1043	1000	1043	1000	1043
5075	0.0021244	-0.0756376	-46.1055	0	0	0	-0.000190576	0.00681053	2.35318	1000	1043	1000	1043	1000	1043
5085	0.00226429	-0.0755526	-46.166	0	0	0	-0.000203598	0.00680126	2.35627	1000	1043	1000	1043	1000	1043
5095	0.00237743	-0.0755254	-46.2266	0	0	0	-0.000213608	0.00679786	2.35935	1000	1043	1000	1043	1000	1043
5105	0.00243972	-0.0755577	-46.2872	0	0	0	-0.000217601	0.00680269	2.36245	1000	1043	1000	1043	1000	1043
5115	0.00254333	-0.0756013	-46.3781	0	0	0	-0.000226012	0.0068082	2.36708	1000	1043	1000	1043	1000	1043
5125	0.00258027	-0.0756362	-46.4265	0	0	0	-0.000229331	0.00681123	2.36955	1000	1043	1000	1043	1000	1043
5135	0.00266079	-0.0756738	-46.4871	0	0	0	-0.000237512	0.00681538	2.37264	1000	1043	1000	1043	1000	1043
5145	0.00273273	-0.0756814	-46.5294	0	0	0	-0.000243799	0.00681535	2.3748	1000	1043	1000	1043	1000	1043
5155	0.00287618	-0.075629	-46.6082	0	0	0	-0.000257264	0.00680959	2.37882	1000	1043	1000	1043	1000	1043
5165	0.00298625	-0.0755533	-46.6809	0	0	0	-0.000266921	0.00680122	2.38252	1000	1043	1000	1043	1000	1044
5176	0.00307645	-0.0755541	-46.7414	0	0	0	-0.000274008	0.00680204	2.38561	1000	1043	1000	1043	1000	1044
5186	0.00310877	-0.0755488	-46.7898	0	0	0	-0.000276671	0.00680272	2.38808	1000	1043	1000	1043	1000	1044
5196	0.00316488	-0.0754846	-46.8504	0	0	0	-0.000281183	0.00679503	2.39117	1000	1043	1000	1043	1000	1044
5206	0.00316709	-0.0755144	-46.8928	0	0	0	-0.000280519	0.00679903	2.39333	1000	1044	1000	1043	1000	1044
5216	0.00321739	-0.0755247	-46.9534	0	0	0	-0.000284029	0.00680047	2.39643	1000	1044	1000	1044	1000	1044
5226	0.00330251	-0.0756088	-47.0321	0	0	0	-0.000294122	0.00680945	2.40044	1000	1044	1000	1044	1000	1044
5236	0.00341153	-0.0756811	-47.1048	0	0	0	-0.000306197	0.00681674	2.40415	1000	1044	1000	1044	1000	1044
5246	0.0034212	-0.0756781	-47.1533	0	0	0	-0.000305944	0.00681552	2.40662	1000	1044	1000	1044	1000	1044
5256	0.00350071	-0.0756864	-47.2139	0	0	0	-0.00031136	0.00681634	2.40971	1000	1044	1000	1044	1000	1044
5266	0.0036147	-0.0756342	-47.2563	0	0	0	-0.000322606	0.00681085	2.41187	1000	1044	1000	1044	1000	1044
5276	0.00375391	-0.0756323	-47.3169	0	0	0	-0.000336752	0.00680975	2.41496	1000	1044	1000	1044	1000	1044
5286	0.00382433	-0.0755716	-47.4077	0	0	0	-0.000341727	0.00680408	2.41959	1000	1044	1000	1044	1000	1044
5296	0.00388034	-0.0756016	-47.4562	0	0	0	-0.00034579	0.00680709	2.42206	1000	1044	1000	1044	1000	1044
5306	0.00393811	-0.0755689	-47.5167	0	0	0	-0.000351322	0.00680331	2.42515	1000	1044	1000	1044	1000	1044
5317	0.00396544	-0.0755648	-47.5774	0	0	0	-0.000353449	0.00680356	2.42825	1000	1044	1000	1044	1000	1044
5327	0.00401314	-0.0755837	-47.6198	0	0	0	-0.000357679	0.00680542	2.43041	1000	1044	1000	1044	1000	1044
5337	0.00406531	-0.075604	-47.7105	0	0	0	-0.000363012	0.00680702	2.43503	1000	1044	1000	1044	1000	1044
5347	0.00410665	-0.0756258	-47.771	0	0	0	-0.000365395	0.00681063	2.43812	1000	1044	1000	1044	1000	1045
5357	0.00417803	-0.0756299	-47.8315	0	0	0	-0.000371559	0.00681199	2.4412	1000	1044	1000	1044	1000	1045
5367	0.00428858	-0.0755338	-47.8921	0	0	0	-0.000383414	0.006801	2.44429	1000	1044	1000	1044	1000	1045
5377	0.00429122	-0.0755621	-47.9405	0	0	0	-0.000382687	0.00680323	2.44676	1000	1045	1000	1044	1000	1045
5387	0.0043124	-0.0755574	-48.0011	0	0	0	-0.000382918	0.00680268	2.44986	1000	1045	1000	1044	1000	1045
5397	0.00435358	-0.0755196	-48.0435	0	0	0	-0.000387193	0.00680008	2.45202	1000	1045	1000	1045	1000	1045
5407	0.00441011	-0.0755598	-48.1221	0	0	0	-0.000392701	0.00680361	2.45603	1000	1045	1000	1045	1000	1045
5417	0.00450194	-0.075579	-48.1827	0	0	0	-0.000402831	0.00680738	2.45911	1000	1045	1000	1045	1000	1045
5427	0.00450236	-0.0756543	-48.2613	0	0	0	-0.000401672	0.00681341	2.46312	1000	1045	1000	1045	1000	1045
5437	0.004545	-0.0757019	-48.3218	0	0	0	-0.000405908	0.00681773	2.4662	1000	1045	1000	1045	1000	1045
5448	0.00462403	-0.0756719	-48.3822	0	0	0	-0.00041368	0.00681378	2.46929	1000	1045	1000	1045	1000	1045
5458	0.00471282	-0.075619	-48.4245	0	0	0	-0.000421822	0.00680845	2.47145	1000	1045	1000	1045	1000	1045
5468	0.00482067	-0.0755845	-48.485	0	0	0	-0.00043329	0.00680529	2.47453	1000	1045	1000	1045	1000	1045
5478	0.00488562	-0.0755584	-48.5456	0	0	0	-0.000438396	0.00680242	2.47762	1000	1045	1000	1045	1000	1045
5488	0.00500956	-0.0755572	-48.606	0	0	0	-0.000449537	0.00680251	2.4807	1000	1045	1000	1045	1000	1045
5498	0.00505806	-0.0755824	-48.6665	0	0	0	-0.000453324	0.00680682	2.48379	1000	1045	1000	1045	1000	1045
5508	0.00517186	-0.0755348	-48.7572	0	0	0	-0.000463253	0.00680094	2.48842	1000	1045	1000	1045	1000	1045
5518	0.00515965	-0.0755207	-48.8056	0	0	0	-0.000460805	0.00679812	2.49088	1000	1045	1000	1045	1000	1045
5528	0.00519539	-0.075566	-48.848	0	0	0	-0.000464084	0.00680348	2.49305	1000	1045	1000	1045	1000	1046
5538	0.00526967	-0.0756564	-48.9084	0	0	0	-0.00047175	0.00681442	2.49613	1000	1045	1000	1045	1000	1046
5548	0.00532703	-0.0756561	-48.9689	0	0	0	-0.000477992	0.00681423	2.49921	1000	1045	1000	1045	1000	1046
5558	0.00540554	-0.0755595	-49.0294	0	0	0	-0.000484235	0.00680279	2.5023	1000	1046	1000	1045	1000	1046
5568	0.00548431	-0.0755057	-49.108	0	0	0	-0.000490843	0.00679733	2.5063	1000	1046	1000	1046	1000	1046
5578	0.00558585	-0.0753847	-49.1806	0	0	0	-0.000500479	0.00678483	2.51001	1000	1046	1000	1046	1000	1046
5589	0.00566597	-0.0753042	-49.229	0	0	0	-0.000508077	0.00677673	2.51248	1000	1046	1000	1046	1000	1046
5599	0.00565496	-0.0753213	-49.2714	0	0	0	-0.000506375	0.00677877	2.51464	1000	1046	1000	1046	1000	1046
5609	0.00578014	-0.0753421	-49.3319	0	0	0	-0.000518402	0.00678361	2.51772	1000	1046	1000	1046	1000	1046
5619	0.00582618	-0.0753595	-49.3924	0	0	0	-0.000522891	0.00678728	2.52081	1000	1046	1000	1046	1000	1046
5629	0.00590083	-0.0754824	-49.4711	0	0	0	-0.000529052	0.00679963	2.52482	1000	1046	1000	1046	1000	1046
5639	0.00596653	-0.0755098	-49.5436	0	0	0	-0.000534859	0.00680027	2.52852	1000	1046	1000	1046	1000	1046
5649	0.00604124	-0.0755072	-49.592	0	0	0	-0.000542465	0.00680046	2.53099	1000	1046	1000	1046	1000	1046
5659	0.00614437	-0.0754294	-49.6525	0	0	0	-0.000552405	0.00679239	2.53407	1000	1046	1000	1046	1000	1046
5669	0.00621917	-0.0754338	-49.7251	0	0	0	-0.000557482	0.0067917	2.53778	1000	1046	1000	1046	1000	1046
5679	0.00626176	-0.0754131	-49.7735	0	0	0	-0.000560627	0.00679106	2.54025	1000	1046	1000	1046	1000	1046
5689	0.00624598	-0.0754112	-49.8159	0	0	0	-0.000558142	0.0067908	2.54241	1000	1046	1000	1046	1000	1046
5699	0.0062929	-0.0754612	-49.8764	0	0	0	-0.000562014	0.00679689	2.54549	1000	1046	1000	1046	1000	1047
5709	0.00641924	-0.0753597	-49.9671	0	0	0	-0.000576335	0.00678312	2.55012	1000	1046	1000	1046	1000	1047
5719	0.00647557	-0.0754171	-50.0276	0	0	0	-0.00058189	0.00679047	2.55321	1000	1046	1000	1046	1000	1047
5730	0.00648878	-0.0754195	-50.0761	0	0	0	-0.000581365	0.00679132	2.55568	1000	1047	1000	1046	1000	1047
5740	0.00655264	-0.0754803	-50.1487	0	0	0	-0.000587203	0.00679766	2.55938	1000	1047	1000	1047	1000	1047
5750	0.0066165	-0.0754614	-50.2092	0	0	0	-0.000593027	0.0067957	2.56247	1000	1047	1000	1047	1000	1047
5760	0.00668678	-0.0754172	-50.2576	0	0	0	-0.000600026	0.0067907	2.56493	1000	1047	1000	1047	1000	1047
5770	0.00671744	-0.0753731	-50.2999	0	0	0	-0.000602813	0.00678579	2.56709	1000	1047	1000	1047	1000	1047
5780	0.00676572	-0.0753826	-50.3604	0	0	0	-0.000606076	0.0067881	2.57018	1000	1047	1000	1047	1000	1047
5790	0.00686372	-0.0753499	-50.4511	0	0	0	-0.000615444	0.00678504	2.5748	1000	1047	1000	1047	1000	1047
5800	0.00685569	-0.0753839	-50.5116	0	0	0	-0.000613064	0.00678726	2.57789	1000	1047	1000	1047	1000	1047
5810	0.00677612	-0.07537	-50.56	0	0	0	-0.000604139	0.00678726	2.58035	1000	1047	1000	1047	1000	1047
5820	0.00681552	-0.0754079	-50.6023	0	0	0	-0.000607386	0.00679106	2.58251	1000	1047	1000	1047	1000	1047
5830	0.00690363	-0.0754161	-50.6931	0	0	0	-0.000618321	0.00679088	2.58714	1000	1047	1000	1047	1000	1047
5840	0.00697469	-0.0754685	-50.7535	0	0	0	-0.000627393	0.00679581	2.59023	1000	1047	1000	1047	1000	1047
5850	0.007044	-0.0754378	-50.8141	0	0	0	-0.000633088	0.0067929	2.59331	1000	1047	1000	1047	1000	1047
5861	0.00707651	-0.0753644	-50.8624	0	0	0	-0.000634765	0.00678598	2.59578	1000	1047	1000	1047	1000	1047
5871	0.00709889	-0.0753723	-50.9229	0	0	0	-0.000635326	0.00678577	2.59886	1000	1047	1000	1047	1000	1047
5881	0.00708578	-0.0753942	-50.9955	0	0	0	-0.000632798	0.00679046	2.60257	1000	1047	1000	1047	1000	1048
5891	0.00710467	-0.0753326	-51.056	0	0	0	-0.00063383	0.00678338	2.60565	1000	1047	1000	1047	1000	1048
5901	0.00720366	-0.0753138	-51.1165	0	0	0	-0.000645555	0.00678007	2.60874	1000	1047	1000	1047	1000	1048
5911	0.00727329	-0.0752628	-51.1649	0	0	0	-0.000653784	0.00677514	2.61121	1000	1048	1000	1047	1000	1048
5921	0.0072023	-0.075287	-51.2255	0	0	0	-0.000645145	0.0067777	2.6143	1000	1048	1000	1048	1000	1048
5931	0.0072678	-0.0753688	-51.2981	0	0	0	-0.000649766	0.00678827	2.618	1000	1048	1000	1048	1000	1048
5941	0.00726782	-0.0753858	-51.3767	0	0	0	-0.000650227	0.00678874	2.62201	1000	1048	1000	1048	1000	1048
5951	0.00732254	-0.075386	-51.4191	0	0	0	-0.000656225	0.00678916	2.62417	1000	1048	1000	1048	1000	1048
5961	0.00739397	-0.0753788	-51.4675	0	0	0	-0.000664022	0.00678842	2.62664	1000	1048	1000	1048	1000	1048
5971	0.00751192	-0.075304	-51.5402	0	0	0	-0.000676049	0.00678011	2.63035	1000	1048	1000	1048	1000	1048
5981	0.00750971	-0.0752634	-51.6007	0	0	0	-0.000673528	0.00677548	2.63343	1000	1048	1000	1048	1000	1048
5991	0.00756065	-0.0752223	-51.6793	0	0	0	-0.000676944	0.00677213	2.63744	1000	1048	1000	1048	1000	1048
6002	0.0076158	-0.0752546	-51.7218	0	0	0	-0.00068247	0.00677577	2.63961	1000	1048	1000	1048	1000	1048
6012	0.00763495	-0.0752262	-51.7822	0	0	0	-0.00068475	0.00677349	2.64269	1000	1048	1000	1048	1000	1048
6022	0.00765689	-0.0752152	-51.8306	0	0	0	-0.000686699	0.00677175	2.64516	1000	1048	1000	1048	1000	1048
6032	0.00771543	-0.0751706	-51.9033	0	0	0	-0.000692014	0.00676654	2.64886	1000	1048	1000	1048	1000	1048
6042	0.00773794	-0.0751298	-51.9638	0	0	0	-0.000693535	0.00676226	2.65195	1000	1048	1000	1048	1000	1048
6052	0.00787892	-0.0750578	-52.0426	0	0	0	-0.000708744	0.0067556	2.65597	1000	1048	1000	1048	1000	1049
6062	0.00788879	-0.0750408	-52.0911	0	0	0	-0.000708739	0.00675635	2.65845	1000	1048	1000	1048	1000	1049
6072	0.00795097	-0.075025	-52.1518	0	0	0	-0.000712715	0.00675635	2.66154	1000	1048	1000	1048	1000	1049
6082	0.00796223	-0.07504	-52.1943	0	0	0	-0.000713983	0.00675791	2.66371	1000	1049	1000	1048	1000	1049
6092	0.00792457	-0.0750068	-52.2733	0	0	0	-0.000709221	0.00675442	2.66774	1000	1049	1000	1049	1000	1049
6102	0.00795592	-0.0749893	-52.3462	0	0	0	-0.000710757	0.00675176	2.67146	1000	1049	1000	1049	1000	1049
6112	0.00796174	-0.0749726	-52.3948	0	0	0	-0.000712332	0.00674916	2.67394	1000	1049	1000	1049	1000	1049
6122	0.00803588	-0.0750195	-52.4556	0	0	0	-0.00072107	0.00675561	2.67704	1000	1049	1000	1049	1000	1049
6132	0.00808857	-0.0749865	-52.4981	0	0	0	-0.000727162	0.00675204	2.6792	1000	1049	1000	1049	1000	1049
6142	0.00820036	-0.0749835	-52.5771	0	0	0	-0.000738516	0.00675057	2.68323	1000	1049	1000	1049	1000	1049
6153	0.0082041	-0.0749885	-52.6379	0	0	0	-0.000736777	0.00675228	2.68634	1000	1049	1000	1049	1000	1049
6163	0.00823515	-0.0749331	-52.7107	0	0	0	-0.000737656	0.00674785	2.69005	1000	1049	1000	1049	1000	1049
6173	0.00820762	-0.0748506	-52.7593	0	0	0	-0.000734541	0.00673763	2.69252	1000	1049	1000	1049	1000	1049
6183	0.00817333	-0.0748346	-52.82	0	0	0	-0.000729384	0.00673608	2.69562	1000	1049	1000	1049	1000	1049
6193	0.00815981	-0.0748518	-52.8807	0	0	0	-0.000729016	0.0067393	2.69872	1000	1049	1000	1049	1000	1049
6203	0.00819589	-0.0748029	-52.9232	0	0	0	-0.000733362	0.00673525	2.70089	1000	1049	1000	1049	1000	1049
6213	0.00817963	-0.0747708	-53.002	0	0	0	-0.000731795	0.00673129	2.7049	1000	1049	1000	1049	1000	1049
6223	0.00818176	-0.0747963	-53.0749	0	0	0	-0.000732312	0.00673352	2.70862	1000	1049	1000	1049	1000	1050
6233	0.00820414	-0.0748372	-53.1356	0	0	0	-0.000735182	0.00673898	2.71172	1000	1049	1000	1049	1000	1050
