Time	Roll	Pitch	Yaw	ForceX	ForceY	ForceZ	TorqueRoll	TorquePitch	TorqueYaw	PWM0	PWM1	PWM2	PWM3	PWM4	PWM5	
60	0	1	2	3	4	5	6	7	8	9	10	11	12	13	14
61	0	1	0	3	4	5	6	7	8	9	10	11	12	13	14
71	0.203114	0.0690814	0	3	4	5	6	7	8	9	10	11	12	13	14
71	0.203114	0.0690814	0	0	4	5	6	7	8	9	10	11	12	13	14
71	0.203114	0.0690814	0	0	4	0.551199	6	7	8	9	10	11	12	13	14
71	0.203114	0.0690814	0	0	4	0.551199	6	-0.0165988	8	9	10	11	12	13	14
71	0.203114	0.0690814	0	0	4	0.551199	6	-0.0165988	8	1488	10	11	12	13	14
71	0.203114	0.0690814	0	0	4	0.551199	6	-0.0165988	8	1488	10	1489	12	13	14
71	0.203114	0.0690814	0	0	4	0.551199	6	-0.0165988	8	1488	10	1489	12	1490	14
81	0.203087	0.0690814	0	0	4	0.551199	6	-0.0165988	8	1488	10	1489	12	1490	14
81	0.203087	0.0690814	1.23005	0	4	0.551199	6	-0.0165988	8	1488	10	1489	12	1490	14
81	0.203087	0.0690814	1.23005	0	0	0.551199	6	-0.0165988	8	1488	10	1489	12	1490	14
81	0.203087	0.0690814	1.23005	0	0	0.551199	-0.0487649	-0.0165988	8	1488	10	1489	12	1490	14
81	0.203087	0.0690814	1.23005	0	0	0.551199	-0.0487649	-0.0165988	-0.167319	1488	10	1489	12	1490	14
81	0.203087	0.0690814	1.23005	0	0	0.551199	-0.0487649	-0.0165988	-0.167319	1488	1482	1489	12	1490	14
81	0.203087	0.0690814	1.23005	0	0	0.551199	-0.0487649	-0.0165988	-0.167319	1488	1482	1489	1484	1490	14
81	0.203087	0.0690814	1.23005	0	0	0.551199	-0.0487649	-0.0165988	-0.167319	1488	1482	1489	1484	1490	1483
91	0.203112	0.0691574	1.23005	0	0	0.551199	-0.0487649	-0.0165988	-0.167319	1488	1482	1489	1484	1490	1483
91	0.203112	0.0691574	1.23005	0	0	0.551199	-0.0487649	-0.0165988	-0.167319	1488	1482	1489	1484	1490	1483
91	0.203112	0.0691574	1.23005	0	0	0.551197	-0.0487649	-0.0165988	-0.167319	1488	1482	1489	1484	1490	1483
91	0.203112	0.0691574	1.23005	0	0	0.551197	-0.0487649	-0.0166192	-0.167319	1488	1482	1489	1484	1490	1483
91	0.203112	0.0691574	1.23005	0	0	0.551197	-0.0487649	-0.0166192	-0.167319	1488	1482	1489	1484	1490	1483
91	0.203112	0.0691574	1.23005	0	0	0.551197	-0.0487649	-0.0166192	-0.167319	1488	1482	1489	1484	1490	1483
91	0.203112	0.0691574	1.23005	0	0	0.551197	-0.0487649	-0.0166192	-0.167319	1488	1482	1489	1484	1490	1483
101	0.203092	0.0692172	1.22981	0	0	0.551196	-0.0487664	-0.0166329	-0.167286	1488	1482	1489	1484	1490	1483
111	0.203085	0.0692624	1.22973	0	0	0.551195	-0.0487645	-0.0166441	-0.167275	1488	1482	1489	1484	1490	1483
121	0.203092	0.069306	1.22973	0	0	0.551193	-0.0487645	-0.016653	-0.167275	1488	1482	1489	1484	1490	1483
131	0.203141	0.0693761	1.22963	0	0	0.55119	-0.0487764	-0.0166676	-0.16726	1488	1482	1489	1484	1490	1483
141	0.203074	0.069375	1.22965	0	0	0.55119	-0.0487617	-0.016669	-0.167263	1488	1482	1489	1484	1490	1483
151	0.20303	0.0693422	1.22962	0	0	0.551189	-0.0487525	-0.0166624	-0.167258	1488	1482	1489	1484	1490	1483
161	0.202948	0.0692959	1.22962	0	0	0.551187	-0.0487332	-0.0166495	-0.167258	1488	1482	1489	1484	1490	1483
171	0.202896	0.0693089	1.22973	0	0	0.551186	-0.0487186	-0.0166527	-0.167275	1488	1482	1489	1484	1490	1483
181	0.202843	0.0693245	1.22989	0	0	0.551184	-0.0487048	-0.0166583	-0.167297	1488	1482	1489	1484	1490	1483
191	0.202849	0.0693525	1.23008	0	0	0.551184	-0.0487079	-0.0166645	-0.167323	1488	1482	1489	1484	1490	1483
201	0.202785	0.0694298	1.23045	0	0	0.551184	-0.0486899	-0.0166834	-0.167373	1488	1482	1489	1484	1490	1483
212	0.202768	0.0694285	1.23063	0	0	0.551183	-0.0486853	-0.016683	-0.167399	1488	1482	1489	1484	1490	1483
222	0.202744	0.0694481	1.23091	0	0	0.551181	-0.0486778	-0.0166838	-0.167435	1488	1482	1489	1484	1490	1483
232	0.202746	0.0695	1.23124	0	0	0.551179	-0.0486782	-0.016696	-0.167478	1488	1482	1489	1484	1490	1483
242	0.202579	0.0694608	1.23109	0	0	0.551179	-0.0486365	-0.0166877	-0.167459	1488	1482	1489	1484	1490	1483
252	0.202479	0.0694348	1.23099	0	0	0.551178	-0.0486129	-0.0166833	-0.167445	1488	1482	1489	1484	1490	1483
262	0.202437	0.0693823	1.23093	0	0	0.551176	-0.0486069	-0.0166693	-0.167439	1488	1482	1489	1484	1490	1483
272	0.202369	0.069357	1.23087	0	0	0.551174	-0.0485917	-0.0166625	-0.16743	1488	1482	1489	1484	1490	1483
282	0.202327	0.0693571	1.23089	0	0	0.551172	-0.0485801	-0.0166614	-0.167434	1488	1482	1489	1484	1490	1483
292	0.202251	0.0693842	1.23085	0	0	0.551171	-0.0485609	-0.0166703	-0.167427	1488	1482	1489	1484	1490	1483
302	0.202235	0.0694316	1.23085	0	0	0.55117	-0.0485565	-0.0166839	-0.167426	1488	1482	1489	1484	1490	1483
312	0.202219	0.0694705	1.23083	0	0	0.551169	-0.048554	-0.0166943	-0.167423	1488	1482	1489	1484	1490	1483
322	0.202272	0.0695815	1.231	0	0	0.551168	-0.048569	-0.0167205	-0.167448	1488	1482	1489	1484	1490	1483
332	0.202235	0.0695831	1.23119	0	0	0.551167	-0.0485595	-0.0167197	-0.167473	1488	1482	1489	1484	1490	1483
342	0.202197	0.0695354	1.23135	0	0	0.551165	-0.048551	-0.016705	-0.167495	1488	1482	1489	1484	1490	1483
352	0.202126	0.0695341	1.23166	0	0	0.551163	-0.0485355	-0.0167076	-0.167538	1488	1482	1489	1484	1490	1483
363	0.202058	0.069551	1.23195	0	0	0.551164	-0.0485172	-0.0167128	-0.167578	1488	1482	1489	1484	1490	1483
373	0.202001	0.0695445	1.23227	0	0	0.551163	-0.0485014	-0.0167109	-0.167621	1488	1482	1489	1484	1490	1483
383	0.201992	0.0695435	1.23252	0	0	0.551161	-0.0485008	-0.0167099	-0.167654	1488	1482	1489	1484	1490	1483
393	0.20192	0.0695637	1.23238	0	0	0.551161	-0.0484823	-0.0167142	-0.167634	1488	1482	1489	1484	1490	1483
403	0.201879	0.0695972	1.23222	0	0	0.551158	-0.0484713	-0.0167212	-0.167613	1488	1482	1489	1484	1490	1483
413	0.201883	0.0696411	1.23218	0	0	0.551158	-0.0484726	-0.0167314	-0.167607	1488	1482	1489	1484	1490	1483
423	0.2019	0.0696871	1.23213	0	0	0.551158	-0.048477	-0.0167433	-0.1676	1488	1482	1489	1484	1490	1483
433	0.201842	0.0696832	1.23208	0	0	0.551156	-0.0484626	-0.0167413	-0.167595	1488	1482	1489	1484	1490	1483
443	0.201698	0.069629	1.23207	0	0	0.551154	-0.0484264	-0.0167278	-0.167593	1488	1482	1489	1484	1490	1483
453	0.201608	0.0696088	1.23207	0	0	0.551152	-0.0484057	-0.0167243	-0.167593	1488	1482	1489	1484	1490	1483
463	0.201564	0.069599	1.23214	0	0	0.551152	-0.0483956	-0.0167214	-0.167602	1488	1482	1489	1484	1490	1483
473	0.201538	0.0696069	1.23221	0	0	0.55115	-0.0483927	-0.0167248	-0.16761	1488	1482	1489	1484	1490	1483
483	0.201499	0.0695953	1.23234	0	0	0.551149	-0.0483824	-0.0167203	-0.167629	1488	1482	1489	1484	1490	1483
493	0.201447	0.0696006	1.23259	0	0	0.551148	-0.0483685	-0.0167205	-0.167663	1488	1482	1489	1484	1490	1483
504	0.201419	0.0696519	1.23283	0	0	0.551147	-0.0483625	-0.0167358	-0.167695	1488	1482	1489	1484	1490	1483
514	0.201447	0.0696896	1.23314	0	0	0.551147	-0.0483699	-0.0167454	-0.167739	1488	1482	1489	1484	1490	1483
524	0.201471	0.0697374	1.23342	0	0	0.551147	-0.0483742	-0.0167558	-0.167777	1488	1482	1489	1484	1490	1483
534	0.20146	0.0697434	1.23366	0	0	0.551145	-0.0483711	-0.0167552	-0.16781	1488	1482	1489	1484	1490	1483
544	0.201344	0.0696581	1.23348	0	0	0.551144	-0.0483447	-0.0167336	-0.167785	1488	1482	1489	1484	1490	1483
554	0.201284	0.0696613	1.23338	0	0	0.551142	-0.0483329	-0.0167371	-0.167772	1488	1482	1489	1484	1490	1483
564	0.201234	0.069671	1.23328	0	0	0.551143	-0.0483201	-0.0167417	-0.167756	1488	1482	1489	1484	1490	1483
574	0.201202	0.0697035	1.2333	0	0	0.551141	-0.0483111	-0.0167505	-0.167759	1488	1482	1489	1484	1490	1483
584	0.201168	0.0696962	1.23325	0	0	0.55114	-0.0483028	-0.0167466	-0.167754	1488	1482	1489	1484	1490	1483
594	0.201152	0.0697466	1.23323	0	0	0.55114	-0.0483004	-0.0167595	-0.167751	1488	1482	1489	1484	1490	1483
604	0.201099	0.0698245	1.23325	0	0	0.551137	-0.0482846	-0.0167806	-0.167754	1488	1482	1489	1484	1490	1483
614	0.201118	0.0698544	1.23332	0	0	0.551138	-0.0482884	-0.0167861	-0.167764	1488	1482	1489	1484	1490	1483
624	0.201135	0.0699032	1.23342	0	0	0.551137	-0.0482932	-0.0167945	-0.167776	1488	1482	1489	1484	1490	1483
634	0.201109	0.0699272	1.23356	0	0	0.551135	-0.0482878	-0.0168002	-0.167795	1488	1482	1489	1484	1490	1483
644	0.200981	0.0699033	1.23388	0	0	0.551133	-0.0482567	-0.0167965	-0.167839	1488	1482	1489	1484	1490	1483
655	0.200903	0.069865	1.23402	0	0	0.551132	-0.0482374	-0.0167862	-0.167859	1488	1482	1489	1484	1490	1483
665	0.200836	0.0698295	1.23431	0	0	0.551132	-0.0482206	-0.0167764	-0.167897	1488	1482	1489	1484	1490	1483
675	0.200787	0.0698674	1.23457	0	0	0.55113	-0.0482094	-0.016787	-0.167931	1488	1482	1489	1484	1490	1483
685	0.200717	0.0698522	1.23484	0	0	0.551128	-0.0481915	-0.0167828	-0.16797	1488	1482	1489	1484	1490	1483
695	0.200661	0.0698899	1.23473	0	0	0.551127	-0.0481783	-0.0167918	-0.167957	1488	1482	1489	1484	1490	1483
705	0.200651	0.0699388	1.23461	0	0	0.551125	-0.0481779	-0.0168064	-0.167939	1488	1482	1489	1484	1490	1483
715	0.20068	0.069956	1.23453	0	0	0.551125	-0.0481855	-0.0168064	-0.167927	1488	1482	1489	1484	1490	1483
725	0.200693	0.0700526	1.23451	0	0	0.551125	-0.0481874	-0.0168294	-0.167925	1488	1482	1489	1484	1490	1483
735	0.20063	0.0700384	1.23446	0	0	0.551124	-0.0481704	-0.0168284	-0.167919	1488	1482	1489	1484	1490	1483
745	0.200545	0.0699869	1.23444	0	0	0.551122	-0.0481519	-0.0168159	-0.167914	1488	1482	1489	1484	1490	1483
755	0.200448	0.0699057	1.23449	0	0	0.55112	-0.0481281	-0.0167928	-0.167921	1488	1482	1489	1484	1490	1483
765	0.200384	0.0698801	1.23451	0	0	0.55112	-0.0481137	-0.0167858	-0.167924	1488	1482	1489	1484	1490	1483
775	0.200382	0.0698896	1.23461	0	0	0.551119	-0.0481141	-0.0167896	-0.167938	1488	1482	1489	1484	1490	1483
785	0.200288	0.0698949	1.23479	0	0	0.551117	-0.0480909	-0.0167949	-0.167963	1488	1482	1489	1484	1490	1483
796	0.200235	0.06991	1.23501	0	0	0.551116	-0.048075	-0.0167968	-0.167993	1488	1482	1489	1484	1490	1483
806	0.200262	0.0698853	1.23538	0	0	0.551115	-0.0480841	-0.0167867	-0.168043	1488	1482	1489	1484	1490	1483
816	0.200249	0.069888	1.23555	0	0	0.551115	-0.0480813	-0.0167861	-0.168066	1488	1482	1489	1484	1490	1483
826	0.200288	0.069961	1.23587	0	0	0.551114	-0.0480919	-0.0168066	-0.168108	1488	1482	1489	1484	1490	1483
836	0.200318	0.0699431	1.23597	0	0	0.551112	-0.0481015	-0.0168047	-0.168122	1488	1482	1489	1484	1490	1483
846	0.200194	0.0698869	1.2358	0	0	0.551112	-0.0480698	-0.016789	-0.168098	1488	1482	1489	1484	1490	1483
856	0.200084	0.0697955	1.23571	0	0	0.551111	-0.04804	-0.0167653	-0.168086	1488	1482	1489	1484	1490	1483
866	0.200026	0.0697927	1.23569	0	0	0.551109	-0.0480261	-0.016767	-0.168086	1488	1482	1489	1484	1490	1483
876	0.200008	0.0697683	1.23566	0	0	0.551109	-0.0480237	-0.0167619	-0.168083	1488	1482	1489	1484	1490	1483
886	0.199974	0.0697357	1.2356	0	0	0.551108	-0.048017	-0.0167511	-0.168073	1488	1482	1489	1484	1490	1483
896	0.199932	0.0697509	1.2356	0	0	0.551107	-0.048005	-0.0167569	-0.168072	1488	1482	1489	1484	1490	1483
906	0.199953	0.0697843	1.23562	0	0	0.551106	-0.0480124	-0.0167671	-0.168075	1488	1482	1489	1484	1490	1483
916	0.200008	0.0698264	1.23571	0	0	0.551107	-0.0480253	-0.0167763	-0.168088	1488	1482	1489	1484	1490	1483
927	0.20009	0.0699039	1.2359	0	0	0.551106	-0.0480463	-0.0167954	-0.168115	1488	1482	1489	1484	1490	1483
937	0.200029	0.0698784	1.2361	0	0	0.551104	-0.0480309	-0.0167885	-0.168141	1488	1482	1489	1484	1490	1483
947	0.199952	0.0698242	1.23622	0	0	0.551103	-0.0480115	-0.016775	-0.168158	1488	1482	1489	1484	1490	1483
957	0.199925	0.0698134	1.23648	0	0	0.551102	-0.0480058	-0.0167732	-0.168193	1488	1482	1489	1484	1490	1483
967	0.199879	0.0698261	1.23683	0	0	0.551102	-0.0479955	-0.0167783	-0.168242	1488	1482	1489	1484	1490	1483
977	0.19985	0.0697874	1.23717	0	0	0.551101	-0.0479874	-0.0167671	-0.168288	1488	1482	1489	1484	1490	1483
987	0.199778	0.0697534	1.2373	0	0	0.5511	-0.0479665	-0.0167556	-0.168305	1488	1482	1489	1484	1490	1483
997	0.199735	0.0697773	1.23722	0	0	0.551099	-0.0479551	-0.0167628	-0.168295	1488	1482	1489	1484	1490	1483
1007	0.199739	0.0697561	1.23713	0	0	0.551098	-0.0479581	-0.0167571	-0.168282	1488	1482	1489	1484	1490	1483
1017	0.19975	0.069808	1.23709	0	0	0.551099	-0.0479621	-0.0167704	-0.168277	1488	1482	1489	1484	1490	1483
1027	0.199835	0.0698758	1.23703	0	0	0.551097	-0.0479841	-0.0167874	-0.168267	1488	1482	1489	1484	1490	1483
1037	0.199735	0.0698526	1.23703	0	0	0.551097	-0.0479587	-0.0167829	-0.168268	1488	1482	1489	1484	1490	1483
1047	0.199712	0.0698518	1.23703	0	0	0.551095	-0.0479536	-0.0167845	-0.168268	1488	1482	1489	1484	1490	1483
1057	0.19963	0.0698326	1.23704	0	0	0.551095	-0.0479341	-0.0167804	-0.168269	1488	1482	1489	1484	1490	1483
1067	0.19963	0.0698268	1.23711	0	0	0.551095	-0.0479352	-0.0167784	-0.168278	1488	1482	1489	1484	1490	1483
1078	0.199582	0.0697982	1.23722	0	0	0.551094	-0.0479227	-0.0167695	-0.168294	1488	1482	1489	1484	1490	1483
1088	0.199513	0.06977	1.23739	0	0	0.551093	-0.0479033	-0.0167608	-0.168316	1488	1482	1489	1484	1490	1483
1098	0.199475	0.0698039	1.23762	0	0	0.551092	-0.0478931	-0.0167699	-0.168348	1488	1482	1489	1484	1490	1483
1108	0.19947	0.0698587	1.238	0	0	0.55109	-0.0478931	-0.0167848	-0.1684	1488	1482	1489	1484	1490	1483
1118	0.199506	0.0699341	1.2383	0	0	0.551089	-0.0479036	-0.0168044	-0.168439	1488	1482	1489	1484	1490	1483
1128	0.199516	0.0700191	1.23871	0	0	0.551089	-0.0479052	-0.0168247	-0.168497	1488	1482	1489	1484	1490	1483
1138	0.199455	0.0699793	1.23864	0	0	0.551088	-0.047889	-0.0168141	-0.168488	1488	1482	1489	1484	1490	1483
1148	0.199386	0.0699157	1.23851	0	0	0.551087	-0.0478743	-0.0167967	-0.168469	1488	1482	1489	1484	1490	1483
1158	0.199321	0.0698487	1.23848	0	0	0.551086	-0.0478593	-0.0167798	-0.168465	1488	1482	1489	1484	1490	1483
1168	0.199254	0.0698265	1.23835	0	0	0.551085	-0.0478425	-0.0167758	-0.168447	1488	1482	1489	1484	1490	1483
1178	0.19926	0.0697914	1.23835	0	0	0.551085	-0.0478465	-0.016766	-0.168448	1488	1482	1489	1484	1490	1483
1188	0.199246	0.0697778	1.23836	0	0	0.551086	-0.0478426	-0.0167616	-0.168449	1488	1482	1489	1484	1490	1483
1198	0.199302	0.0697917	1.23835	0	0	0.551085	-0.0478588	-0.0167661	-0.168447	1488	1482	1489	1484	1490	1483
1208	0.199316	0.0698337	1.23843	0	0	0.551084	-0.0478618	-0.0167778	-0.168458	1488	1482	1489	1484	1490	1483
1218	0.199306	0.0698313	1.23855	0	0	0.551083	-0.0478556	-0.0167762	-0.168476	1488	1482	1489	1484	1490	1483
1229	0.19936	0.0698926	1.23871	0	0	0.551083	-0.0478677	-0.0167899	-0.168498	1488	1482	1489	1484	1490	1483
1239	0.199303	0.0698972	1.23888	0	0	0.551082	-0.0478537	-0.016793	-0.168519	1488	1482	1489	1484	1490	1483
1249	0.199179	0.0698756	1.23915	0	0	0.551082	-0.0478231	-0.0167914	-0.168555	1488	1482	1489	1484	1490	1483
1259	0.199137	0.0698534	1.23935	0	0	0.55108	-0.0478146	-0.0167854	-0.168582	1488	1482	1489	1484	1490	1483
1269	0.199039	0.0698588	1.23973	0	0	0.551079	-0.047789	-0.0167856	-0.168635	1488	1482	1489	1484	1490	1483
1279	0.199025	0.0698551	1.24008	0	0	0.55108	-0.0477853	-0.0167844	-0.168683	1488	1482	1489	1484	1490	1483
1289	0.199043	0.0698687	1.24001	0	0	0.551079	-0.0477943	-0.0167866	-0.168673	1488	1482	1489	1484	1490	1483
1299	0.199053	0.0698994	1.23988	0	0	0.551078	-0.0477971	-0.0167945	-0.168655	1488	1482	1489	1484	1490	1483
1309	0.1991	0.0699114	1.23978	0	0	0.551077	-0.0478106	-0.0167975	-0.168641	1488	1482	1489	1484	1490	1483
1319	0.199123	0.0699872	1.23969	0	0	0.551077	-0.047814	-0.0168156	-0.168628	1488	1482	1489	1484	1490	1483
1329	0.199109	0.0699885	1.2397	0	0	0.551078	-0.0478062	-0.016813	-0.168629	1488	1482	1489	1484	1490	1483
1339	0.19904	0.0699236	1.23968	0	0	0.551077	-0.047787	-0.0167956	-0.168627	1488	1482	1489	1484	1490	1483
1349	0.198967	0.0698495	1.23967	0	0	0.551076	-0.0477721	-0.0167776	-0.168626	1488	1482	1489	1484	1490	1483
1359	0.198906	0.06982	1.23967	0	0	0.551075	-0.0477593	-0.0167722	-0.168626	1488	1482	1489	1484	1490	1483
1370	0.198866	0.0698195	1.23975	0	0	0.551074	-0.0477506	-0.0167769	-0.168636	1488	1482	1489	1484	1490	1483
1380	0.198862	0.0698038	1.23989	0	0	0.551073	-0.0477505	-0.0167717	-0.168656	1488	1482	1489	1484	1490	1483
1390	0.198859	0.0698132	1.24007	0	0	0.551073	-0.0477503	-0.0167722	-0.16868	1488	1482	1489	1484	1490	1483
1400	0.198873	0.0698774	1.24029	0	0	0.551072	-0.0477533	-0.0167907	-0.168709	1488	1482	1489	1484	1490	1483
1410	0.198876	0.0698921	1.24059	0	0	0.551071	-0.0477526	-0.0167934	-0.168752	1488	1482	1489	1484	1490	1483
1420	0.198896	0.0699404	1.24083	0	0	0.55107	-0.0477568	-0.0168036	-0.168785	1488	1482	1489	1484	1490	1483
1430	0.198976	0.0699954	1.24119	0	0	0.55107	-0.0477769	-0.0168167	-0.168833	1488	1482	1489	1484	1490	1483
1440	0.198926	0.0699481	1.24116	0	0	0.55107	-0.0477652	-0.016804	-0.168829	1488	1482	1489	1484	1490	1483
1450	0.19883	0.069885	1.24096	0	0	0.551069	-0.0477424	-0.0167897	-0.168801	1488	1482	1489	1484	1490	1483
1460	0.198756	0.069853	1.24085	0	0	0.551069	-0.0477223	-0.0167812	-0.168785	1488	1482	1489	1484	1490	1483
1470	0.198705	0.0698423	1.24074	0	0	0.551068	-0.04771	-0.0167799	-0.168769	1488	1482	1489	1484	1490	1483
1480	0.198672	0.0698519	1.24062	0	0	0.551067	-0.0477017	-0.0167827	-0.168751	1488	1482	1489	1484	1490	1483
1490	0.19862	0.0698553	1.24061	0	0	0.551067	-0.0476881	-0.0167842	-0.168752	1488	1482	1489	1484	1490	1483
1500	0.198665	0.0698475	1.24061	0	0	0.551066	-0.0477023	-0.0167808	-0.168754	1488	1482	1489	1484	1490	1483
1510	0.19866	0.0698436	1.24068	0	0	0.551066	-0.0477008	-0.0167777	-0.168765	1488	1482	1489	1484	1490	1483
1521	0.198751	0.069894	1.24086	0	0	0.551066	-0.0477245	-0.01679	-0.168791	1488	1482	1489	1484	1490	1483
1531	0.198804	0.0699336	1.24099	0	0	0.551064	-0.0477372	-0.0168005	-0.168807	1488	1482	1489	1484	1490	1483
1541	0.198762	0.0699116	1.24113	0	0	0.551064	-0.0477271	-0.0167965	-0.168825	1488	1482	1489	1484	1490	1483
1551	0.198645	0.0698975	1.24142	0	0	0.551064	-0.0476966	-0.0167957	-0.168865	1488	1482	1489	1484	1490	1483
1561	0.19859	0.0698586	1.24161	0	0	0.551062	-0.0476819	-0.0167855	-0.168891	1488	1482	1489	1484	1490	1483
1571	0.19854	0.069834	1.2421	0	0	0.551061	-0.0476707	-0.0167772	-0.168958	1488	1482	1489	1484	1490	1483
1581	0.198531	0.0698588	1.24231	0	0	0.551061	-0.0476689	-0.0167855	-0.168984	1488	1482	1489	1484	1490	1483
1591	0.19856	0.0698653	1.24225	0	0	0.551061	-0.0476781	-0.0167866	-0.168976	1488	1482	1489	1484	1490	1483
1601	0.198525	0.069834	1.24219	0	0	0.551061	-0.0476676	-0.0167763	-0.168969	1488	1482	1489	1484	1490	1483
1611	0.198537	0.0698669	1.24211	0	0	0.55106	-0.0476707	-0.0167836	-0.16896	1488	1482	1489	1484	1490	1483
1621	0.198596	0.0699697	1.24209	0	0	0.551059	-0.0476858	-0.0168116	-0.168956	1488	1482	1489	1484	1490	1483
1631	0.198619	0.0700271	1.24203	0	0	0.551058	-0.0476904	-0.0168263	-0.168948	1488	1482	1489	1484	1490	1483
1641	0.198609	0.0700298	1.24208	0	0	0.551059	-0.0476906	-0.016828	-0.168955	1488	1482	1489	1484	1490	1483
1651	0.198524	0.0699649	1.24208	0	0	0.551058	-0.0476692	-0.0168109	-0.168956	1488	1482	1489	1484	1490	1483
1662	0.198437	0.0699636	1.2421	0	0	0.551057	-0.0476461	-0.0168105	-0.168957	1488	1482	1489	1484	1490	1483
1672	0.198403	0.0699729	1.24223	0	0	0.551056	-0.0476371	-0.0168144	-0.168975	1488	1482	1489	1484	1490	1483
1682	0.198366	0.0699997	1.24238	0	0	0.551056	-0.0476272	-0.0168201	-0.168996	1488	1482	1489	1484	1490	1483
1692	0.198339	0.0699175	1.24258	0	0	0.551056	-0.0476224	-0.0167953	-0.169023	1488	1482	1489	1484	1490	1483
1702	0.198361	0.0699572	1.24277	0	0	0.551056	-0.0476287	-0.0168045	-0.169048	1488	1482	1489	1484	1490	1483
1712	0.198374	0.0699634	1.24305	0	0	0.551054	-0.0476318	-0.0168064	-0.169086	1488	1482	1489	1484	1490	1483
1722	0.198396	0.0700574	1.24341	0	0	0.551054	-0.0476363	-0.0168326	-0.169135	1488	1482	1489	1484	1490	1483
1732	0.198437	0.0700803	1.24373	0	0	0.551053	-0.0476454	-0.016838	-0.169179	1488	1482	1489	1484	1490	1483
1742	0.198328	0.0699441	1.24359	0	0	0.551053	-0.0476196	-0.0168013	-0.169161	1488	1482	1489	1484	1490	1483
1752	0.19828	0.069881	1.24349	0	0	0.551053	-0.0476093	-0.0167851	-0.169147	1488	1482	1489	1484	1490	1483
1762	0.198254	0.069869	1.24344	0	0	0.551052	-0.0476037	-0.016783	-0.16914	1488	1482	1489	1484	1490	1483
1772	0.198234	0.069874	1.24334	0	0	0.551051	-0.0475991	-0.0167882	-0.169124	1488	1482	1489	1484	1490	1483
1782	0.198241	0.0698773	1.24326	0	0	0.551051	-0.0476027	-0.0167901	-0.169112	1488	1482	1489	1484	1490	1483
1792	0.19824	0.0699083	1.24325	0	0	0.551051	-0.0476021	-0.0167978	-0.169111	1488	1482	1489	1484	1490	1483
1802	0.198214	0.0699266	1.24329	0	0	0.551052	-0.0475933	-0.0168012	-0.16912	1488	1482	1489	1484	1490	1483
1813	0.198243	0.0699658	1.24335	0	0	0.551051	-0.0475986	-0.0168107	-0.169127	1488	1482	1489	1484	1490	1483
1823	0.19827	0.0699805	1.24346	0	0	0.551051	-0.0476053	-0.0168122	-0.169142	1488	1482	1489	1484	1490	1483
1833	0.198332	0.0700053	1.24361	0	0	0.551051	-0.0476227	-0.0168169	-0.169162	1488	1482	1489	1484	1490	1483
1843	0.198287	0.0699649	1.24386	0	0	0.55105	-0.0476138	-0.0168094	-0.169197	1488	1482	1489	1484	1490	1483
1853	0.198255	0.069943	1.24406	0	0	0.551051	-0.0476056	-0.0168042	-0.169225	1488	1482	1489	1484	1490	1483
1863	0.198168	0.0698944	1.24438	0	0	0.55105	-0.0475819	-0.0167922	-0.169268	1488	1482	1489	1484	1490	1483
1873	0.198122	0.0698872	1.24471	0	0	0.55105	-0.0475686	-0.0167901	-0.169311	1488	1482	1489	1484	1490	1483
1883	0.19812	0.0698488	1.24501	0	0	0.55105	-0.0475695	-0.0167796	-0.169352	1488	1482	1489	1484	1490	1483
1893	0.198081	0.0698727	1.24487	0	0	0.55105	-0.0475593	-0.0167863	-0.169333	1488	1482	1489	1484	1490	1483
1903	0.198078	0.0698195	1.24472	0	0	0.55105	-0.0475593	-0.0167714	-0.169313	1488	1482	1489	1484	1490	1483
1913	0.198075	0.0698601	1.24471	0	0	0.55105	-0.047559	-0.0167818	-0.169313	1488	1482	1489	1484	1490	1483
1923	0.198121	0.0699072	1.24463	0	0	0.551049	-0.0475706	-0.0167948	-0.169301	1488	1482	1489	1484	1490	1483
1933	0.198089	0.0698892	1.24461	0	0	0.551049	-0.0475604	-0.0167891	-0.169297	1488	1482	1489	1484	1490	1483
1943	0.198041	0.0698231	1.24457	0	0	0.551049	-0.0475499	-0.0167724	-0.169293	1488	1482	1489	1484	1490	1483
1954	0.198042	0.0697867	1.24459	0	0	0.551049	-0.0475533	-0.0167639	-0.169295	1488	1482	1489	1484	1490	1483
1964	0.197966	0.0698072	1.2446	0	0	0.551049	-0.0475344	-0.0167724	-0.169295	1488	1482	1489	1484	1490	1483
1974	0.197916	0.0698259	1.24472	0	0	0.55105	-0.0475201	-0.0167794	-0.169314	1488	1482	1489	1484	1490	1483
1984	0.197895	0.0697969	1.24487	0	0	0.55105	-0.0475168	-0.0167703	-0.169334	1488	1482	1489	1484	1490	1483
1994	0.197913	0.0698112	1.245	0	0	0.55105	-0.0475211	-0.0167717	-0.169351	1488	1482	1489	1484	1490	1483
2004	0.197913	0.0698386	1.24523	0	0	0.551049	-0.0475221	-0.0167795	-0.169381	1488	1482	1489	1484	1490	1483
2014	0.19798	0.0699011	1.24565	0	0	0.551049	-0.0475383	-0.0167949	-0.16944	1488	1482	1489	1484	1490	1483
2024	0.197999	0.0699402	1.24599	0	0	0.551049	-0.0475411	-0.0168027	-0.169487	1488	1482	1489	1484	1490	1483
2034	0.197979	0.0699746	1.24611	0	0	0.551048	-0.047535	-0.0168128	-0.169503	1488	1482	1489	1484	1490	1483
2044	0.197885	0.0699008	1.24602	0	0	0.551049	-0.0475108	-0.016793	-0.169489	1488	1482	1489	1484	1490	1483
2054	0.197786	0.0698764	1.24584	0	0	0.551048	-0.0474863	-0.0167885	-0.169464	1488	1482	1489	1484	1490	1483
2064	0.197774	0.0698564	1.24585	0	0	0.551048	-0.0474855	-0.0167837	-0.169467	1488	1482	1489	1484	1490	1483
2074	0.197764	0.0698716	1.24575	0	0	0.551047	-0.0474871	-0.0167898	-0.169453	1488	1482	1489	1484	1490	1483
2084	0.197773	0.0698949	1.24571	0	0	0.551046	-0.0474902	-0.016796	-0.169448	1488	1482	1489	1484	1490	1483
2095	0.197787	0.0699182	1.24574	0	0	0.551046	-0.0474933	-0.0168001	-0.169453	1488	1482	1489	1484	1490	1483
2105	0.197874	0.0699326	1.24578	0	0	0.551046	-0.047515	-0.0168008	-0.169458	1488	1482	1489	1484	1490	1483
2115	0.197877	0.0699784	1.24583	0	0	0.551046	-0.0475155	-0.0168138	-0.169464	1488	1482	1489	1484	1490	1483
2125	0.197942	0.0699948	1.2459	0	0	0.551045	-0.0475303	-0.016817	-0.169474	1488	1482	1489	1484	1490	1483
2135	0.197942	0.0700116	1.24609	0	0	0.551045	-0.0475277	-0.0168181	-0.169498	1488	1482	1489	1484	1490	1483
2145	0.197882	0.0699526	1.24628	0	0	0.551044	-0.047513	-0.016805	-0.169524	1488	1482	1489	1484	1490	1483
2155	0.197848	0.069922	1.24653	0	0	0.551043	-0.047505	-0.0167997	-0.169559	1488	1482	1489	1484	1490	1483
2165	0.197836	0.069929	1.2467	0	0	0.551043	-0.0475041	-0.0168028	-0.169582	1488	1482	1489	1484	1490	1483
2175	0.19778	0.0699413	1.24703	0	0	0.551043	-0.0474887	-0.0168066	-0.169628	1488	1482	1489	1484	1490	1483
2185	0.197718	0.0699431	1.2473	0	0	0.551042	-0.0474703	-0.0168062	-0.169665	1488	1482	1489	1484	1490	1483
2195	0.197687	0.0699686	1.24709	0	0	0.551042	-0.0474644	-0.0168112	-0.169636	1488	1482	1489	1484	1490	1483
2205	0.197677	0.0699816	1.24703	0	0	0.551042	-0.0474605	-0.0168127	-0.169626	1488	1482	1489	1484	1490	1483
2215	0.197703	0.0699975	1.24696	0	0	0.551042	-0.0474683	-0.0168165	-0.169617	1488	1482	1489	1484	1490	1483
2225	0.197719	0.0700067	1.24696	0	0	0.551041	-0.0474724	-0.0168168	-0.169619	1488	1482	1489	1484	1490	1483
2235	0.197696	0.0700786	1.24693	0	0	0.551041	-0.0474662	-0.0168362	-0.169615	1488	1482	1489	1484	1490	1483
2246	0.197656	0.0700655	1.24688	0	0	0.55104	-0.0474576	-0.0168363	-0.169606	1488	1482	1489	1484	1490	1483
2256	0.197603	0.0700539	1.2469	0	0	0.551039	-0.0474475	-0.0168339	-0.169609	1488	1482	1489	1484	1490	1483
2266	0.197585	0.0700604	1.24693	0	0	0.551039	-0.0474435	-0.0168357	-0.169614	1488	1482	1489	1484	1490	1483
2276	0.197568	0.0700642	1.24703	0	0	0.551039	-0.0474383	-0.0168371	-0.169626	1488	1482	1489	1484	1490	1483
2286	0.19754	0.0700731	1.24725	0	0	0.551039	-0.0474304	-0.0168356	-0.169657	1488	1482	1489	1484	1490	1483
2296	0.19749	0.0700456	1.2475	0	0	0.551038	-0.0474164	-0.016827	-0.169692	1488	1482	1489	1484	1490	1483
2306	0.197484	0.0700803	1.24772	0	0	0.551038	-0.0474136	-0.0168363	-0.169722	1488	1482	1489	1484	1490	1483
2316	0.197509	0.0701167	1.24801	0	0	0.551038	-0.0474219	-0.0168454	-0.16976	1488	1482	1489	1484	1490	1483
2326	0.197536	0.0701468	1.24823	0	0	0.551037	-0.0474292	-0.0168524	-0.16979	1488	1482	1489	1484	1490	1483
2336	0.197601	0.0701712	1.24843	0	0	0.551037	-0.0474486	-0.0168581	-0.169816	1488	1482	1489	1484	1490	1483
2346	0.197563	0.0701288	1.24829	0	0	0.551036	-0.0474405	-0.0168485	-0.169797	1488	1482	1489	1484	1490	1483
2356	0.197534	0.0700531	1.24812	0	0	0.551035	-0.0474337	-0.0168299	-0.169774	1488	1482	1489	1484	1490	1483
2366	0.197529	0.0700448	1.24809	0	0	0.551034	-0.0474298	-0.0168278	-0.169771	1488	1482	1489	1484	1490	1483
2377	0.19752	0.0700715	1.24806	0	0	0.551034	-0.0474271	-0.0168366	-0.169767	1488	1482	1489	1484	1490	1483
2387	0.197519	0.0700828	1.24801	0	0	0.551033	-0.0474276	-0.0168404	-0.169762	1488	1482	1489	1484	1490	1483
2397	0.197554	0.070088	1.24805	0	0	0.551032	-0.047436	-0.0168404	-0.169767	1488	1482	1489	1484	1490	1483
2407	0.197581	0.0701152	1.24811	0	0	0.551032	-0.0474435	-0.0168449	-0.169777	1488	1482	1489	1484	1490	1483
2417	0.197632	0.0702239	1.24821	0	0	0.551031	-0.047455	-0.0168746	-0.16979	1488	1482	1489	1484	1490	1483
2427	0.197671	0.0703148	1.24831	0	0	0.551032	-0.047464	-0.0168984	-0.169801	1488	1482	1489	1484	1490	1483
2437	0.197668	0.0703165	1.24849	0	0	0.551031	-0.0474617	-0.0168969	-0.169826	1488	1482	1489	1484	1490	1483
2447	0.197614	0.070266	1.24864	0	0	0.551032	-0.0474482	-0.0168833	-0.169847	1488	1482	1489	1484	1490	1483
2457	0.197564	0.0701895	1.24886	0	0	0.551033	-0.0474374	-0.0168615	-0.169876	1488	1482	1489	1484	1490	1483
2467	0.197575	0.0701925	1.24921	0	0	0.551032	-0.0474412	-0.0168651	-0.169923	1488	1482	1489	1484	1490	1483
2477	0.19756	0.0701484	1.2496	0	0	0.551031	-0.047437	-0.0168524	-0.169976	1488	1482	1489	1484	1490	1483
2487	0.197563	0.0701495	1.24964	0	0	0.55103	-0.0474381	-0.0168522	-0.169984	1488	1482	1489	1484	1490	1483
2497	0.197549	0.0701607	1.24954	0	0	0.55103	-0.0474346	-0.0168568	-0.16997	1488	1482	1489	1484	1490	1483
2507	0.197586	0.0701417	1.24946	0	0	0.55103	-0.0474417	-0.0168496	-0.169958	1488	1482	1489	1484	1490	1483
2518	0.197596	0.0701285	1.24951	0	0	0.551029	-0.0474444	-0.0168442	-0.169966	1488	1482	1489	1484	1490	1483
2528	0.19764	0.0701672	1.24945	0	0	0.551029	-0.0474532	-0.0168541	-0.169959	1488	1482	1489	1484	1490	1483
2538	0.197649	0.0701781	1.24939	0	0	0.551028	-0.047457	-0.0168577	-0.169948	1488	1482	1489	1484	1490	1483
2548	0.197568	0.0701143	1.24935	0	0	0.551027	-0.0474385	-0.0168457	-0.169942	1488	1482	1489	1484	1490	1483
2558	0.197534	0.0700688	1.24934	0	0	0.551027	-0.0474301	-0.0168348	-0.16994	1488	1482	1489	1484	1490	1483
2568	0.197545	0.0700637	1.24942	0	0	0.551027	-0.0474342	-0.0168331	-0.169951	1488	1482	1489	1484	1490	1483
2578	0.19744	0.0700581	1.24949	0	0	0.551028	-0.0474053	-0.0168315	-0.169961	1488	1482	1489	1484	1490	1483
2588	0.197444	0.0700714	1.24966	0	0	0.551027	-0.0474053	-0.0168363	-0.169983	1488	1482	1489	1484	1490	1483
2598	0.197442	0.0700504	1.24985	0	0	0.551028	-0.0474067	-0.016829	-0.17001	1488	1482	1489	1484	1490	1483
2608	0.197448	0.0700765	1.25013	0	0	0.551028	-0.0474094	-0.0168347	-0.170049	1488	1482	1489	1484	1490	1483
2618	0.19748	0.0701039	1.2504	0	0	0.551027	-0.0474163	-0.0168427	-0.170086	1488	1482	1489	1484	1490	1483
2628	0.19751	0.0701276	1.25076	0	0	0.551026	-0.0474223	-0.0168463	-0.170135	1488	1482	1489	1484	1490	1483
2638	0.197511	0.0701041	1.25083	0	0	0.551027	-0.0474236	-0.0168414	-0.170146	1488	1482	1489	1484	1490	1483
2648	0.19746	0.0700889	1.25074	0	0	0.551027	-0.0474137	-0.0168396	-0.170132	1488	1482	1489	1484	1490	1483
2659	0.197422	0.0700795	1.25064	0	0	0.551027	-0.0474037	-0.0168393	-0.170119	1488	1482	1489	1484	1490	1483
2669	0.197387	0.0700238	1.25054	0	0	0.551027	-0.0473941	-0.0168241	-0.170103	1488	1482	1489	1484	1490	1483
2679	0.197399	0.0699901	1.25054	0	0	0.551027	-0.0473971	-0.0168128	-0.170104	1488	1482	1489	1484	1490	1483
2689	0.19743	0.0699975	1.25057	0	0	0.551027	-0.0474061	-0.0168147	-0.17011	1488	1482	1489	1484	1490	1483
2699	0.197463	0.0699834	1.25052	0	0	0.551027	-0.0474156	-0.0168116	-0.170101	1488	1482	1489	1484	1490	1483
2709	0.197483	0.0700025	1.2505	0	0	0.551027	-0.0474203	-0.0168174	-0.170099	1488	1482	1489	1484	1490	1483
2719	0.197503	0.0700705	1.25059	0	0	0.551027	-0.0474221	-0.016836	-0.170111	1488	1482	1489	1484	1490	1483
2729	0.19752	0.0700938	1.25068	0	0	0.551028	-0.0474234	-0.0168403	-0.170122	1488	1482	1489	1484	1490	1483
2739	0.197511	0.0700604	1.25083	0	0	0.551027	-0.0474228	-0.0168314	-0.170142	1488	1482	1489	1484	1490	1483
2749	0.197472	0.0699887	1.25108	0	0	0.551027	-0.0474157	-0.0168124	-0.170178	1488	1482	1489	1484	1490	1483
2759	0.197467	0.0699329	1.25136	0	0	0.551026	-0.0474158	-0.0167985	-0.170217	1488	1482	1489	1484	1490	1483
2769	0.197462	0.0699573	1.25177	0	0	0.551025	-0.0474147	-0.0168081	-0.170273	1488	1482	1489	1484	1490	1483
2779	0.197452	0.0699634	1.25199	0	0	0.551025	-0.0474112	-0.0168123	-0.170301	1488	1482	1489	1484	1490	1483
2789	0.197454	0.0699966	1.252	0	0	0.551025	-0.0474114	-0.0168203	-0.170302	1488	1482	1489	1484	1490	1483
2800	0.197503	0.0700317	1.25189	0	0	0.551025	-0.0474235	-0.0168289	-0.170287	1488	1482	1489	1484	1490	1483
2810	0.197532	0.0700237	1.25176	0	0	0.551025	-0.0474308	-0.0168234	-0.17027	1488	1482	1489	1484	1490	1483
2820	0.197646	0.0700922	1.25166	0	0	0.551025	-0.0474603	-0.0168395	-0.170256	1488	1482	1489	1484	1490	1483
2830	0.197692	0.0701329	1.25163	0	0	0.551024	-0.0474699	-0.0168484	-0.170252	1488	1482	1489	1484	1490	1483
2840	0.197597	0.0700648	1.25163	0	0	0.551025	-0.0474423	-0.0168316	-0.170254	1488	1482	1489	1484	1490	1483
2850	0.197551	0.0700259	1.25162	0	0	0.551025	-0.0474318	-0.016823	-0.170252	1488	1482	1489	1484	1490	1483
2860	0.197508	0.0699952	1.25166	0	0	0.551025	-0.0474218	-0.016817	-0.170257	1488	1482	1489	1484	1490	1483
2870	0.197498	0.0699619	1.25174	0	0	0.551025	-0.0474212	-0.016808	-0.170268	1488	1482	1489	1484	1490	1483
2880	0.197475	0.0699134	1.25188	0	0	0.551025	-0.0474155	-0.0167945	-0.170287	1488	1482	1489	1484	1490	1483
2890	0.197495	0.0699013	1.252	0	0	0.551026	-0.0474205	-0.016791	-0.170304	1488	1482	1489	1484	1490	1483
2900	0.197515	0.0699195	1.25225	0	0	0.551025	-0.0474264	-0.0167975	-0.170338	1488	1482	1489	1484	1490	1483
2910	0.197568	0.0699619	1.25269	0	0	0.551025	-0.0474394	-0.0168091	-0.170399	1488	1482	1489	1484	1490	1483
2920	0.197632	0.0699959	1.25295	0	0	0.551025	-0.047455	-0.0168166	-0.170432	1488	1482	1489	1484	1490	1483
2930	0.197724	0.0700938	1.25328	0	0	0.551024	-0.0474776	-0.0168418	-0.170477	1488	1482	1489	1484	1490	1483
2941	0.197707	0.0700272	1.25314	0	0	0.551024	-0.0474756	-0.0168252	-0.170456	1488	1482	1489	1484	1490	1483
2951	0.19765	0.0700011	1.25301	0	0	0.551024	-0.0474596	-0.0168191	-0.170439	1488	1482	1489	1484	1490	1483
2961	0.197596	0.0699351	1.25288	0	0	0.551024	-0.0474439	-0.0168011	-0.170423	1488	1482	1489	1484	1490	1483
2971	0.197605	0.069931	1.25288	0	0	0.551024	-0.0474467	-0.0168007	-0.170424	1488	1482	1489	1484	1490	1483
2981	0.1976	0.0699106	1.25288	0	0	0.551023	-0.0474462	-0.0167951	-0.170423	1488	1482	1489	1484	1490	1483
2991	0.197606	0.069922	1.25286	0	0	0.551022	-0.0474475	-0.0167989	-0.170422	1488	1482	1489	1484	1490	1483
3001	0.197644	0.0699864	1.25286	0	0	0.551021	-0.0474575	-0.0168177	-0.170421	1488	1482	1489	1484	1490	1483
3011	0.197652	0.0700339	1.25293	0	0	0.551021	-0.047457	-0.0168291	-0.17043	1488	1482	1489	1484	1490	1483
3021	0.197714	0.0700541	1.25306	0	0	0.551021	-0.0474729	-0.0168298	-0.170448	1488	1482	1489	1484	1490	1483
3031	0.197749	0.0700698	1.25311	0	0	0.551021	-0.0474821	-0.0168327	-0.170455	1488	1482	1489	1484	1490	1483
3041	0.197745	0.0700434	1.25326	0	0	0.551021	-0.0474829	-0.0168265	-0.170474	1488	1482	1489	1484	1490	1483
3051	0.19771	0.0700235	1.25358	0	0	0.551021	-0.0474737	-0.0168249	-0.170518	1488	1482	1489	1484	1490	1483
3061	0.197668	0.0699784	1.25387	0	0	0.551022	-0.0474624	-0.0168134	-0.170557	1488	1482	1489	1484	1490	1483
3072	0.197617	0.0699244	1.2542	0	0	0.551022	-0.0474472	-0.0167982	-0.170602	1488	1482	1489	1484	1490	1483
3082	0.197638	0.0699217	1.25448	0	0	0.551021	-0.0474534	-0.0167973	-0.17064	1488	1482	1489	1484	1490	1483
3092	0.197652	0.069913	1.25436	0	0	0.551021	-0.0474584	-0.0167947	-0.170624	1488	1482	1489	1484	1490	1483
3102	0.197634	0.0698811	1.25425	0	0	0.55102	-0.0474539	-0.0167865	-0.17061	1488	1482	1489	1484	1490	1483
3112	0.197723	0.0698963	1.2542	0	0	0.55102	-0.0474766	-0.0167909	-0.170604	1488	1482	1489	1484	1490	1483
3122	0.197804	0.0699727	1.25413	0	0	0.55102	-0.0474971	-0.016812	-0.170594	1488	1482	1489	1484	1490	1483
3132	0.197834	0.0700352	1.25408	0	0	0.55102	-0.0475043	-0.016828	-0.170586	1488	1482	1489	1484	1490	1483
3142	0.197822	0.0699772	1.2541	0	0	0.551019	-0.0475008	-0.0168137	-0.170589	1488	1482	1489	1484	1490	1483
3152	0.197834	0.0699503	1.2541	0	0	0.551019	-0.0475048	-0.0168061	-0.170589	1488	1482	1489	1484	1490	1483
3162	0.197768	0.0699266	1.25408	0	0	0.551019	-0.0474877	-0.0168009	-0.170586	1488	1482	1489	1484	1490	1483
3172	0.197737	0.0698378	1.25413	0	0	0.551018	-0.047477	-0.0167749	-0.170592	1488	1482	1489	1484	1490	1483
3182	0.197751	0.0698382	1.25427	0	0	0.551018	-0.0474813	-0.0167758	-0.170611	1488	1482	1489	1484	1490	1483
3192	0.197768	0.0698308	1.2545	0	0	0.551017	-0.0474874	-0.0167777	-0.170643	1488	1482	1489	1484	1490	1483
3202	0.197788	0.0698183	1.25472	0	0	0.551017	-0.0474917	-0.0167727	-0.170673	1488	1482	1489	1484	1490	1483
3213	0.197844	0.0698556	1.25504	0	0	0.551018	-0.0475054	-0.0167818	-0.170716	1488	1482	1489	1484	1490	1483
3223	0.197908	0.0699028	1.2553	0	0	0.551017	-0.0475216	-0.0167939	-0.170753	1488	1482	1489	1484	1490	1483
3233	0.197928	0.0699399	1.25553	0	0	0.551018	-0.0475256	-0.0168041	-0.170783	1488	1482	1489	1484	1490	1483
3243	0.197861	0.0698631	1.25546	0	0	0.551016	-0.0475069	-0.0167833	-0.170774	1488	1482	1489	1484	1490	1483
3253	0.197819	0.0698078	1.25534	0	0	0.551016	-0.0474966	-0.0167705	-0.170757	1488	1482	1489	1484	1490	1483
3263	0.197762	0.0697766	1.25525	0	0	0.551015	-0.0474826	-0.0167637	-0.170745	1488	1482	1489	1484	1490	1483
3273	0.197762	0.0697613	1.25523	0	0	0.551015	-0.047483	-0.0167597	-0.170742	1488	1482	1489	1484	1490	1483
3283	0.197739	0.0697157	1.25519	0	0	0.551015	-0.0474779	-0.0167477	-0.170738	1488	1482	1489	1484	1490	1483
3293	0.1977	0.0696974	1.25517	0	0	0.551015	-0.0474675	-0.0167432	-0.170737	1488	1482	1489	1484	1490	1483
3303	0.197697	0.0697628	1.25521	0	0	0.551015	-0.0474663	-0.0167621	-0.170742	1488	1482	1489	1484	1490	1483
3313	0.197759	0.0698139	1.2553	0	0	0.551014	-0.0474831	-0.0167757	-0.170753	1488	1482	1489	1484	1490	1483
3323	0.197799	0.0698793	1.25536	0	0	0.551015	-0.0474938	-0.0167918	-0.170759	1488	1482	1489	1484	1490	1483
3333	0.197777	0.0698115	1.25541	0	0	0.551014	-0.0474883	-0.0167714	-0.170765	1488	1482	1489	1484	1490	1483
3343	0.197709	0.0697347	1.25561	0	0	0.551014	-0.0474718	-0.016752	-0.170792	1488	1482	1489	1484	1490	1483
3354	0.197681	0.069734	1.25596	0	0	0.551014	-0.047465	-0.0167539	-0.170842	1488	1482	1489	1484	1490	1483
3364	0.197624	0.0696899	1.25622	0	0	0.551013	-0.0474495	-0.0167441	-0.170877	1488	1482	1489	1484	1490	1483
3374	0.197628	0.0696401	1.2565	0	0	0.551014	-0.0474509	-0.0167298	-0.170914	1488	1482	1489	1484	1490	1483
3384	0.197657	0.0696124	1.25647	0	0	0.551013	-0.0474601	-0.0167217	-0.170909	1488	1482	1489	1484	1490	1483
3394	0.197623	0.069616	1.25634	0	0	0.551014	-0.0474518	-0.0167237	-0.170892	1488	1482	1489	1484	1490	1483
3404	0.19769	0.0696102	1.25623	0	0	0.551014	-0.0474673	-0.0167228	-0.170878	1488	1482	1489	1484	1490	1483
3414	0.197755	0.0696442	1.25615	0	0	0.551015	-0.0474857	-0.016731	-0.170867	1488	1482	1489	1484	1490	1483
3424	0.197858	0.0697181	1.2562	0	0	0.551014	-0.0475096	-0.0167495	-0.170876	1488	1482	1489	1484	1490	1483
3434	0.197802	0.0696816	1.25617	0	0	0.551014	-0.0474935	-0.0167412	-0.170871	1488	1482	1489	1484	1490	1483
3444	0.197765	0.0696337	1.25614	0	0	0.551014	-0.0474845	-0.0167301	-0.170868	1488	1482	1489	1484	1490	1483
3454	0.197729	0.0696147	1.25616	0	0	0.551013	-0.0474755	-0.0167253	-0.170869	1488	1482	1489	1484	1490	1483
3464	0.197695	0.0695509	1.25622	0	0	0.551013	-0.0474676	-0.0167095	-0.170876	1488	1482	1489	1484	1490	1483
3474	0.197654	0.0695299	1.25638	0	0	0.551013	-0.0474563	-0.0167026	-0.1709	1488	1482	1489	1484	1490	1483
3485	0.197647	0.0694998	1.25653	0	0	0.551014	-0.0474538	-0.0166948	-0.170921	1488	1482	1489	1484	1490	1483
3495	0.197694	0.0695274	1.25682	0	0	0.551013	-0.0474684	-0.0167041	-0.170959	1488	1482	1489	1484	1490	1483
3505	0.197757	0.0695595	1.25713	0	0	0.551012	-0.0474857	-0.016712	-0.171002	1488	1482	1489	1484	1490	1483
3515	0.197779	0.06954	1.25739	0	0	0.551012	-0.0474892	-0.0167051	-0.171036	1488	1482	1489	1484	1490	1483
3525	0.197815	0.0695731	1.25765	0	0	0.551012	-0.0474961	-0.0167132	-0.171072	1488	1482	1489	1484	1490	1483
3535	0.197802	0.0695632	1.25772	0	0	0.551012	-0.0474923	-0.0167102	-0.17108	1488	1482	1489	1484	1490	1483
3545	0.197796	0.0695407	1.25758	0	0	0.551012	-0.0474929	-0.0167083	-0.17106	1488	1482	1489	1484	1490	1483
3555	0.197775	0.0694753	1.25742	0	0	0.55101	-0.0474905	-0.0166917	-0.171039	1488	1482	1489	1484	1490	1483
3565	0.197755	0.0694626	1.25731	0	0	0.551011	-0.0474824	-0.0166895	-0.171023	1488	1482	1489	1484	1490	1483
3575	0.197746	0.0694699	1.25726	0	0	0.551012	-0.04748	-0.0166909	-0.171015	1488	1482	1489	1484	1490	1483
3585	0.197701	0.0694453	1.25722	0	0	0.551012	-0.0474665	-0.0166845	-0.171012	1488	1482	1489	1484	1490	1483
3595	0.197728	0.0694748	1.2573	0	0	0.551012	-0.047474	-0.0166899	-0.171024	1488	1482	1489	1484	1490	1483
3605	0.197702	0.0694709	1.25728	0	0	0.551011	-0.0474677	-0.0166892	-0.171024	1488	1482	1489	1484	1490	1483
3615	0.197745	0.0695029	1.25736	0	0	0.551012	-0.047478	-0.0166976	-0.171034	1488	1482	1489	1484	1490	1483
3626	0.197837	0.0695584	1.25753	0	0	0.551012	-0.0475031	-0.0167107	-0.171055	1488	1482	1489	1484	1490	1483
3636	0.197816	0.0695028	1.25762	0	0	0.551013	-0.0474972	-0.0166963	-0.171066	1488	1482	1489	1484	1490	1483
3646	0.197779	0.0694681	1.25788	0	0	0.551012	-0.0474888	-0.0166901	-0.171102	1488	1482	1489	1484	1490	1483
3656	0.19778	0.0694721	1.25812	0	0	0.551011	-0.0474904	-0.0166935	-0.171134	1488	1482	1489	1484	1490	1483
3666	0.197759	0.0694734	1.25834	0	0	0.551011	-0.0474848	-0.0166942	-0.171163	1488	1482	1489	1484	1490	1483
3676	0.197759	0.0694649	1.25875	0	0	0.551011	-0.0474839	-0.0166907	-0.171222	1488	1482	1489	1484	1490	1483
3686	0.197776	0.0694415	1.25876	0	0	0.55101	-0.047488	-0.0166831	-0.171224	1488	1482	1489	1484	1490	1483
3696	0.197771	0.0694613	1.25862	0	0	0.55101	-0.047487	-0.0166879	-0.171204	1488	1482	1489	1484	1490	1483
3706	0.197792	0.0695206	1.2585	0	0	0.55101	-0.0474894	-0.0167043	-0.171188	1488	1482	1489	1484	1490	1483
3716	0.197819	0.0695921	1.25847	0	0	0.551009	-0.047497	-0.0167223	-0.171183	1488	1482	1489	1484	1490	1483
3726	0.197863	0.0696675	1.2584	0	0	0.551009	-0.0475068	-0.0167401	-0.171174	1488	1482	1489	1484	1490	1483
3736	0.197805	0.0695868	1.25838	0	0	0.551008	-0.0474932	-0.0167189	-0.171171	1488	1482	1489	1484	1490	1483
3746	0.197741	0.0695291	1.25843	0	0	0.551008	-0.0474774	-0.016703	-0.171179	1488	1482	1489	1484	1490	1483
3756	0.197719	0.0694773	1.25848	0	0	0.551008	-0.0474721	-0.0166896	-0.171187	1488	1482	1489	1484	1490	1483
3767	0.197757	0.0694389	1.25857	0	0	0.551007	-0.047484	-0.01668	-0.171198	1488	1482	1489	1484	1490	1483
3777	0.197776	0.0694118	1.25864	0	0	0.551008	-0.0474917	-0.0166747	-0.171208	1488	1482	1489	1484	1490	1483
3787	0.197786	0.069421	1.25885	0	0	0.551008	-0.0474919	-0.0166773	-0.171234	1488	1482	1489	1484	1490	1483
3797	0.197806	0.0694531	1.25915	0	0	0.551008	-0.0474951	-0.0166882	-0.171276	1488	1482	1489	1484	1490	1483
3807	0.197808	0.0694877	1.25941	0	0	0.551008	-0.0474947	-0.0166958	-0.171312	1488	1482	1489	1484	1490	1483
3817	0.197818	0.0695637	1.25972	0	0	0.551007	-0.0474956	-0.0167158	-0.171353	1488	1482	1489	1484	1490	1483
3827	0.197878	0.0695942	1.26001	0	0	0.551007	-0.0475091	-0.0167216	-0.171392	1488	1482	1489	1484	1490	1483
3837	0.197835	0.0695394	1.25998	0	0	0.551007	-0.0474997	-0.0167055	-0.171387	1488	1482	1489	1484	1490	1483
3847	0.197744	0.0694546	1.25978	0	0	0.551007	-0.0474776	-0.0166853	-0.171361	1488	1482	1489	1484	1490	1483
3857	0.197748	0.0694496	1.25972	0	0	0.551007	-0.0474807	-0.0166848	-0.171353	1488	1482	1489	1484	1490	1483
3867	0.197774	0.0694229	1.25967	0	0	0.551006	-0.0474897	-0.0166794	-0.171347	1488	1482	1489	1484	1490	1483
3877	0.197786	0.0694081	1.25961	0	0	0.551006	-0.0474914	-0.0166749	-0.171338	1488	1482	1489	1484	1490	1483
3887	0.197735	0.0693681	1.25957	0	0	0.551006	-0.0474763	-0.0166642	-0.171332	1488	1482	1489	1484	1490	1483
3897	0.197777	0.0693493	1.25956	0	0	0.551006	-0.0474868	-0.0166576	-0.171332	1488	1482	1489	1484	1490	1483
3907	0.197796	0.0693863	1.25962	0	0	0.551006	-0.0474918	-0.0166688	-0.17134	1488	1482	1489	1484	1490	1483
3918	0.1979	0.0693998	1.25968	0	0	0.551007	-0.04752	-0.0166729	-0.171349	1488	1482	1489	1484	1490	1483
3928	0.197976	0.0695165	1.25985	0	0	0.551006	-0.0475392	-0.0167035	-0.171372	1488	1482	1489	1484	1490	1483
3938	0.197892	0.0694052	1.26004	0	0	0.551006	-0.047516	-0.0166746	-0.171397	1488	1482	1489	1484	1490	1483
3948	0.197902	0.0693392	1.26039	0	0	0.551007	-0.0475184	-0.0166566	-0.171446	1488	1482	1489	1484	1490	1483
3958	0.197892	0.0693332	1.2607	0	0	0.551007	-0.0475172	-0.0166576	-0.171487	1488	1482	1489	1484	1490	1483
3968	0.197885	0.0693339	1.26105	0	0	0.551007	-0.0475155	-0.0166598	-0.171534	1488	1482	1489	1484	1490	1483
3978	0.197863	0.0693026	1.2613	0	0	0.551007	-0.0475084	-0.0166513	-0.171569	1488	1482	1489	1484	1490	1483
3988	0.19789	0.0693401	1.26114	0	0	0.551006	-0.0475146	-0.0166607	-0.171547	1488	1482	1489	1484	1490	1483
3998	0.197951	0.069395	1.26107	0	0	0.551006	-0.0475316	-0.0166743	-0.171537	1488	1482	1489	1484	1490	1483
4008	0.197991	0.0694369	1.26097	0	0	0.551006	-0.0475409	-0.0166864	-0.171523	1488	1482	1489	1484	1490	1483
4018	0.198036	0.0694561	1.2609	0	0	0.551006	-0.0475518	-0.016688	-0.171513	1488	1482	1489	1484	1490	1483
4028	0.198113	0.0695211	1.26082	0	0	0.551006	-0.047569	-0.0167034	-0.171501	1488	1482	1489	1484	1490	1483
4038	0.198064	0.0694244	1.26078	0	0	0.551005	-0.0475577	-0.0166774	-0.171495	1488	1482	1489	1484	1490	1483
4049	0.198025	0.0693944	1.26077	0	0	0.551005	-0.047547	-0.0166695	-0.171495	1488	1482	1489	1484	1490	1483
4059	0.198006	0.0693893	1.26085	0	0	0.551006	-0.047542	-0.0166722	-0.171508	1488	1482	1489	1484	1490	1483
4069	0.198033	0.0693384	1.26093	0	0	0.551006	-0.0475512	-0.0166588	-0.171518	1488	1482	1489	1484	1490	1483
4079	0.198029	0.0692822	1.26107	0	0	0.551005	-0.0475509	-0.0166424	-0.171538	1488	1482	1489	1484	1490	1483
4089	0.19808	0.0692918	1.26125	0	0	0.551006	-0.0475623	-0.0166459	-0.17156	1488	1482	1489	1484	1490	1483
4099	0.198118	0.0692202	1.26147	0	0	0.551006	-0.0475722	-0.0166259	-0.171591	1488	1482	1489	1484	1490	1483
4109	0.198204	0.0692501	1.26195	0	0	0.551006	-0.0475927	-0.016634	-0.171658	1488	1482	1489	1484	1490	1483
4119	0.198305	0.0693024	1.26227	0	0	0.551006	-0.0476185	-0.0166484	-0.171701	1488	1482	1489	1484	1490	1483
4129	0.198282	0.0693354	1.26245	0	0	0.551006	-0.0476104	-0.0166593	-0.171726	1488	1482	1489	1484	1490	1483
4139	0.198252	0.0693333	1.26239	0	0	0.551006	-0.0476004	-0.0166608	-0.171718	1488	1482	1489	1484	1490	1483
4149	0.198235	0.0692964	1.26231	0	0	0.551007	-0.0475968	-0.0166519	-0.171707	1488	1482	1489	1484	1490	1483
4159	0.198214	0.0692994	1.26225	0	0	0.551007	-0.0475923	-0.0166519	-0.171698	1488	1482	1489	1484	1490	1483
4169	0.198281	0.0692714	1.26218	0	0	0.551007	-0.0476126	-0.0166448	-0.171689	1488	1482	1489	1484	1490	1483
4179	0.198336	0.0692345	1.26216	0	0	0.551006	-0.047627	-0.0166315	-0.171685	1488	1482	1489	1484	1490	1483
4189	0.198387	0.0691954	1.26215	0	0	0.551006	-0.0476389	-0.0166207	-0.171683	1488	1482	1489	1484	1490	1483
4200	0.198415	0.0692419	1.26214	0	0	0.551006	-0.0476433	-0.0166357	-0.171681	1488	1482	1489	1484	1490	1483
4210	0.198461	0.0692815	1.26221	0	0	0.551005	-0.0476537	-0.0166468	-0.171692	1488	1482	1489	1484	1490	1483
4220	0.198475	0.0693016	1.26228	0	0	0.551005	-0.0476541	-0.0166487	-0.171701	1488	1482	1489	1484	1490	1483
4230	0.198517	0.0693416	1.26236	0	0	0.551005	-0.0476632	-0.0166589	-0.171712	1488	1482	1489	1484	1490	1483
4240	0.198496	0.0693071	1.26257	0	0	0.551005	-0.0476609	-0.0166518	-0.171742	1488	1482	1489	1484	1490	1483
4250	0.198489	0.0692708	1.26287	0	0	0.551005	-0.0476608	-0.0166441	-0.171781	1488	1482	1489	1484	1490	1483
4260	0.198464	0.0692145	1.26306	0	0	0.551005	-0.0476542	-0.0166298	-0.171807	1488	1482	1489	1484	1490	1483
4270	0.198451	0.0691776	1.26337	0	0	0.551005	-0.0476504	-0.016619	-0.171849	1488	1482	1489	1484	1490	1483
4280	0.198501	0.06916	1.26372	0	0	0.551004	-0.0476627	-0.0166141	-0.171896	1488	1482	1489	1484	1490	1483
4290	0.198471	0.0691284	1.26357	0	0	0.551004	-0.0476535	-0.0166055	-0.171876	1488	1482	1489	1484	1490	1483
4300	0.198473	0.0691195	1.26345	0	0	0.551004	-0.0476527	-0.0166034	-0.171861	1488	1482	1489	1484	1490	1483
4310	0.198563	0.0691708	1.26336	0	0	0.551003	-0.0476774	-0.0166188	-0.171849	1488	1482	1489	1484	1490	1483
4320	0.198598	0.0692239	1.26332	0	0	0.551004	-0.0476864	-0.0166326	-0.171841	1488	1482	1489	1484	1490	1483
4331	0.198702	0.069262	1.26328	0	0	0.551003	-0.0477134	-0.0166407	-0.171836	1488	1482	1489	1484	1490	1483
4341	0.19864	0.0692151	1.2632	0	0	0.551003	-0.0476977	-0.0166306	-0.171824	1488	1482	1489	1484	1490	1483
4351	0.198614	0.069188	1.26321	0	0	0.551004	-0.0476892	-0.0166251	-0.171826	1488	1482	1489	1484	1490	1483
4361	0.198633	0.0691404	1.26323	0	0	0.551003	-0.0476957	-0.0166112	-0.171829	1488	1482	1489	1484	1490	1483
4371	0.198623	0.0691378	1.26336	0	0	0.551003	-0.0476935	-0.0166112	-0.171848	1488	1482	1489	1484	1490	1483
4381	0.198574	0.0691307	1.2635	0	0	0.551004	-0.0476775	-0.0166087	-0.171868	1488	1482	1489	1484	1490	1483
4391	0.198559	0.0691249	1.26361	0	0	0.551004	-0.0476719	-0.0166079	-0.171882	1488	1482	1489	1484	1490	1483
4401	0.198606	0.069074	1.26391	0	0	0.551004	-0.0476848	-0.0165913	-0.171922	1488	1482	1489	1484	1490	1483
4411	0.198668	0.0691256	1.26425	0	0	0.551005	-0.0477029	-0.0166069	-0.171968	1488	1482	1489	1484	1490	1483
4421	0.198707	0.0692138	1.26461	0	0	0.551005	-0.0477114	-0.016631	-0.172019	1488	1482	1489	1484	1490	1483
4431	0.198697	0.0692053	1.26466	0	0	0.551004	-0.0477066	-0.0166277	-0.172024	1488	1482	1489	1484	1490	1483
4441	0.198658	0.0691518	1.26455	0	0	0.551004	-0.047699	-0.0166137	-0.172009	1488	1482	1489	1484	1490	1483
4451	0.198659	0.0691172	1.26449	0	0	0.551004	-0.0477015	-0.0166063	-0.172002	1488	1482	1489	1484	1490	1483
4461	0.198637	0.069081	1.26445	0	0	0.551005	-0.0476945	-0.0165961	-0.171997	1488	1482	1489	1484	1490	1483
4472	0.198621	0.0690592	1.26436	0	0	0.551006	-0.0476899	-0.0165916	-0.171985	1488	1482	1489	1484	1490	1483
4482	0.198651	0.0690517	1.26432	0	0	0.551006	-0.047699	-0.0165895	-0.171979	1488	1482	1489	1484	1490	1483
4492	0.198655	0.0690486	1.26434	0	0	0.551007	-0.0476997	-0.0165889	-0.171981	1488	1482	1489	1484	1490	1483
4502	0.198691	0.0690991	1.26443	0	0	0.551007	-0.0477062	-0.0166013	-0.171995	1488	1482	1489	1484	1490	1483
4512	0.198675	0.0690773	1.26446	0	0	0.551007	-0.0477016	-0.016596	-0.172	1488	1482	1489	1484	1490	1483
4522	0.198745	0.0691111	1.26453	0	0	0.551008	-0.0477198	-0.0166022	-0.172007	1488	1482	1489	1484	1490	1483
4532	0.198829	0.0691908	1.26466	0	0	0.551007	-0.0477424	-0.0166243	-0.172024	1488	1482	1489	1484	1490	1483
4542	0.198775	0.0691387	1.26493	0	0	0.551008	-0.047728	-0.016613	-0.172061	1488	1482	1489	1484	1490	1483
4552	0.19875	0.0690972	1.26522	0	0	0.551008	-0.047721	-0.0166018	-0.172102	1488	1482	1489	1484	1490	1483
4562	0.198755	0.0690421	1.26553	0	0	0.551009	-0.0477235	-0.0165852	-0.172145	1488	1482	1489	1484	1490	1483
4572	0.19875	0.0690107	1.26578	0	0	0.55101	-0.0477217	-0.0165783	-0.172178	1488	1482	1489	1484	1490	1483
4582	0.198739	0.0689927	1.26604	0	0	0.55101	-0.0477191	-0.0165738	-0.172214	1488	1482	1489	1484	1490	1483
4592	0.198756	0.0690452	1.26592	0	0	0.55101	-0.0477218	-0.0165899	-0.172197	1488	1482	1489	1484	1490	1483
4602	0.198765	0.0690473	1.26577	0	0	0.55101	-0.0477244	-0.0165902	-0.172176	1488	1482	1489	1484	1490	1483
4612	0.198803	0.0690722	1.26568	0	0	0.551011	-0.047733	-0.0165936	-0.172163	1488	1482	1489	1484	1490	1483
4623	0.198829	0.0690899	1.26565	0	0	0.551011	-0.0477381	-0.0165966	-0.17216	1488	1482	1489	1484	1490	1483
4633	0.198869	0.0690737	1.26563	0	0	0.551011	-0.0477497	-0.0165925	-0.172157	1488	1482	1489	1484	1490	1483
4643	0.198819	0.069009	1.26561	0	0	0.551011	-0.0477382	-0.0165772	-0.172155	1488	1482	1489	1484	1490	1483
4653	0.198763	0.0689683	1.26562	0	0	0.551011	-0.0477241	-0.0165689	-0.172157	1488	1482	1489	1484	1490	1483
4663	0.198761	0.0689238	1.26563	0	0	0.55101	-0.047723	-0.0165588	-0.172157	1488	1482	1489	1484	1490	1483
4673	0.198823	0.068908	1.2658	0	0	0.55101	-0.0477424	-0.0165552	-0.17218	1488	1482	1489	1484	1490	1483
4683	0.198855	0.0688956	1.26597	0	0	0.55101	-0.0477509	-0.0165515	-0.172204	1488	1482	1489	1484	1490	1483
4693	0.198896	0.0688513	1.26622	0	0	0.551009	-0.0477598	-0.0165392	-0.172238	1488	1482	1489	1484	1490	1483
4703	0.198948	0.0688378	1.26642	0	0	0.55101	-0.0477713	-0.016535	-0.172264	1488	1482	1489	1484	1490	1483
4713	0.198991	0.0688614	1.26661	0	0	0.55101	-0.047782	-0.0165416	-0.172291	1488	1482	1489	1484	1490	1483
4723	0.199057	0.0688918	1.26694	0	0	0.55101	-0.0477969	-0.0165503	-0.172336	1488	1482	1489	1484	1490	1483
4733	0.199112	0.0688398	1.26709	0	0	0.551011	-0.0478109	-0.0165353	-0.172353	1488	1482	1489	1484	1490	1483
4743	0.1991	0.0688069	1.26691	0	0	0.55101	-0.0478072	-0.0165287	-0.172328	1488	1482	1489	1484	1490	1483
4753	0.199078	0.0688084	1.26675	0	0	0.55101	-0.0478022	-0.0165341	-0.172307	1488	1482	1489	1484	1490	1483
4764	0.199094	0.0688047	1.26674	0	0	0.55101	-0.047806	-0.0165352	-0.172307	1488	1482	1489	1484	1490	1483
4774	0.199111	0.068795	1.26666	0	0	0.55101	-0.0478111	-0.0165313	-0.172297	1488	1482	1489	1484	1490	1483
4784	0.199143	0.0687751	1.26664	0	0	0.55101	-0.0478189	-0.0165233	-0.172294	1488	1482	1489	1484	1490	1483
4794	0.199127	0.0688109	1.26666	0	0	0.551011	-0.0478122	-0.0165337	-0.172299	1488	1482	1489	1484	1490	1483
4804	0.199155	0.0688764	1.26669	0	0	0.55101	-0.0478175	-0.0165505	-0.172302	1488	1482	1489	1484	1490	1483
4814	0.19921	0.0688817	1.26678	0	0	0.551011	-0.0478318	-0.0165489	-0.172314	1488	1482	1489	1484	1490	1483
4824	0.199249	0.0689064	1.26692	0	0	0.551012	-0.0478398	-0.0165532	-0.172333	1488	1482	1489	1484	1490	1483
4834	0.199291	0.0688843	1.2671	0	0	0.551012	-0.0478524	-0.016546	-0.172358	1488	1482	1489	1484	1490	1483
4844	0.199268	0.0688196	1.26719	0	0	0.551012	-0.0478471	-0.0165316	-0.172369	1488	1482	1489	1484	1490	1483
4854	0.199239	0.0687762	1.26749	0	0	0.551012	-0.0478409	-0.0165228	-0.172411	1488	1482	1489	1484	1490	1483
4864	0.199261	0.0687268	1.26787	0	0	0.551012	-0.0478457	-0.0165102	-0.172463	1488	1482	1489	1484	1490	1483
4874	0.199276	0.0687434	1.26812	0	0	0.551012	-0.0478499	-0.0165167	-0.172496	1488	1482	1489	1484	1490	1483
4884	0.199334	0.0687619	1.26827	0	0	0.551012	-0.0478656	-0.0165225	-0.172516	1488	1482	1489	1484	1490	1483
4894	0.199373	0.0687763	1.26813	0	0	0.551012	-0.0478721	-0.0165253	-0.172496	1488	1482	1489	1484	1490	1483
4905	0.199432	0.0688028	1.26804	0	0	0.551013	-0.0478877	-0.0165314	-0.172483	1488	1482	1489	1484	1490	1483
4915	0.199477	0.0688513	1.26798	0	0	0.551013	-0.047898	-0.0165435	-0.172477	1488	1482	1489	1484	1490	1483
4925	0.199556	0.0689347	1.26795	0	0	0.551013	-0.0479159	-0.0165628	-0.172472	1488	1482	1489	1484	1490	1483
4935	0.199569	0.0689008	1.26792	0	0	0.551012	-0.0479202	-0.0165557	-0.172469	1488	1482	1489	1484	1490	1483
4945	0.199541	0.0688511	1.26788	0	0	0.551012	-0.0479129	-0.0165413	-0.172461	1488	1482	1489	1484	1490	1483
4955	0.19954	0.0688012	1.26789	0	0	0.551013	-0.0479125	-0.016529	-0.172462	1488	1482	1489	1484	1490	1483
4965	0.19959	0.0688003	1.26799	0	0	0.551013	-0.0479265	-0.0165299	-0.172479	1488	1482	1489	1484	1490	1483
4975	0.199555	0.0687549	1.26812	0	0	0.551013	-0.0479166	-0.0165174	-0.172497	1488	1482	1489	1484	1490	1483
4985	0.199582	0.068771	1.26828	0	0	0.551013	-0.0479204	-0.0165218	-0.172518	1488	1482	1489	1484	1490	1483
4995	0.199627	0.0688111	1.26851	0	0	0.551014	-0.0479341	-0.0165348	-0.17255	1488	1482	1489	1484	1490	1483
5005	0.19964	0.068808	1.26876	0	0	0.551014	-0.0479364	-0.0165327	-0.172583	1488	1482	1489	1484	1490	1483
5015	0.199701	0.0688293	1.26905	0	0	0.551014	-0.0479506	-0.0165362	-0.172622	1488	1482	1489	1484	1490	1483
5025	0.199757	0.0688908	1.26944	0	0	0.551014	-0.0479634	-0.0165502	-0.172675	1488	1482	1489	1484	1490	1483
5035	0.199715	0.0688675	1.26945	0	0	0.551014	-0.0479518	-0.0165461	-0.172676	1488	1482	1489	1484	1490	1483
5046	0.199666	0.0688414	1.26937	0	0	0.551014	-0.0479386	-0.0165405	-0.172668	1488	1482	1489	1484	1490	1483
5056	0.199658	0.0687691	1.26931	0	0	0.551013	-0.0479396	-0.0165216	-0.172659	1488	1482	1489	1484	1490	1483
5066	0.199613	0.0686957	1.26926	0	0	0.551013	-0.0479275	-0.0165015	-0.172651	1488	1482	1489	1484	1490	1483
5076	0.19962	0.0686841	1.26929	0	0	0.551013	-0.047929	-0.0164975	-0.172658	1488	1482	1489	1484	1490	1483
5086	0.199595	0.0687246	1.26928	0	0	0.551014	-0.0479218	-0.0165131	-0.172655	1488	1482	1489	1484	1490	1483
5096	0.199603	0.0687783	1.26929	0	0	0.551014	-0.0479237	-0.016528	-0.172656	1488	1482	1489	1484	1490	1483
5106	0.199661	0.0687788	1.26931	0	0	0.551015	-0.0479403	-0.0165274	-0.172658	1488	1482	1489	1484	1490	1483
5116	0.199758	0.0688247	1.2694	0	0	0.551015	-0.0479675	-0.0165362	-0.172671	1488	1482	1489	1484	1490	1483
5126	0.199793	0.0688545	1.26954	0	0	0.551017	-0.0479734	-0.0165412	-0.172689	1488	1482	1489	1484	1490	1483
5136	0.199763	0.0688186	1.2697	0	0	0.551016	-0.0479648	-0.0165326	-0.172711	1488	1482	1489	1484	1490	1483
5146	0.199762	0.0687713	1.2699	0	0	0.551015	-0.0479636	-0.0165214	-0.172737	1488	1482	1489	1484	1490	1483
5156	0.19973	0.0686739	1.27017	0	0	0.551016	-0.0479579	-0.0164965	-0.172774	1488	1482	1489	1484	1490	1483
5166	0.199716	0.0686755	1.27047	0	0	0.551016	-0.0479541	-0.016498	-0.172815	1488	1482	1489	1484	1490	1483
5177	0.199724	0.0686851	1.27094	0	0	0.551016	-0.047955	-0.0165041	-0.17288	1488	1482	1489	1484	1490	1483
5187	0.199683	0.0687051	1.27084	0	0	0.551016	-0.0479437	-0.0165095	-0.172865	1488	1482	1489	1484	1490	1483
5197	0.199696	0.0686708	1.27072	0	0	0.551016	-0.0479457	-0.0164981	-0.17285	1488	1482	1489	1484	1490	1483
5207	0.199712	0.0686982	1.27064	0	0	0.551016	-0.0479508	-0.0165032	-0.172839	1488	1482	1489	1484	1490	1483
5217	0.199723	0.0687333	1.27059	0	0	0.551016	-0.047953	-0.0165124	-0.172832	1488	1482	1489	1484	1490	1483
5227	0.199793	0.0687981	1.2705	0	0	0.551016	-0.0479706	-0.0165292	-0.172819	1488	1482	1489	1484	1490	1483
5237	0.199737	0.0687348	1.27054	0	0	0.551017	-0.0479562	-0.0165125	-0.172826	1488	1482	1489	1484	1490	1483
5247	0.199652	0.068687	1.27053	0	0	0.551017	-0.0479333	-0.0165018	-0.172825	1488	1482	1489	1484	1490	1483
5257	0.19967	0.0686307	1.27053	0	0	0.551017	-0.0479412	-0.0164874	-0.172824	1488	1482	1489	1484	1490	1483
5267	0.199647	0.06867	1.27071	0	0	0.551017	-0.0479374	-0.0165006	-0.172849	1488	1482	1489	1484	1490	1483
5277	0.199616	0.0686765	1.27083	0	0	0.551017	-0.0479266	-0.0165033	-0.172866	1488	1482	1489	1484	1490	1483
5287	0.199614	0.0686876	1.27093	0	0	0.551018	-0.0479266	-0.0165061	-0.172878	1488	1482	1489	1484	1490	1483
5297	0.199607	0.0687135	1.27113	0	0	0.551018	-0.0479251	-0.0165115	-0.172902	1488	1482	1489	1484	1490	1483
5307	0.199672	0.0687661	1.2715	0	0	0.551018	-0.0479425	-0.0165225	-0.172955	1488	1482	1489	1484	1490	1483
5318	0.199752	0.0687826	1.27173	0	0	0.551018	-0.0479633	-0.0165248	-0.172986	1488	1482	1489	1484	1490	1483
5328	0.199767	0.0688344	1.27201	0	0	0.551018	-0.0479669	-0.0165376	-0.173024	1488	1482	1489	1484	1490	1483
5338	0.199723	0.0688121	1.27199	0	0	0.551019	-0.047954	-0.0165327	-0.173023	1488	1482	1489	1484	1490	1483
5348	0.199634	0.0687593	1.27189	0	0	0.551019	-0.047929	-0.0165197	-0.173009	1488	1482	1489	1484	1490	1483
5358	0.199637	0.068705	1.27176	0	0	0.55102	-0.0479328	-0.016507	-0.172991	1488	1482	1489	1484	1490	1483
5368	0.199669	0.0686999	1.27168	0	0	0.55102	-0.0479442	-0.0165054	-0.172978	1488	1482	1489	1484	1490	1483
5378	0.199665	0.0686735	1.27162	0	0	0.551019	-0.0479433	-0.0164996	-0.17297	1488	1482	1489	1484	1490	1483
5388	0.199667	0.0686507	1.27161	0	0	0.55102	-0.0479414	-0.0164914	-0.17297	1488	1482	1489	1484	1490	1483
5398	0.199683	0.0686997	1.27159	0	0	0.55102	-0.0479442	-0.0165059	-0.172967	1488	1482	1489	1484	1490	1483
5408	0.199704	0.068683	1.27158	0	0	0.55102	-0.0479498	-0.0165023	-0.172966	1488	1482	1489	1484	1490	1483
5418	0.199782	0.0686947	1.2717	0	0	0.551021	-0.0479712	-0.0165027	-0.172983	1488	1482	1489	1484	1490	1483
5428	0.199875	0.0687932	1.2719	0	0	0.551022	-0.0479934	-0.0165291	-0.173011	1488	1482	1489	1484	1490	1483
5438	0.199843	0.0687019	1.27212	0	0	0.551021	-0.0479862	-0.0165062	-0.17304	1488	1482	1489	1484	1490	1483
5448	0.199841	0.0686634	1.27232	0	0	0.551022	-0.0479853	-0.0164952	-0.173067	1488	1482	1489	1484	1490	1483
5459	0.199832	0.0686273	1.27259	0	0	0.551022	-0.0479823	-0.0164873	-0.173104	1488	1482	1489	1484	1490	1483
5469	0.199878	0.0685925	1.27289	0	0	0.551022	-0.0479946	-0.016478	-0.173144	1488	1482	1489	1484	1490	1483
5479	0.19987	0.0685868	1.27314	0	0	0.551022	-0.0479941	-0.0164775	-0.173177	1488	1482	1489	1484	1490	1483
5489	0.199898	0.0685676	1.27315	0	0	0.551022	-0.0479995	-0.0164743	-0.17318	1488	1482	1489	1484	1490	1483
5499	0.199907	0.068557	1.27304	0	0	0.551022	-0.0479989	-0.0164699	-0.173166	1488	1482	1489	1484	1490	1483
5509	0.199979	0.0685819	1.27285	0	0	0.551022	-0.0480175	-0.0164758	-0.173138	1488	1482	1489	1484	1490	1483
5519	0.200007	0.068596	1.27285	0	0	0.551023	-0.0480241	-0.0164779	-0.173138	1488	1482	1489	1484	1490	1483
5529	0.20004	0.0686433	1.27278	0	0	0.551023	-0.0480303	-0.01649	-0.173129	1488	1482	1489	1484	1490	1483
5539	0.200021	0.0685957	1.27275	0	0	0.551024	-0.048025	-0.0164804	-0.173125	1488	1482	1489	1484	1490	1483
5549	0.199982	0.0685707	1.27277	0	0	0.551023	-0.0480171	-0.0164751	-0.173129	1488	1482	1489	1484	1490	1483
5559	0.199957	0.0684836	1.27282	0	0	0.551023	-0.0480118	-0.0164532	-0.173136	1488	1482	1489	1484	1490	1483
5569	0.199956	0.06846	1.27291	0	0	0.551024	-0.0480113	-0.0164463	-0.173148	1488	1482	1489	1484	1490	1483
5579	0.199932	0.0684266	1.27295	0	0	0.551025	-0.0480044	-0.0164369	-0.173152	1488	1482	1489	1484	1490	1483
