Time	Roll	Pitch	Yaw	Des_Roll	Des_Pitch	Des_Yaw	Des_Pos_X	Des_Pos_Y	Des_Pos_Z	Pos_X	Pos_Y	Pos_Z	ForceX	ForceY	ForceZ	TorqueRoll	TorquePitch	TorqueYaw	PWM0	PWM1	PWM2	PWM3	PWM4	PWM5	
197	0	0	0	0	0	0	0	1	-1	0	0	0	12	13	14	15	16	17	18	19	20	21	22	23
207	0.0325521	0.0126091	0.0198687	0	0	0	0	1	-1	0	0	-0.0147144	12	13	14	15	16	17	18	19	20	21	22	23
217	0.0325581	0.0126151	0.0199398	0	0	0	0	1	-1	0	0	-0.0146633	12	13	14	15	16	17	18	19	20	21	22	23
227	0.0325621	0.0125763	0.0199687	0	0	0	0	1	-1	0	0	-0.0146184	12	13	14	15	16	17	18	19	20	21	22	23
237	0.0325806	0.0125977	0.02009	0	0	0	0	1	-1	0	0	-0.0146007	12	13	14	15	16	17	18	19	20	21	22	23
247	0.032571	0.0125995	0.0200296	0	0	0	0	1	-1	0	0	-0.0146513	12	13	14	15	16	17	18	19	20	21	22	23
257	0.0325257	0.0126449	0.019998	0	0	0	0	1	-1	0	0	-0.0146032	12	13	14	15	16	17	18	19	20	21	22	23
267	0.0325768	0.0127138	0.0199846	0	0	0	0	1	-1	0	0	-0.0145746	12	13	14	15	16	17	18	19	20	21	22	23
277	0.0326233	0.0127332	0.019983	0	0	0	0	1	-1	0	0	-0.0145658	12	13	14	15	16	17	18	19	20	21	22	23
287	0.0326774	0.0127771	0.0200033	0	0	0	0	1	-1	0	0	-0.0145238	12	13	14	15	16	17	18	19	20	21	22	23
297	0.0326492	0.01279	0.0199854	0	0	0	0	1	-1	0	0	-0.0145739	12	13	14	15	16	17	18	19	20	21	22	23
307	0.0326615	0.0127312	0.0199928	0	0	0	0	1	-1	0	0	-0.014517	12	13	14	15	16	17	18	19	20	21	22	23
317	0.0327466	0.0127361	0.0199624	0	0	0	0	1	-1	0	0	-0.0144874	12	13	14	15	16	17	18	19	20	21	22	23
328	0.0327674	0.0127422	0.0199806	0	0	0	0	1	-1	0	0	-0.0144423	12	13	14	15	16	17	18	19	20	21	22	23
338	0.0327741	0.0127161	0.0200242	0	0	0	0	1	-1	0	0	-0.0144917	12	13	14	15	16	17	18	19	20	21	22	23
348	0.0327687	0.0127462	0.020054	0	0	0	0	1	-1	0	0	-0.0144519	12	13	14	15	16	17	18	19	20	21	22	23
358	0.0327978	0.0127999	0.0200905	0	0	0	0	1	-1	0	0	-0.0144038	12	13	14	15	16	17	18	19	20	21	22	23
368	0.0328285	0.012849	0.0201375	0	0	0	0	1	-1	0	0	-0.0144095	12	13	14	15	16	17	18	19	20	21	22	23
378	0.0328295	0.0128563	0.0202142	0	0	0	0	1	-1	0	0	-0.0143855	12	13	14	15	16	17	18	19	20	21	22	23
388	0.0328317	0.0129004	0.0202224	0	0	0	0	1	-1	0	0	-0.0144342	12	13	14	15	16	17	18	19	20	21	22	23
398	0.0329205	0.0128517	0.0202626	0	0	0	0	1	-1	0	0	-0.0143914	12	13	14	15	16	17	18	19	20	21	22	23
408	0.0328859	0.0128284	0.020286	0	0	0	0	1	-1	0	0	-0.0142998	12	13	14	15	16	17	18	19	20	21	22	23
420	0.0329591	0.0129695	0.020303	0	0	0	0	1	-1	0	0	-0.014283	12	13	14	15	16	17	18	19	20	21	22	23
430	0.0329474	0.0130027	0.0203072	0	0	0	0	1	-1	0	0	-0.0142378	12	13	14	15	16	17	18	19	20	21	22	23
440	0.0329491	0.0130581	0.0202944	0	0	0	0	1	-1	0	0	-0.0141979	12	13	14	15	16	17	18	19	20	21	22	23
450	0.0329417	0.0130873	0.0203169	0	0	0	0	1	-1	0	0	-0.0142454	12	13	14	15	16	17	18	19	20	21	22	23
460	0.0329891	0.0131324	0.0202985	0	0	0	0	1	-1	0	0	-0.0142109	12	13	14	15	16	17	18	19	20	21	22	23
470	0.0330178	0.0131631	0.0203372	0	0	0	0	1	-1	0	0	-0.0141814	12	13	14	15	16	17	18	19	20	21	22	23
480	0.0330192	0.0131919	0.020341	0	0	0	0	1	-1	0	0	-0.0141771	12	13	14	15	16	17	18	19	20	21	22	23
490	0.0331053	0.0132719	0.0202997	0	0	0	0	1	-1	0	0	-0.0141138	12	13	14	15	16	17	18	19	20	21	22	23
500	0.0331026	0.0132752	0.0203252	0	0	0	0	1	-1	0	0	-0.0141605	12	13	14	15	16	17	18	19	20	21	22	23
510	0.0331228	0.0132171	0.0203508	0	0	0	0	1	-1	0	0	-0.0141231	12	13	14	15	16	17	18	19	20	21	22	23
521	0.0330854	0.0132284	0.0203582	0	0	0	0	1	-1	0	0	-0.0140848	12	13	14	15	16	17	18	19	20	21	22	23
531	0.0330705	0.0132677	0.0204516	0	0	0	0	1	-1	0	0	-0.0140259	12	13	14	15	16	17	18	19	20	21	22	23
541	0.0330988	0.013274	0.0205138	0	0	0	0	1	-1	0	0	-0.0140719	12	13	14	15	16	17	18	19	20	21	22	23
551	0.0331207	0.0132807	0.0205523	0	0	0	0	1	-1	0	0	-0.0140509	12	13	14	15	16	17	18	19	20	21	22	23
561	0.0331391	0.0132902	0.0205887	0	0	0	0	1	-1	0	0	-0.0140157	12	13	14	15	16	17	18	19	20	21	22	23
571	0.0331515	0.0133326	0.0205396	0	0	0	0	1	-1	0	0	-0.0139984	12	13	14	15	16	17	18	19	20	21	22	23
581	0.0332181	0.0134012	0.0204928	0	0	0	0	1	-1	0	0	-0.0139601	12	13	14	15	16	17	18	19	20	21	22	23
591	0.0332665	0.0134231	0.0204524	0	0	0	0	1	-1	0	0	-0.0140054	12	13	14	15	16	17	18	19	20	21	22	23
601	0.0332878	0.0134342	0.0205632	0	0	0	0	1	-1	0	0	-0.0138526	12	13	14	15	16	17	18	19	20	21	22	23
611	0.0333112	0.0134765	0.020566	0	0	0	0	1	-1	0	0	-0.0138846	12	13	14	15	16	17	18	19	20	21	22	23
621	0.0333621	0.013485	0.0205952	0	0	0	0	1	-1	0	0	-0.0138332	12	13	14	15	16	17	18	19	20	21	22	23
631	0.0333421	0.0135252	0.0206175	0	0	0	0	1	-1	0	0	-0.0138068	12	13	14	15	16	17	18	19	20	21	22	23
641	0.0333845	0.0135035	0.0206323	0	0	0	0	1	-1	0	0	-0.0137792	12	13	14	15	16	17	18	19	20	21	22	23
651	0.0334524	0.0135449	0.0205954	0	0	0	0	1	-1	0	0	-0.0137442	12	13	14	15	16	17	18	19	20	21	22	23
661	0.033484	0.0136019	0.0206722	0	0	0	0	1	-1	0	0	-0.0137948	12	13	14	15	16	17	18	19	20	21	22	23
672	0.0335319	0.0136223	0.0207245	0	0	0	0	1	-1	0	0	-0.0137455	12	13	14	15	16	17	18	19	20	21	22	23
682	0.0336562	0.0136736	0.0207469	0	0	0	0	1	-1	0	0	-0.013739	12	13	14	15	16	17	18	19	20	21	22	23
692	0.0337114	0.0136692	0.0207914	0	0	0	0	1	-1	0	0	-0.0136763	12	13	14	15	16	17	18	19	20	21	22	23
702	0.0337441	0.0136655	0.0207998	0	0	0	0	1	-1	0	0	-0.0136323	12	13	14	15	16	17	18	19	20	21	22	23
712	0.0338092	0.0136416	0.0208276	0	0	0	0	1	-1	0	0	-0.0136821	12	13	14	15	16	17	18	19	20	21	22	23
722	0.0337727	0.0136414	0.0208628	0	0	0	0	1	-1	0	0	-0.0136436	12	13	14	15	16	17	18	19	20	21	22	23
732	0.0337505	0.0136628	0.0208618	0	0	0	0	1	-1	0	0	-0.0135983	12	13	14	15	16	17	18	19	20	21	22	23
742	0.0337797	0.0137029	0.0209081	0	0	0	0	1	-1	0	0	-0.0135459	12	13	14	15	16	17	18	19	20	21	22	23
752	0.0338487	0.0137059	0.0209039	0	0	0	0	1	-1	0	0	-0.0136076	12	13	14	15	16	17	18	19	20	21	22	23
762	0.033823	0.013711	0.0208896	0	0	0	0	1	-1	0	0	-0.0135542	12	13	14	15	16	17	18	19	20	21	22	23
772	0.0338704	0.0138237	0.0209003	0	0	0	0	1	-1	0	0	-0.0135547	12	13	14	15	16	17	18	19	20	21	22	23
782	0.0339363	0.0138328	0.0209591	0	0	0	0	1	-1	0	0	-0.0135294	12	13	14	15	16	17	18	19	20	21	22	23
792	0.0340212	0.0138979	0.0209627	0	0	0	0	1	-1	0	0	-0.013455	12	13	14	15	16	17	18	19	20	21	22	23
802	0.0339966	0.0139026	0.0210518	0	0	0	0	1	-1	0	0	-0.0135155	12	13	14	15	16	17	18	19	20	21	22	23
812	0.0340436	0.0139655	0.0210551	0	0	0	0	1	-1	0	0	-0.013459	12	13	14	15	16	17	18	19	20	21	22	23
823	0.0340606	0.0139404	0.021064	0	0	0	0	1	-1	0	0	-0.0134082	12	13	14	15	16	17	18	19	20	21	22	23
833	0.0340752	0.0139131	0.0211369	0	0	0	0	1	-1	0	0	-0.013375	12	13	14	15	16	17	18	19	20	21	22	23
843	0.0341029	0.0138989	0.02122	0	0	0	0	1	-1	0	0	-0.0133348	12	13	14	15	16	17	18	19	20	21	22	23
853	0.034149	0.0138712	0.0212303	0	0	0	0	1	-1	0	0	-0.0132997	12	13	14	15	16	17	18	19	20	21	22	23
863	0.0342158	0.0139594	0.0212481	0	0	0	0	1	-1	0	0	-0.0133588	12	13	14	15	16	17	18	19	20	21	22	23
873	0.0342575	0.0139798	0.0212006	0	0	0	0	1	-1	0	0	-0.0133163	12	13	14	15	16	17	18	19	20	21	22	23
883	0.0343061	0.0140623	0.0211989	0	0	0	0	1	-1	0	0	-0.0132904	12	13	14	15	16	17	18	19	20	21	22	23
893	0.0343217	0.0141156	0.0212067	0	0	0	0	1	-1	0	0	-0.0132867	12	13	14	15	16	17	18	19	20	21	22	23
903	0.0344177	0.0141202	0.0211452	0	0	0	0	1	-1	0	0	-0.013229	12	13	14	15	16	17	18	19	20	21	22	23
913	0.0344525	0.0140803	0.0211532	0	0	0	0	1	-1	0	0	-0.0132695	12	13	14	15	16	17	18	19	20	21	22	23
923	0.0345073	0.0140655	0.0211639	0	0	0	0	1	-1	0	0	-0.013217	12	13	14	15	16	17	18	19	20	21	22	23
933	0.0345495	0.014036	0.0211854	0	0	0	0	1	-1	0	0	-0.0131701	12	13	14	15	16	17	18	19	20	21	22	23
943	0.0346208	0.0140349	0.021248	0	0	0	0	1	-1	0	0	-0.0131282	12	13	14	15	16	17	18	19	20	21	22	23
953	0.034681	0.0140976	0.0213247	0	0	0	0	1	-1	0	0	-0.0131196	12	13	14	15	16	17	18	19	20	21	22	23
964	0.0347214	0.0141532	0.0213784	0	0	0	0	1	-1	0	0	-0.0130872	12	13	14	15	16	17	18	19	20	21	22	23
974	0.0347913	0.0141293	0.0214286	0	0	0	0	1	-1	0	0	-0.0131324	12	13	14	15	16	17	18	19	20	21	22	23
984	0.0348022	0.014159	0.021495	0	0	0	0	1	-1	0	0	-0.0131045	12	13	14	15	16	17	18	19	20	21	22	23
994	0.0348799	0.0142085	0.0215329	0	0	0	0	1	-1	0	0	-0.0130808	12	13	14	15	16	17	18	19	20	21	22	23
1004	0.0349295	0.0142765	0.0214866	0	0	0	0	1	-1	0	0	-0.0130049	12	13	14	15	16	17	18	19	20	21	22	23
1014	0.0348906	0.0142795	0.0214541	0	0	0	0	1	-1	0	0	-0.0130604	12	13	14	15	16	17	18	19	20	21	22	23
1024	0.0349563	0.014281	0.021443	0	0	0	0	1	-1	0	0	-0.0130229	12	13	14	15	16	17	18	19	20	21	22	23
1034	0.034949	0.0143016	0.0214432	0	0	0	0	1	-1	0	0	-0.0129744	12	13	14	15	16	17	18	19	20	21	22	23
1044	0.0349825	0.0143042	0.0214053	0	0	0	0	1	-1	0	0	-0.0129416	12	13	14	15	16	17	18	19	20	21	22	23
1054	0.0351288	0.0142921	0.0214626	0	0	0	0	1	-1	0	0	-0.0128922	12	13	14	15	16	17	18	19	20	21	22	23
1064	0.0352022	0.0143505	0.0214999	0	0	0	0	1	-1	0	0	-0.0128582	12	13	14	15	16	17	18	19	20	21	22	23
1074	0.0352821	0.014349	0.021501	0	0	0	0	1	-1	0	0	-0.0129126	12	13	14	15	16	17	18	19	20	21	22	23
1084	0.035373	0.0143816	0.02149	0	0	0	0	1	-1	0	0	-0.0128669	12	13	14	15	16	17	18	19	20	21	22	23
1095	0.0354484	0.0145248	0.0214852	0	0	0	0	1	-1	0	0	-0.0128686	12	13	14	15	16	17	18	19	20	21	22	23
1105	0.0355209	0.0144923	0.0214865	0	0	0	0	1	-1	0	0	-0.0128086	12	13	14	15	16	17	18	19	20	21	22	23
1115	0.0356048	0.0145436	0.0214986	0	0	0	0	1	-1	0	0	-0.0127538	12	13	14	15	16	17	18	19	20	21	22	23
1125	0.0356233	0.0145714	0.0215119	0	0	0	0	1	-1	0	0	-0.0127963	12	13	14	15	16	17	18	19	20	21	22	23
1135	0.0356528	0.0145443	0.0215304	0	0	0	0	1	-1	0	0	-0.0127308	12	13	14	15	16	17	18	19	20	21	22	23
1145	0.0357248	0.0145464	0.0215907	0	0	0	0	1	-1	0	0	-0.0127017	12	13	14	15	16	17	18	19	20	21	22	23
1155	0.0357863	0.0145466	0.021514	0	0	0	0	1	-1	0	0	-0.0126725	12	13	14	15	16	17	18	19	20	21	22	23
1165	0.0358068	0.0145384	0.0215579	0	0	0	0	1	-1	0	0	-0.0126269	12	13	14	15	16	17	18	19	20	21	22	23
1175	0.0358249	0.014534	0.0215395	0	0	0	0	1	-1	0	0	-0.0126633	12	13	14	15	16	17	18	19	20	21	22	23
1185	0.0359141	0.0145741	0.0215531	0	0	0	0	1	-1	0	0	-0.0126326	12	13	14	15	16	17	18	19	20	21	22	23
1195	0.0359528	0.0146213	0.0215315	0	0	0	0	1	-1	0	0	-0.0126315	12	13	14	15	16	17	18	19	20	21	22	23
1205	0.0360525	0.0146698	0.0215608	0	0	0	0	1	-1	0	0	-0.0125708	12	13	14	15	16	17	18	19	20	21	22	23
1215	0.0361447	0.0146148	0.021589	0	0	0	0	1	-1	0	0	-0.0125153	12	13	14	15	16	17	18	19	20	21	22	23
1225	0.0361937	0.0146031	0.0215699	0	0	0	0	1	-1	0	0	-0.0124653	12	13	14	15	16	17	18	19	20	21	22	23
1236	0.0349891	0.0146208	0.0216101	0	0	0	0	1	-1	0	0	-0.0125058	12	13	14	15	16	17	18	19	20	21	22	23
1246	0.0350932	0.0147001	0.0216368	0	0	0	0	1	-1	0	0	-0.0124606	12	13	14	15	16	17	18	19	20	21	22	23
1256	0.0351677	0.0147287	0.0217031	0	0	0	0	1	-1	0	0	-0.0124205	12	13	14	15	16	17	18	19	20	21	22	23
1266	0.0352129	0.0147012	0.0217737	0	0	0	0	1	-1	0	0	-0.0123848	12	13	14	15	16	17	18	19	20	21	22	23
1276	0.0352462	0.0147144	0.0218649	0	0	0	0	1	-1	0	0	-0.0123638	12	13	14	15	16	17	18	19	20	21	22	23
1286	0.0352962	0.0147824	0.0219171	0	0	0	0	1	-1	0	0	-0.0124138	12	13	14	15	16	17	18	19	20	21	22	23
1296	0.0353798	0.0147657	0.0219704	0	0	0	0	1	-1	0	0	-0.0123866	12	13	14	15	16	17	18	19	20	21	22	23
1306	0.0355428	0.014801	0.021939	0	0	0	0	1	-1	0	0	-0.0123263	12	13	14	15	16	17	18	19	20	21	22	23
1316	0.0355572	0.0147582	0.0219293	0	0	0	0	1	-1	0	0	-0.0122614	12	13	14	15	16	17	18	19	20	21	22	23
1326	0.0355941	0.0147552	0.0219221	0	0	0	0	1	-1	0	0	-0.0122214	12	13	14	15	16	17	18	19	20	21	22	23
1336	0.0355978	0.0147643	0.0219846	0	0	0	0	1	-1	0	0	-0.0122701	12	13	14	15	16	17	18	19	20	21	22	23
1346	0.0356344	0.0147872	0.0219812	0	0	0	0	1	-1	0	0	-0.0122393	12	13	14	15	16	17	18	19	20	21	22	23
1356	0.035682	0.0148143	0.0219726	0	0	0	0	1	-1	0	0	-0.0121843	12	13	14	15	16	17	18	19	20	21	22	23
1366	0.0357406	0.0148183	0.0219562	0	0	0	0	1	-1	0	0	-0.0121868	12	13	14	15	16	17	18	19	20	21	22	23
1377	0.0358438	0.0148146	0.0220003	0	0	0	0	1	-1	0	0	-0.0121648	12	13	14	15	16	17	18	19	20	21	22	23
1387	0.0359008	0.0148007	0.0220789	0	0	0	0	1	-1	0	0	-0.0121372	12	13	14	15	16	17	18	19	20	21	22	23
1397	0.0359529	0.0148509	0.022157	0	0	0	0	1	-1	0	0	-0.0120776	12	13	14	15	16	17	18	19	20	21	22	23
1407	0.0359878	0.0147926	0.0222021	0	0	0	0	1	-1	0	0	-0.0120136	12	13	14	15	16	17	18	19	20	21	22	23
1417	0.0360133	0.0147646	0.0221794	0	0	0	0	1	-1	0	0	-0.011974	12	13	14	15	16	17	18	19	20	21	22	23
1427	0.0362135	0.0147047	0.0222849	0	0	0	0	1	-1	0	0	-0.0120121	12	13	14	15	16	17	18	19	20	21	22	23
1437	0.0363181	0.0146972	0.0223848	0	0	0	0	1	-1	0	0	-0.0119912	12	13	14	15	16	17	18	19	20	21	22	23
1447	0.0363345	0.0147064	0.0223603	0	0	0	0	1	-1	0	0	-0.0119371	12	13	14	15	16	17	18	19	20	21	22	23
1457	0.0363853	0.0147195	0.0222939	0	0	0	0	1	-1	0	0	-0.0118921	12	13	14	15	16	17	18	19	20	21	22	23
1467	0.036494	0.0147823	0.0221622	0	0	0	0	1	-1	0	0	-0.0118704	12	13	14	15	16	17	18	19	20	21	22	23
1477	0.0366318	0.014841	0.0222232	0	0	0	0	1	-1	0	0	-0.011857	12	13	14	15	16	17	18	19	20	21	22	23
1487	0.0367048	0.0148618	0.0222293	0	0	0	0	1	-1	0	0	-0.0119036	12	13	14	15	16	17	18	19	20	21	22	23
1497	0.0367589	0.0149023	0.0222898	0	0	0	0	1	-1	0	0	-0.0118307	12	13	14	15	16	17	18	19	20	21	22	23
1507	0.0368237	0.0148728	0.0223657	0	0	0	0	1	-1	0	0	-0.0117904	12	13	14	15	16	17	18	19	20	21	22	23
1518	0.0368313	0.0148539	0.022382	0	0	0	0	1	-1	0	0	-0.0117278	12	13	14	15	16	17	18	19	20	21	22	23
1528	0.0368641	0.0148508	0.0224396	0	0	0	0	1	-1	0	0	-0.0117644	12	13	14	15	16	17	18	19	20	21	22	23
1538	0.0368606	0.0148662	0.022544	0	0	0	0	1	-1	0	0	-0.011729	12	13	14	15	16	17	18	19	20	21	22	23
1548	0.0368298	0.0148413	0.0225678	0	0	0	0	1	-1	0	0	-0.0117029	12	13	14	15	16	17	18	19	20	21	22	23
1558	0.0368447	0.0148197	0.0226051	0	0	0	0	1	-1	0	0	-0.0116539	12	13	14	15	16	17	18	19	20	21	22	23
1568	0.0369604	0.014872	0.0226443	0	0	0	0	1	-1	0	0	-0.0116229	12	13	14	15	16	17	18	19	20	21	22	23
1578	0.0370474	0.0149233	0.0227486	0	0	0	0	1	-1	0	0	-0.0116588	12	13	14	15	16	17	18	19	20	21	22	23
1588	0.0370951	0.0149762	0.0227335	0	0	0	0	1	-1	0	0	-0.0116538	12	13	14	15	16	17	18	19	20	21	22	23
1598	0.0370951	0.0149762	0.0227335	0	0	0	0	1	-1	0	0	-0.0115955	12	13	14	15	16	17	18	19	20	21	22	23
1608	0.0372551	0.0149618	0.0228562	0	0	0	0	1	-1	0	0	-0.0115422	12	13	14	15	16	17	18	19	20	21	22	23
1618	0.0373283	0.0150067	0.0228682	0	0	0	0	1	-1	0	0	-0.0114807	12	13	14	15	16	17	18	19	20	21	22	23
1628	0.0373317	0.0150005	0.0228476	0	0	0	0	1	-1	0	0	-0.0115248	12	13	14	15	16	17	18	19	20	21	22	23
1638	0.0373759	0.015012	0.0228699	0	0	0	0	1	-1	0	0	-0.0114809	12	13	14	15	16	17	18	19	20	21	22	23
1648	0.0374736	0.015019	0.022957	0	0	0	0	1	-1	0	0	-0.0114549	12	13	14	15	16	17	18	19	20	21	22	23
1658	0.0374964	0.0150392	0.0230211	0	0	0	0	1	-1	0	0	-0.0114068	12	13	14	15	16	17	18	19	20	21	22	23
1669	0.0375375	0.0150366	0.0229667	0	0	0	0	1	-1	0	0	-0.0113761	12	13	14	15	16	17	18	19	20	21	22	23
1679	0.0375375	0.0150366	0.0229667	0	0	0	0	1	-1	0	0	-0.0114195	12	13	14	15	16	17	18	19	20	21	22	23
1689	0.0376091	0.0151222	0.0229665	0	0	0	0	1	-1	0	0	-0.0114052	12	13	14	15	16	17	18	19	20	21	22	23
1699	0.0377444	0.0151312	0.0230595	0	0	0	0	1	-1	0	0	-0.0113479	12	13	14	15	16	17	18	19	20	21	22	23
1709	0.0377507	0.0151373	0.0230322	0	0	0	0	1	-1	0	0	-0.0112953	12	13	14	15	16	17	18	19	20	21	22	23
1719	0.037775	0.0151028	0.0231342	0	0	0	0	1	-1	0	0	-0.0112349	12	13	14	15	16	17	18	19	20	21	22	23
1729	0.0378481	0.0151509	0.023151	0	0	0	0	1	-1	0	0	-0.0112773	12	13	14	15	16	17	18	19	20	21	22	23
1739	0.0378802	0.0151842	0.0232378	0	0	0	0	1	-1	0	0	-0.0112338	12	13	14	15	16	17	18	19	20	21	22	23
1749	0.0379693	0.0151786	0.0232432	0	0	0	0	1	-1	0	0	-0.0112074	12	13	14	15	16	17	18	19	20	21	22	23
1759	0.0381045	0.0152109	0.0232611	0	0	0	0	1	-1	0	0	-0.0111808	12	13	14	15	16	17	18	19	20	21	22	23
1769	0.0382479	0.015296	0.0232701	0	0	0	0	1	-1	0	0	-0.0111416	12	13	14	15	16	17	18	19	20	21	22	23
1779	0.0382659	0.0152623	0.0232973	0	0	0	0	1	-1	0	0	-0.0111708	12	13	14	15	16	17	18	19	20	21	22	23
1789	0.0384494	0.0153118	0.023329	0	0	0	0	1	-1	0	0	-0.0111559	12	13	14	15	16	17	18	19	20	21	22	23
1799	0.0384482	0.0152831	0.0233194	0	0	0	0	1	-1	0	0	-0.011087	12	13	14	15	16	17	18	19	20	21	22	23
1809	0.0384571	0.0152154	0.0233248	0	0	0	0	1	-1	0	0	-0.0110351	12	13	14	15	16	17	18	19	20	21	22	23
1820	0.0384775	0.0152265	0.0233518	0	0	0	0	1	-1	0	0	-0.010988	12	13	14	15	16	17	18	19	20	21	22	23
1830	0.0385019	0.0152009	0.0233725	0	0	0	0	1	-1	0	0	-0.0110288	12	13	14	15	16	17	18	19	20	21	22	23
1840	0.0386156	0.0152034	0.0235204	0	0	0	0	1	-1	0	0	-0.0109982	12	13	14	15	16	17	18	19	20	21	22	23
1850	0.0386898	0.0152984	0.0236165	0	0	0	0	1	-1	0	0	-0.0109679	12	13	14	15	16	17	18	19	20	21	22	23
1860	0.0387626	0.0153822	0.0236744	0	0	0	0	1	-1	0	0	-0.0109334	12	13	14	15	16	17	18	19	20	21	22	23
1870	0.0387626	0.0153822	0.0236744	0	0	0	0	1	-1	0	0	-0.0109334	12	13	14	15	16	17	18	19	20	21	22	23
1880	0.0389038	0.015456	0.0238271	0	0	0	0	1	-1	0	0	-0.0108687	12	13	14	15	16	17	18	19	20	21	22	23
1890	0.0389038	0.015456	0.0238271	0	0	0	0	1	-1	0	0	-0.0108968	12	13	14	15	16	17	18	19	20	21	22	23
1900	0.0389145	0.0155087	0.0237892	0	0	0	0	1	-1	0	0	-0.0108534	12	13	14	15	16	17	18	19	20	21	22	23
1910	0.0389771	0.0155185	0.0237729	0	0	0	0	1	-1	0	0	-0.0108105	12	13	14	15	16	17	18	19	20	21	22	23
1920	0.0390502	0.015506	0.0237741	0	0	0	0	1	-1	0	0	-0.0107644	12	13	14	15	16	17	18	19	20	21	22	23
1930	0.0390761	0.0154985	0.0237472	0	0	0	0	1	-1	0	0	-0.0107227	12	13	14	15	16	17	18	19	20	21	22	23
1940	0.0391454	0.0154667	0.0237761	0	0	0	0	1	-1	0	0	-0.0106853	12	13	14	15	16	17	18	19	20	21	22	23
1950	0.0392181	0.0154878	0.0237062	0	0	0	0	1	-1	0	0	-0.0107244	12	13	14	15	16	17	18	19	20	21	22	23
1961	0.0393	0.0154956	0.0237255	0	0	0	0	1	-1	0	0	-0.0106829	12	13	14	15	16	17	18	19	20	21	22	23
1971	0.0393173	0.0155035	0.02375	0	0	0	0	1	-1	0	0	-0.0106415	12	13	14	15	16	17	18	19	20	21	22	23
1981	0.0393294	0.0155525	0.0238087	0	0	0	0	1	-1	0	0	-0.0106345	12	13	14	15	16	17	18	19	20	21	22	23
1991	0.0393831	0.0155573	0.0238452	0	0	0	0	1	-1	0	0	-0.0105803	12	13	14	15	16	17	18	19	20	21	22	23
2001	0.0394836	0.0155547	0.0238208	0	0	0	0	1	-1	0	0	-0.0106186	12	13	14	15	16	17	18	19	20	21	22	23
2011	0.0395717	0.0155352	0.0238716	0	0	0	0	1	-1	0	0	-0.0105686	12	13	14	15	16	17	18	19	20	21	22	23
2021	0.0396614	0.0155919	0.0239457	0	0	0	0	1	-1	0	0	-0.0105154	12	13	14	15	16	17	18	19	20	21	22	23
2031	0.0396614	0.0155919	0.0239457	0	0	0	0	1	-1	0	0	-0.0105417	12	13	14	15	16	17	18	19	20	21	22	23
2041	0.0396959	0.0155985	0.0239691	0	0	0	0	1	-1	0	0	-0.0105417	12	13	14	15	16	17	18	19	20	21	22	23
2051	0.0398319	0.0156757	0.0240286	0	0	0	0	1	-1	0	0	-0.0104438	12	13	14	15	16	17	18	19	20	21	22	23
2061	0.0399184	0.0156776	0.0240109	0	0	0	0	1	-1	0	0	-0.0104808	12	13	14	15	16	17	18	19	20	21	22	23
2071	0.0398885	0.0156733	0.0240096	0	0	0	0	1	-1	0	0	-0.0104469	12	13	14	15	16	17	18	19	20	21	22	23
2081	0.0399286	0.0156605	0.0240259	0	0	0	0	1	-1	0	0	-0.0104168	12	13	14	15	16	17	18	19	20	21	22	23
2091	0.0400195	0.0156832	0.0239986	0	0	0	0	1	-1	0	0	-0.01039	12	13	14	15	16	17	18	19	20	21	22	23
2101	0.0400403	0.0156578	0.0240092	0	0	0	0	1	-1	0	0	-0.010419	12	13	14	15	16	17	18	19	20	21	22	23
2111	0.0401824	0.0156025	0.0240911	0	0	0	0	1	-1	0	0	-0.0102973	12	13	14	15	16	17	18	19	20	21	22	23
2122	0.0402006	0.0155811	0.024069	0	0	0	0	1	-1	0	0	-0.0102702	12	13	14	15	16	17	18	19	20	21	22	23
2132	0.0402207	0.0155685	0.0240741	0	0	0	0	1	-1	0	0	-0.0102702	12	13	14	15	16	17	18	19	20	21	22	23
2142	0.0403333	0.0156349	0.0240725	0	0	0	0	1	-1	0	0	-0.0102362	12	13	14	15	16	17	18	19	20	21	22	23
2152	0.0403841	0.0156662	0.0241292	0	0	0	0	1	-1	0	0	-0.0101993	12	13	14	15	16	17	18	19	20	21	22	23
2162	0.0404719	0.0157672	0.0242269	0	0	0	0	1	-1	0	0	-0.0101765	12	13	14	15	16	17	18	19	20	21	22	23
2172	0.040523	0.015808	0.0242452	0	0	0	0	1	-1	0	0	-0.0102011	12	13	14	15	16	17	18	19	20	21	22	23
2182	0.0404945	0.0158101	0.0242286	0	0	0	0	1	-1	0	0	-0.0101712	12	13	14	15	16	17	18	19	20	21	22	23
2192	0.0405383	0.0158722	0.0242516	0	0	0	0	1	-1	0	0	-0.0101377	12	13	14	15	16	17	18	19	20	21	22	23
2202	0.0406491	0.0159165	0.0242383	0	0	0	0	1	-1	0	0	-0.0100916	12	13	14	15	16	17	18	19	20	21	22	23
2212	0.0407325	0.0159296	0.024244	0	0	0	0	1	-1	0	0	-0.0101261	12	13	14	15	16	17	18	19	20	21	22	23
2222	0.0408495	0.0158915	0.0242891	0	0	0	0	1	-1	0	0	-0.0100874	12	13	14	15	16	17	18	19	20	21	22	23
2232	0.0408978	0.0159333	0.0242642	0	0	0	0	1	-1	0	0	-0.0100324	12	13	14	15	16	17	18	19	20	21	22	23
2242	0.0409347	0.0159544	0.0242702	0	0	0	0	1	-1	0	0	-0.00999165	12	13	14	15	16	17	18	19	20	21	22	23
2252	0.0409868	0.0160002	0.0242471	0	0	0	0	1	-1	0	0	-0.00995503	12	13	14	15	16	17	18	19	20	21	22	23
2262	0.0410524	0.0160433	0.0242499	0	0	0	0	1	-1	0	0	-0.00998871	12	13	14	15	16	17	18	19	20	21	22	23
2273	0.0411028	0.0161514	0.0242027	0	0	0	0	1	-1	0	0	-0.00996518	12	13	14	15	16	17	18	19	20	21	22	23
2283	0.0411463	0.0161149	0.0241982	0	0	0	0	1	-1	0	0	-0.00992545	12	13	14	15	16	17	18	19	20	21	22	23
2293	0.0411995	0.0161559	0.0241928	0	0	0	0	1	-1	0	0	-0.00990911	12	13	14	15	16	17	18	19	20	21	22	23
2303	0.0412582	0.0162081	0.0241737	0	0	0	0	1	-1	0	0	-0.00984704	12	13	14	15	16	17	18	19	20	21	22	23
2313	0.0413272	0.0162506	0.0241989	0	0	0	0	1	-1	0	0	-0.00988021	12	13	14	15	16	17	18	19	20	21	22	23
2323	0.0414054	0.0163325	0.0242192	0	0	0	0	1	-1	0	0	-0.00983212	12	13	14	15	16	17	18	19	20	21	22	23
2333	0.0414707	0.0163274	0.0242472	0	0	0	0	1	-1	0	0	-0.00978826	12	13	14	15	16	17	18	19	20	21	22	23
2343	0.0415204	0.0163649	0.0243332	0	0	0	0	1	-1	0	0	-0.00975135	12	13	14	15	16	17	18	19	20	21	22	23
2353	0.041594	0.0163266	0.0243519	0	0	0	0	1	-1	0	0	-0.00972125	12	13	14	15	16	17	18	19	20	21	22	23
2363	0.0416546	0.0164205	0.0243723	0	0	0	0	1	-1	0	0	-0.00968853	12	13	14	15	16	17	18	19	20	21	22	23
2373	0.0404191	0.0164257	0.024378	0	0	0	0	1	-1	0	0	-0.00971425	12	13	14	15	16	17	18	19	20	21	22	23
2383	0.0404894	0.0164182	0.0243615	0	0	0	0	1	-1	0	0	-0.00967525	12	13	14	15	16	17	18	19	20	21	22	23
2393	0.040652	0.0165339	0.0244635	0	0	0	0	1	-1	0	0	-0.00966519	12	13	14	15	16	17	18	19	20	21	22	23
2403	0.0407579	0.0165611	0.0244601	0	0	0	0	1	-1	0	0	-0.00961366	12	13	14	15	16	17	18	19	20	21	22	23
2414	0.0408531	0.016558	0.0245569	0	0	0	0	1	-1	0	0	-0.00956647	12	13	14	15	16	17	18	19	20	21	22	23
2424	0.0408971	0.0165716	0.0245818	0	0	0	0	1	-1	0	0	-0.00959149	12	13	14	15	16	17	18	19	20	21	22	23
2434	0.0409428	0.0165267	0.0246097	0	0	0	0	1	-1	0	0	-0.00954792	12	13	14	15	16	17	18	19	20	21	22	23
2444	0.0410465	0.0165274	0.0246755	0	0	0	0	1	-1	0	0	-0.0094991	12	13	14	15	16	17	18	19	20	21	22	23
2454	0.0411436	0.0164944	0.0248244	0	0	0	0	1	-1	0	0	-0.00947844	12	13	14	15	16	17	18	19	20	21	22	23
2464	0.0411981	0.0164724	0.0248836	0	0	0	0	1	-1	0	0	-0.00944606	12	13	14	15	16	17	18	19	20	21	22	23
2474	0.0412964	0.0165359	0.0249902	0	0	0	0	1	-1	0	0	-0.00947654	12	13	14	15	16	17	18	19	20	21	22	23
2484	0.0414136	0.0165194	0.0250346	0	0	0	0	1	-1	0	0	-0.00944735	12	13	14	15	16	17	18	19	20	21	22	23
2494	0.0414017	0.016555	0.0251198	0	0	0	0	1	-1	0	0	0.000972532	12	13	14	15	16	17	18	19	20	21	22	23
2504	0.0414774	0.0166337	0.00136131	0	0	0	0	1	-1	0	0	0.000972532	12	13	14	15	16	17	18	19	20	21	22	23
2514	0.0416101	0.0166504	0.00136062	0	0	0	0	1	-1	5.33681e-05	0.999965	0.000203733	12	13	14	15	16	17	18	19	20	21	22	23
2524	0.0417105	0.0166827	0.00133306	0	0	0	0	1	-1	5.33681e-05	0.999965	0.000203733	12	13	14	15	16	17	18	19	20	21	22	23
2534	0.0418095	0.0167206	0.00136797	0	0	0	0	1	-1	0.000152237	0.9999	0.000396549	12	13	14	15	16	17	18	19	20	21	22	23
2545	0.0419146	0.0167433	0.00137522	0	0	0	0	1	-1	0.000152237	0.9999	0.000396549	12	13	14	15	16	17	18	19	20	21	22	23
2555	0.0420069	0.0168285	0.00142044	0	0	0	0	1	-1	0.000197838	0.999869	0.000485942	12	13	14	15	16	17	18	19	20	21	22	23
2565	0.0421004	0.0168579	0.00140565	0	0	0	0	1	-1	0.000240667	0.999841	0.000570773	12	13	14	15	16	17	18	19	20	21	22	23
2575	0.0421943	0.0168948	0.0014316	0	0	0	0	1	-1	0.000239767	0.99984	0.000571613	12	13	14	15	16	17	18	19	20	21	22	23
2585	0.0423072	0.0169808	0.00141483	0	0	0	0	1	-1	0.000279674	0.999813	0.000652527	12	13	14	15	16	17	18	19	20	21	22	23
2595	0.0423842	0.0171078	0.00141012	0	0	0	0	1	-1	0.000317228	0.999787	0.000729316	12	13	14	15	16	17	18	19	20	21	22	23
2605	0.0425579	0.017187	0.0014021	0	0	0	0	1	-1	0.000351439	0.999762	0.000803108	12	13	14	15	16	17	18	19	20	21	22	23
2615	0.0425732	0.0172372	0.0013691	0	0	0	0	1	-1	0.000384864	0.999739	0.000871859	12	13	14	15	16	17	18	19	20	21	22	23
2625	0.0426497	0.0173881	0.00142313	0	0	0	0	1	-1	0.000414859	0.999716	0.000938227	12	13	14	15	16	17	18	19	20	21	22	23
2635	0.0427014	0.0174064	0.0014223	0	0	0	0	1	-1	0.000412814	0.999716	0.000939538	12	13	14	15	16	17	18	19	20	21	22	23
2645	0.0427341	0.0174849	0.00144182	0	0	0	0	1	-1	0.000441265	0.999695	0.00100212	12	13	14	15	16	17	18	19	20	21	22	23
2655	0.0428161	0.0175141	0.00141571	0	0	0	0	1	-1	0.000467671	0.999675	0.00106163	12	13	14	15	16	17	18	19	20	21	22	23
2665	0.0428599	0.0175321	0.00140386	0	0	0	0	1	-1	0.000464792	0.999675	0.00106352	12	13	14	15	16	17	18	19	20	21	22	23
2675	0.043031	0.0176381	0.00148265	0	0	0	0	1	-1	0.000488931	0.999656	0.00112052	12	13	14	15	16	17	18	19	20	21	22	23
2685	0.0431118	0.0176634	0.00149538	0	0	0	0	1	-1	0.000512015	0.999639	0.00117419	12	13	14	15	16	17	18	19	20	21	22	23
2696	0.0431798	0.0177913	0.00149007	0	0	0	0	1	-1	0.000531769	0.999622	0.00122573	12	13	14	15	16	17	18	19	20	21	22	23
2706	0.0432698	0.0179059	0.00153682	0	0	0	0	1	-1	0.000551637	0.999606	0.00127397	12	13	14	15	16	17	18	19	20	21	22	23
2716	0.0433509	0.0179343	0.00157094	0	0	0	0	1	-1	0.000571291	0.999591	0.00131859	12	13	14	15	16	17	18	19	20	21	22	23
2726	0.0434675	0.0180057	0.00162579	0	0	0	0	1	-1	0.000583864	0.999578	0.00136477	12	13	14	15	16	17	18	19	20	21	22	23
2736	0.0435177	0.0180798	0.00169367	0	0	0	0	1	-1	0.000598024	0.999565	0.00140655	12	13	14	15	16	17	18	19	20	21	22	23
2746	0.0436305	0.0182267	0.00173621	0	0	0	0	1	-1	0.00061184	0.999553	0.00144561	12	13	14	15	16	17	18	19	20	21	22	23
2756	0.043715	0.0182322	0.00172387	0	0	0	0	1	-1	0.00061184	0.999553	0.00144561	12	13	14	15	16	17	18	19	20	21	22	23
2766	0.0437589	0.0183524	0.00174684	0	0	0	0	1	-1	0.000622936	0.999541	0.0014837	12	13	14	15	16	17	18	19	20	21	22	23
2776	0.0438236	0.0184012	0.00174887	0	0	0	0	1	-1	0.00063443	0.999531	0.00151862	12	13	14	15	16	17	18	19	20	21	22	23
2786	0.0439405	0.0184485	0.00180624	0	0	0	0	1	-1	0.000627841	0.999531	0.00152311	12	13	14	15	16	17	18	19	20	21	22	23
2796	0.0439923	0.0185087	0.00187784	0	0	0	0	1	-1	0.000639755	0.999521	0.0015548	12	13	14	15	16	17	18	19	20	21	22	23
2806	0.0440476	0.0185778	0.00188492	0	0	0	0	1	-1	0.000649071	0.999511	0.00158614	12	13	14	15	16	17	18	19	20	21	22	23
2816	0.0441209	0.0186296	0.00190306	0	0	0	0	1	-1	0.000657186	0.999503	0.00161545	12	13	14	15	16	17	18	19	20	21	22	23
2826	0.0442034	0.0187325	0.00196809	0	0	0	0	1	-1	0.000650026	0.999503	0.00162043	12	13	14	15	16	17	18	19	20	21	22	23
2837	0.0443503	0.0188612	0.00202579	0	0	0	0	1	-1	0.000654683	0.999489	0.00167562	12	13	14	15	16	17	18	19	20	21	22	23
2847	0.0444932	0.0189449	0.00213597	0	0	0	0	1	-1	0.00066115	0.999489	0.00167562	12	13	14	15	16	17	18	19	20	21	22	23
2857	0.0445719	0.0190774	0.00216393	0	0	0	0	1	-1	0.000673096	0.999477	0.00172127	12	13	14	15	16	17	18	19	20	21	22	23
2867	0.0446616	0.0191161	0.002194	0	0	0	0	1	-1	0.000664919	0.999479	0.00172653	12	13	14	15	16	17	18	19	20	21	22	23
2877	0.0447209	0.0192178	0.00226558	0	0	0	0	1	-1	0.000664919	0.999479	0.00172653	12	13	14	15	16	17	18	19	20	21	22	23
2887	0.0448747	0.0192724	0.00230166	0	0	0	0	1	-1	0.000676012	0.999469	0.00176544	12	13	14	15	16	17	18	19	20	21	22	23
2897	0.0449145	0.0192753	0.00233865	0	0	0	0	1	-1	0.000669072	0.99947	0.00176979	12	13	14	15	16	17	18	19	20	21	22	23
2907	0.0449691	0.0193695	0.00236752	0	0	0	0	1	-1	0.000673564	0.999467	0.00178689	12	13	14	15	16	17	18	19	20	21	22	23
2917	0.045019	0.019487	0.00237652	0	0	0	0	1	-1	0.000675375	0.999464	0.00180425	12	13	14	15	16	17	18	19	20	21	22	23
2927	0.0451511	0.0195139	0.00241379	0	0	0	0	1	-1	0.000663756	0.999464	0.00182787	12	13	14	15	16	17	18	19	20	21	22	23
2937	0.0451821	0.0195723	0.00246666	0	0	0	0	1	-1	0.000664279	0.999462	0.00184289	12	13	14	15	16	17	18	19	20	21	22	23
2947	0.0452698	0.0196717	0.00247211	0	0	0	0	1	-1	0.000664279	0.999462	0.00184289	12	13	14	15	16	17	18	19	20	21	22	23
2957	0.0453623	0.0196894	0.00251302	0	0	0	0	1	-1	0.000666927	0.99946	0.00185506	12	13	14	15	16	17	18	19	20	21	22	23
2967	0.0454571	0.0198199	0.00261269	0	0	0	0	1	-1	0.000665749	0.999459	0.0018677	12	13	14	15	16	17	18	19	20	21	22	23
2978	0.0455524	0.0199141	0.00264088	0	0	0	0	1	-1	0.000655306	0.999461	0.0018735	12	13	14	15	16	17	18	19	20	21	22	23
2988	0.0457002	0.0199513	0.00262586	0	0	0	0	1	-1	0.000650536	0.999461	0.00188708	12	13	14	15	16	17	18	19	20	21	22	23
2998	0.0457893	0.0200875	0.00267766	0	0	0	0	1	-1	0.000645783	0.999461	0.00189892	12	13	14	15	16	17	18	19	20	21	22	23
3008	0.0458761	0.0201599	0.00272988	0	0	0	0	1	-1	0.000642443	0.999461	0.00190865	12	13	14	15	16	17	18	19	20	21	22	23
3018	0.045919	0.0202147	0.00281448	0	0	0	0	1	-1	0.000639563	0.999462	0.00191734	12	13	14	15	16	17	18	19	20	21	22	23
3028	0.045947	0.0202934	0.00286792	0	0	0	0	1	-1	0.000638256	0.999462	0.00192406	12	13	14	15	16	17	18	19	20	21	22	23
3038	0.045998	0.0203511	0.00289072	0	0	0	0	1	-1	0.000621573	0.999467	0.00193717	12	13	14	15	16	17	18	19	20	21	22	23
3048	0.0461056	0.0204192	0.00294922	0	0	0	0	1	-1	0.000614561	0.999469	0.00194459	12	13	14	15	16	17	18	19	20	21	22	23
3058	0.0461623	0.0204947	0.00306349	0	0	0	0	1	-1	0.000610004	0.99947	0.00194989	12	13	14	15	16	17	18	19	20	21	22	23
3068	0.0462361	0.0205089	0.00316398	0	0	0	0	1	-1	0.000607245	0.999472	0.00195336	12	13	14	15	16	17	18	19	20	21	22	23
3078	0.0463707	0.020599	0.00321979	0	0	0	0	1	-1	0.000597762	0.999474	0.00195763	12	13	14	15	16	17	18	19	20	21	22	23
3088	0.0464468	0.0207433	0.00325132	0	0	0	0	1	-1	0.000591231	0.999476	0.00196163	12	13	14	15	16	17	18	19	20	21	22	23
3098	0.0465776	0.020771	0.00328643	0	0	0	0	1	-1	0.000580873	0.99948	0.00196702	12	13	14	15	16	17	18	19	20	21	22	23
3109	0.0466421	0.0208319	0.0032627	0	0	0	0	1	-1	0.000573841	0.999482	0.00196975	12	13	14	15	16	17	18	19	20	21	22	23
3119	0.0467191	0.02095	0.00332252	0	0	0	0	1	-1	0.000562994	0.999486	0.00197313	12	13	14	15	16	17	18	19	20	21	22	23
3129	0.04674	0.021027	0.00337466	0	0	0	0	1	-1	0.000551054	0.999489	0.00197804	12	13	14	15	16	17	18	19	20	21	22	23
3139	0.0467884	0.0210855	0.0034215	0	0	0	0	1	-1	0.00054814	0.999491	0.00197761	12	13	14	15	16	17	18	19	20	21	22	23
3149	0.046826	0.0211338	0.00345385	0	0	0	0	1	-1	0.000539979	0.999495	0.00197866	12	13	14	15	16	17	18	19	20	21	22	23
3159	0.046893	0.0212445	0.00351283	0	0	0	0	1	-1	0.000532257	0.999498	0.00197908	12	13	14	15	16	17	18	19	20	21	22	23
3169	0.046989	0.021333	0.00361515	0	0	0	0	1	-1	0.000515573	0.999503	0.00198224	12	13	14	15	16	17	18	19	20	21	22	23
3179	0.0470452	0.0213705	0.00372827	0	0	0	0	1	-1	0.000505913	0.999507	0.00198168	12	13	14	15	16	17	18	19	20	21	22	23
3189	0.047149	0.0214117	0.0037654	0	0	0	0	1	-1	0.000492578	0.99951	0.00198683	12	13	14	15	16	17	18	19	20	21	22	23
3199	0.0471992	0.0214697	0.00382364	0	0	0	0	1	-1	0.000483628	0.999514	0.00198594	12	13	14	15	16	17	18	19	20	21	22	23
3209	0.0472372	0.0216135	0.00379733	0	0	0	0	1	-1	0.000478921	0.999517	0.00198261	12	13	14	15	16	17	18	19	20	21	22	23
3219	0.0472372	0.0216135	0.00379733	0	0	0	0	1	-1	0.000459426	0.999523	0.00198408	12	13	14	15	16	17	18	19	20	21	22	23
3229	0.0473397	0.0217757	0.00383325	0	0	0	0	1	-1	0.000449433	0.999528	0.00198183	12	13	14	15	16	17	18	19	20	21	22	23
3239	0.0474918	0.0219112	0.00392252	0	0	0	0	1	-1	0.000435071	0.999531	0.00198704	12	13	14	15	16	17	18	19	20	21	22	23
3249	0.0476306	0.0219929	0.00397031	0	0	0	0	1	-1	0.000420431	0.999537	0.00198579	12	13	14	15	16	17	18	19	20	21	22	23
3260	0.0477899	0.0220339	0.00407918	0	0	0	0	1	-1	0.000410259	0.999541	0.00198268	12	13	14	15	16	17	18	19	20	21	22	23
3270	0.0478428	0.0221128	0.00409323	0	0	0	0	1	-1	0.00040296	0.999545	0.00197803	12	13	14	15	16	17	18	19	20	21	22	23
3280	0.047867	0.0221641	0.00408848	0	0	0	0	1	-1	0.00038396	0.99955	0.00198441	12	13	14	15	16	17	18	19	20	21	22	23
3290	0.0479612	0.0222514	0.00411233	0	0	0	0	1	-1	0.000373623	0.999555	0.00198048	12	13	14	15	16	17	18	19	20	21	22	23
3300	0.0480413	0.022325	0.00417158	0	0	0	0	1	-1	0.000362336	0.99956	0.00197642	12	13	14	15	16	17	18	19	20	21	22	23
3310	0.0481157	0.0224681	0.00421781	0	0	0	0	1	-1	0.000340028	0.999568	0.00197516	12	13	14	15	16	17	18	19	20	21	22	23
3320	0.048123	0.0224962	0.00425369	0	0	0	0	1	-1	0.000334943	0.999572	0.00196839	12	13	14	15	16	17	18	19	20	21	22	23
3330	0.048183	0.0225403	0.00430422	0	0	0	0	1	-1	0.000322841	0.999578	0.00196313	12	13	14	15	16	17	18	19	20	21	22	23
3340	0.0482515	0.0225683	0.00431337	0	0	0	0	1	-1	0.000301956	0.999583	0.00196921	12	13	14	15	16	17	18	19	20	21	22	23
3350	0.0483151	0.0226563	0.00436638	0	0	0	0	1	-1	0.000292992	0.999589	0.0019625	12	13	14	15	16	17	18	19	20	21	22	23
3360	0.0483783	0.0227358	0.00440458	0	0	0	0	1	-1	0.000276616	0.999596	0.00195781	12	13	14	15	16	17	18	19	20	21	22	23
3370	0.0485219	0.0228353	0.00446499	0	0	0	0	1	-1	0.000256845	0.999604	0.00195372	12	13	14	15	16	17	18	19	20	21	22	23
3380	0.0485733	0.022913	0.00446457	0	0	0	0	1	-1	0.000251272	0.999608	0.00194555	12	13	14	15	16	17	18	19	20	21	22	23
3390	0.0486733	0.0229736	0.00453124	0	0	0	0	1	-1	0.000228567	0.999614	0.00195168	12	13	14	15	16	17	18	19	20	21	22	23
3400	0.0487681	0.0230159	0.00454991	0	0	0	0	1	-1	0.000219729	0.999619	0.00194398	12	13	14	15	16	17	18	19	20	21	22	23
3411	0.0487891	0.0230754	0.00462419	0	0	0	0	1	-1	0.00020079	0.999627	0.00193859	12	13	14	15	16	17	18	19	20	21	22	23
3421	0.0488508	0.0231617	0.00468515	0	0	0	0	1	-1	0.000187934	0.999634	0.00193189	12	13	14	15	16	17	18	19	20	21	22	23
3431	0.0489541	0.0232965	0.00480563	0	0	0	0	1	-1	0.000166984	0.999643	0.00192676	12	13	14	15	16	17	18	19	20	21	22	23
3441	0.0490635	0.0233729	0.00488041	0	0	0	0	1	-1	0.000152154	0.99965	0.00191971	12	13	14	15	16	17	18	19	20	21	22	23
3451	0.0491046	0.0233829	0.00485037	0	0	0	0	1	-1	0.000135179	0.999655	0.001924	12	13	14	15	16	17	18	19	20	21	22	23
3461	0.0491659	0.0234759	0.00479576	0	0	0	0	1	-1	0.00012171	0.999662	0.00191655	12	13	14	15	16	17	18	19	20	21	22	23
3471	0.0492017	0.0235544	0.00479954	0	0	0	0	1	-1	0.000112211	0.999668	0.00190778	12	13	14	15	16	17	18	19	20	21	22	23
3481	0.0493482	0.023651	0.00484252	0	0	0	0	1	-1	9.17655e-05	0.999677	0.0019012	12	13	14	15	16	17	18	19	20	21	22	23
3491	0.0494104	0.023748	0.00490501	0	0	0	0	1	-1	6.62687e-05	0.999685	0.00190711	12	13	14	15	16	17	18	19	20	21	22	23
3501	0.0494672	0.023784	0.00490372	0	0	0	0	1	-1	5.22813e-05	0.999696	0.00189621	12	13	14	15	16	17	18	19	20	21	22	23
3511	0.0495548	0.0238341	0.00502661	0	0	0	0	1	-1	3.00856e-05	0.999807	0.00181727	12	13	14	15	16	17	18	19	20	21	22	23
3521	0.0496281	0.023943	0.00508186	0	0	0	0	1	-1	1.71472e-05	0.999895	0.00174986	12	13	14	15	16	17	18	19	20	21	22	23
3531	0.0497453	0.0240317	0.00507654	0	0	0	0	1	-1	1.09653e-05	0.999958	0.00169835	12	13	14	15	16	17	18	19	20	21	22	23
3541	0.0498819	0.0240988	0.00515443	0	0	0	0	1	-1	-1.5357e-05	1.00005	0.00164515	12	13	14	15	16	17	18	19	20	21	22	23
3551	0.0499165	0.0241572	0.00518315	0	0	0	0	1	-1	-2.80778e-05	1.00014	0.00157763	12	13	14	15	16	17	18	19	20	21	22	23
3562	0.0499704	0.0242647	0.005174	0	0	0	0	1	-1	-4.17918e-05	1.00023	0.00150996	12	13	14	15	16	17	18	19	20	21	22	23
3572	0.0501297	0.0243674	0.00519355	0	0	0	0	1	-1	-6.46071e-05	1.00034	0.00142611	12	13	14	15	16	17	18	19	20	21	22	23
3582	0.0501565	0.0244524	0.00523763	0	0	0	0	1	-1	-7.77394e-05	1.00043	0.00135869	12	13	14	15	16	17	18	19	20	21	22	23
3592	0.0502218	0.024504	0.00525118	0	0	0	0	1	-1	-9.19893e-05	1.00052	0.00129128	12	13	14	15	16	17	18	19	20	21	22	23
3602	0.0503372	0.0245894	0.00521035	0	0	0	0	1	-1	-0.00011162	1.00059	0.00125404	12	13	14	15	16	17	18	19	20	21	22	23
3612	0.0504265	0.0247105	0.00523396	0	0	0	0	1	-1	-0.000141576	1.00072	0.0011597	12	13	14	15	16	17	18	19	20	21	22	23
3622	0.0504491	0.0247554	0.0052532	0	0	0	0	1	-1	-0.000141034	1.00076	0.00112024	12	13	14	15	16	17	18	19	20	21	22	23
3632	0.0504773	0.0248487	0.00527545	0	0	0	0	1	-1	-0.000156068	1.00085	0.00105395	12	13	14	15	16	17	18	19	20	21	22	23
3642	0.0505738	0.024935	0.00529948	0	0	0	0	1	-1	-0.00017818	1.00096	0.000973445	12	13	14	15	16	17	18	19	20	21	22	23
3652	0.0506234	0.02502	0.00532355	0	0	0	0	1	-1	-0.000208111	1.00105	0.000919931	12	13	14	15	16	17	18	19	20	21	22	23
3662	0.0507056	0.0250801	0.00529841	0	0	0	0	1	-1	-0.000223013	1.00114	0.000855474	12	13	14	15	16	17	18	19	20	21	22	23
3672	0.0508527	0.0251741	0.00536778	0	0	0	0	1	-1	-0.000236307	1.00122	0.000793356	12	13	14	15	16	17	18	19	20	21	22	23
3682	0.0509121	0.025241	0.00544998	0	0	0	0	1	-1	-0.000241563	1.00127	0.000747024	12	13	14	15	16	17	18	19	20	21	22	23
3692	0.0510008	0.0252475	0.00546659	0	0	0	0	1	-1	-0.000272375	1.00136	0.00069334	12	13	14	15	16	17	18	19	20	21	22	23
3703	0.0510653	0.0253427	0.00567684	0	0	0	0	1	-1	-0.000286291	1.00148	0.000598056	12	13	14	15	16	17	18	19	20	21	22	23
3713	0.0511732	0.0253844	0.00575087	0	0	0	0	1	-1	-0.000317899	1.00157	0.000544376	12	13	14	15	16	17	18	19	20	21	22	23
3723	0.0512156	0.0254223	0.00578816	0	0	0	0	1	-1	-0.000317192	1.0016	0.000511472	12	13	14	15	16	17	18	19	20	21	22	23
3733	0.0513027	0.025484	0.00585868	0	0	0	0	1	-1	-0.000330779	1.00167	0.000454936	12	13	14	15	16	17	18	19	20	21	22	23
3743	0.0513966	0.0255467	0.00596281	0	0	0	0	1	-1	-0.000363268	1.00177	0.000401412	12	13	14	15	16	17	18	19	20	21	22	23
3753	0.0515048	0.0256027	0.00606864	0	0	0	0	1	-1	-0.00037808	1.00187	0.000314648	12	13	14	15	16	17	18	19	20	21	22	23
3763	0.0515772	0.0257336	0.00609622	0	0	0	0	1	-1	-0.000411411	1.00196	0.000261471	12	13	14	15	16	17	18	19	20	21	22	23
3773	0.0516579	0.0258175	0.00616129	0	0	0	0	1	-1	-0.00041926	1.00201	0.000219249	12	13	14	15	16	17	18	19	20	21	22	23
3783	0.0517944	0.0259265	0.00617938	0	0	0	0	1	-1	-0.000435138	1.00208	0.000166066	12	13	14	15	16	17	18	19	20	21	22	23
3793	0.0518921	0.0259838	0.00620764	0	0	0	0	1	-1	-0.000452353	1.00215	0.000112561	12	13	14	15	16	17	18	19	20	21	22	23
3803	0.0519586	0.0260528	0.00627023	0	0	0	0	1	-1	-0.000467529	1.00221	6.33836e-05	12	13	14	15	16	17	18	19	20	21	22	23
3813	0.0520461	0.0261066	0.0062875	0	0	0	0	1	-1	-0.000502518	1.0023	1.09956e-05	12	13	14	15	16	17	18	19	20	21	22	23
3823	0.0522123	0.0261841	0.00630162	0	0	0	0	1	-1	-0.000530048	1.00239	-5.38883e-05	12	13	14	15	16	17	18	19	20	21	22	23
3833	0.0522689	0.0262137	0.00628863	0	0	0	0	1	-1	-0.000534157	1.00242	-8.32777e-05	12	13	14	15	16	17	18	19	20	21	22	23
3843	0.0523525	0.0263493	0.00640687	0	0	0	0	1	-1	-0.000550205	1.00248	-0.000128857	12	13	14	15	16	17	18	19	20	21	22	23
3853	0.0524335	0.0264742	0.00640579	0	0	0	0	1	-1	-0.000567485	1.00254	-0.000174978	12	13	14	15	16	17	18	19	20	21	22	23
3864	0.0525748	0.026496	0.00649657	0	0	0	0	1	-1	-0.000596833	1.00263	-0.000237054	12	13	14	15	16	17	18	19	20	21	22	23
3874	0.0526345	0.0265249	0.00654902	0	0	0	0	1	-1	-0.000622519	1.00269	-0.00027342	12	13	14	15	16	17	18	19	20	21	22	23
3884	0.0527006	0.0266105	0.00657236	0	0	0	0	1	-1	-0.000631554	1.00273	-0.000304575	12	13	14	15	16	17	18	19	20	21	22	23
3894	0.0527401	0.0266997	0.00662973	0	0	0	0	1	-1	-0.000656903	1.0028	-0.000356871	12	13	14	15	16	17	18	19	20	21	22	23
3904	0.0527632	0.0268647	0.00668838	0	0	0	0	1	-1	-0.00067632	1.00285	-0.000399434	12	13	14	15	16	17	18	19	20	21	22	23
3914	0.0528521	0.0269427	0.00675433	0	0	0	0	1	-1	-0.000714691	1.00295	-0.000450781	12	13	14	15	16	17	18	19	20	21	22	23
3924	0.0528806	0.0270376	0.00676293	0	0	0	0	1	-1	-0.000731803	1.00299	-0.00048799	12	13	14	15	16	17	18	19	20	21	22	23
3934	0.052883	0.027102	0.00681216	0	0	0	0	1	-1	-0.000750463	1.00304	-0.000525795	12	13	14	15	16	17	18	19	20	21	22	23
3944	0.0528967	0.027179	0.00683614	0	0	0	0	1	-1	-0.000758752	1.00306	-0.00054851	12	13	14	15	16	17	18	19	20	21	22	23
3954	0.0528967	0.027179	0.00683614	0	0	0	0	1	-1	-0.000796453	1.00315	-0.000607207	12	13	14	15	16	17	18	19	20	21	22	23
3964	0.0530257	0.0273024	0.00697522	0	0	0	0	1	-1	-0.000815697	1.00319	-0.000641242	12	13	14	15	16	17	18	19	20	21	22	23
3974	0.0530705	0.0273502	0.00701435	0	0	0	0	1	-1	-0.000844074	1.00326	-0.000676103	12	13	14	15	16	17	18	19	20	21	22	23
3984	0.0531315	0.0274151	0.00706135	0	0	0	0	1	-1	-0.000860721	1.00329	-0.000704912	12	13	14	15	16	17	18	19	20	21	22	23
3994	0.053255	0.0274743	0.0070848	0	0	0	0	1	-1	-0.000878872	1.00333	-0.000734431	12	13	14	15	16	17	18	19	20	21	22	23
4005	0.0532915	0.0275722	0.00701435	0	0	0	0	1	-1	-0.000898737	1.00337	-0.000764737	12	13	14	15	16	17	18	19	20	21	22	23
4015	0.0533449	0.0276792	0.00711388	0	0	0	0	1	-1	-0.000940897	1.00346	-0.000813489	12	13	14	15	16	17	18	19	20	21	22	23
4025	0.0534074	0.0277758	0.00713726	0	0	0	0	1	-1	-0.000971228	1.00351	-0.000852577	12	13	14	15	16	17	18	19	20	21	22	23
4035	0.0534453	0.0278227	0.00720863	0	0	0	0	1	-1	-0.000990327	1.00354	-0.000877999	12	13	14	15	16	17	18	19	20	21	22	23
4045	0.0535177	0.0279554	0.00732918	0	0	0	0	1	-1	-0.00101085	1.00358	-0.000904245	12	13	14	15	16	17	18	19	20	21	22	23
4055	0.0536182	0.028014	0.00729183	0	0	0	0	1	-1	-0.00101532	1.00358	-0.000910964	12	13	14	15	16	17	18	19	20	21	22	23
4065	0.0537211	0.0280888	0.00738123	0	0	0	0	1	-1	-0.00105905	1.00367	-0.00095824	12	13	14	15	16	17	18	19	20	21	22	23
4075	0.0537988	0.0281188	0.00745884	0	0	0	0	1	-1	-0.00107823	1.00369	-0.000979924	12	13	14	15	16	17	18	19	20	21	22	23
4085	0.0538511	0.0281829	0.00750634	0	0	0	0	1	-1	-0.00109434	1.00371	-0.000996669	12	13	14	15	16	17	18	19	20	21	22	23
4095	0.0538821	0.0283013	0.00753379	0	0	0	0	1	-1	-0.00111191	1.00373	-0.00101446	12	13	14	15	16	17	18	19	20	21	22	23
4105	0.053898	0.0283373	0.00753579	0	0	0	0	1	-1	-0.00113106	1.00376	-0.00103351	12	13	14	15	16	17	18	19	20	21	22	23
4115	0.0539252	0.0283727	0.00755566	0	0	0	0	1	-1	-0.0011714	1.00384	-0.0010751	12	13	14	15	16	17	18	19	20	21	22	23
4125	0.0539683	0.0284075	0.00763049	0	0	0	0	1	-1	-0.00118744	1.00383	-0.00108572	12	13	14	15	16	17	18	19	20	21	22	23
4135	0.0539529	0.0284826	0.00763647	0	0	0	0	1	-1	-0.00122395	1.0039	-0.00112206	12	13	14	15	16	17	18	19	20	21	22	23
4146	0.0539663	0.0285267	0.00767059	0	0	0	0	1	-1	-0.00122995	1.0039	-0.00112455	12	13	14	15	16	17	18	19	20	21	22	23
4156	0.0540259	0.028534	0.00775317	0	0	0	0	1	-1	-0.00124654	1.00391	-0.00113575	12	13	14	15	16	17	18	19	20	21	22	23
4166	0.0540407	0.0286593	0.00781339	0	0	0	0	1	-1	-0.00129324	1.004	-0.00118042	12	13	14	15	16	17	18	19	20	21	22	23
4176	0.054151	0.0286737	0.00782215	0	0	0	0	1	-1	-0.00131185	1.00401	-0.00119227	12	13	14	15	16	17	18	19	20	21	22	23
4186	0.0541973	0.0286945	0.00783831	0	0	0	0	1	-1	-0.00133237	1.00403	-0.00120537	12	13	14	15	16	17	18	19	20	21	22	23
4196	0.0542586	0.0288009	0.00789204	0	0	0	0	1	-1	-0.00137382	1.00408	-0.00123525	12	13	14	15	16	17	18	19	20	21	22	23
4206	0.0542824	0.0289045	0.00789876	0	0	0	0	1	-1	-0.0013834	1.00407	-0.00123576	12	13	14	15	16	17	18	19	20	21	22	23
4216	0.0544011	0.0289596	0.00802836	0	0	0	0	1	-1	-0.0014045	1.00408	-0.00124608	12	13	14	15	16	17	18	19	20	21	22	23
4226	0.0544318	0.0289934	0.0080344	0	0	0	0	1	-1	-0.00143904	1.00414	-0.0012759	12	13	14	15	16	17	18	19	20	21	22	23
4236	0.05458	0.029072	0.00798129	0	0	0	0	1	-1	-0.0014716	1.00417	-0.00129383	12	13	14	15	16	17	18	19	20	21	22	23
4246	0.05458	0.029072	0.00798129	0	0	0	0	1	-1	-0.00149117	1.00418	-0.0013003	12	13	14	15	16	17	18	19	20	21	22	23
4256	0.0546674	0.0292504	0.00810954	0	0	0	0	1	-1	-0.00151266	1.00419	-0.00130802	12	13	14	15	16	17	18	19	20	21	22	23
4266	0.0547681	0.0293296	0.00805324	0	0	0	0	1	-1	-0.00154067	1.00421	-0.00131884	12	13	14	15	16	17	18	19	20	21	22	23
4276	0.0547861	0.0293484	0.00800046	0	0	0	0	1	-1	-0.00156625	1.00425	-0.00133931	12	13	14	15	16	17	18	19	20	21	22	23
4286	0.054835	0.0294131	0.00810075	0	0	0	0	1	-1	-0.00158598	1.00426	-0.0013432	12	13	14	15	16	17	18	19	20	21	22	23
4297	0.054835	0.0294131	0.00810075	0	0	0	0	1	-1	-0.00162319	1.00429	-0.0013605	12	13	14	15	16	17	18	19	20	21	22	23
4307	0.0549672	0.029551	0.00821055	0	0	0	0	1	-1	-0.001641	1.00428	-0.00136074	12	13	14	15	16	17	18	19	20	21	22	23
4317	0.0549582	0.029646	0.00828182	0	0	0	0	1	-1	-0.00166597	1.00429	-0.00136472	12	13	14	15	16	17	18	19	20	21	22	23
4327	0.0550378	0.0297145	0.00829444	0	0	0	0	1	-1	-0.00168247	1.00428	-0.0013625	12	13	14	15	16	17	18	19	20	21	22	23
4337	0.0550931	0.0297539	0.00833263	0	0	0	0	1	-1	-0.00173572	1.00437	-0.00140176	12	13	14	15	16	17	18	19	20	21	22	23
4347	0.0551462	0.0298115	0.0083315	0	0	0	0	1	-1	-0.00174375	1.00435	-0.00139283	12	13	14	15	16	17	18	19	20	21	22	23
4357	0.0552419	0.0299708	0.00837087	0	0	0	0	1	-1	-0.001759	1.00434	-0.00138767	12	13	14	15	16	17	18	19	20	21	22	23
4367	0.0552513	0.0300441	0.00844729	0	0	0	0	1	-1	-0.00177631	1.00433	-0.00138409	12	13	14	15	16	17	18	19	20	21	22	23
4377	0.055314	0.0300714	0.00847906	0	0	0	0	1	-1	-0.00180653	1.00434	-0.00138957	12	13	14	15	16	17	18	19	20	21	22	23
4387	0.0553208	0.0301184	0.00846681	0	0	0	0	1	-1	-0.00186134	1.00442	-0.00142723	12	13	14	15	16	17	18	19	20	21	22	23
4397	0.055404	0.0301362	0.0085194	0	0	0	0	1	-1	-0.00186597	1.00439	-0.00141307	12	13	14	15	16	17	18	19	20	21	22	23
4407	0.0554627	0.0301781	0.00861079	0	0	0	0	1	-1	-0.00188371	1.00438	-0.00140799	12	13	14	15	16	17	18	19	20	21	22	23
4417	0.0554808	0.030212	0.00868272	0	0	0	0	1	-1	-0.00190354	1.00438	-0.00140454	12	13	14	15	16	17	18	19	20	21	22	23
4428	0.0555395	0.0303124	0.0087362	0	0	0	0	1	-1	-0.00193076	1.00438	-0.00140428	12	13	14	15	16	17	18	19	20	21	22	23
4438	0.0555444	0.0303771	0.00879672	0	0	0	0	1	-1	-0.00198725	1.00446	-0.00144051	12	13	14	15	16	17	18	19	20	21	22	23
4448	0.0555546	0.0304206	0.00879933	0	0	0	0	1	-1	-0.00200552	1.00445	-0.00143429	12	13	14	15	16	17	18	19	20	21	22	23
4458	0.0556602	0.0305769	0.00884208	0	0	0	0	1	-1	-0.00202585	1.00444	-0.00142975	12	13	14	15	16	17	18	19	20	21	22	23
4468	0.0557167	0.0306192	0.00887437	0	0	0	0	1	-1	-0.00203046	1.00441	-0.0014141	12	13	14	15	16	17	18	19	20	21	22	23
4478	0.0557641	0.0305947	0.00893607	0	0	0	0	1	-1	-0.00205996	1.00442	-0.00141431	12	13	14	15	16	17	18	19	20	21	22	23
4488	0.0557851	0.030585	0.00899723	0	0	0	0	1	-1	-0.00211765	1.0045	-0.00144899	12	13	14	15	16	17	18	19	20	21	22	23
4498	0.0557664	0.0306773	0.00909078	0	0	0	0	1	-1	-0.0021319	1.00448	-0.0014379	12	13	14	15	16	17	18	19	20	21	22	23
4508	0.0558694	0.0307138	0.00913804	0	0	0	0	1	-1	-0.00214833	1.00446	-0.00142864	12	13	14	15	16	17	18	19	20	21	22	23
4518	0.0558676	0.0307846	0.00918767	0	0	0	0	1	-1	-0.00216098	1.00444	-0.00141574	12	13	14	15	16	17	18	19	20	21	22	23
4528	0.0559152	0.0308725	0.00920484	0	0	0	0	1	-1	-0.00220802	1.0045	-0.00144265	12	13	14	15	16	17	18	19	20	21	22	23
4538	0.055977	0.0309956	0.00912154	0	0	0	0	1	-1	-0.00223503	1.0045	-0.00143808	12	13	14	15	16	17	18	19	20	21	22	23
4549	0.0559989	0.0310938	0.00927686	0	0	0	0	1	-1	-0.00227044	1.0045	-0.00143848	12	13	14	15	16	17	18	19	20	21	22	23
4559	0.0560618	0.0311646	0.0093395	0	0	0	0	1	-1	-0.00228402	1.00448	-0.00142545	12	13	14	15	16	17	18	19	20	21	22	23
4569	0.0560983	0.0312237	0.00938411	0	0	0	0	1	-1	-0.00230002	1.00446	-0.0014142	12	13	14	15	16	17	18	19	20	21	22	23
4579	0.0560671	0.0312317	0.00937044	0	0	0	0	1	-1	-0.00230018	1.00442	-0.00139511	12	13	14	15	16	17	18	19	20	21	22	23
4589	0.0561057	0.0313035	0.00945225	0	0	0	0	1	-1	-0.00236105	1.0045	-0.0014271	12	13	14	15	16	17	18	19	20	21	22	23
4599	0.0561097	0.0313518	0.00952334	0	0	0	0	1	-1	-0.00236311	1.00446	-0.00140733	12	13	14	15	16	17	18	19	20	21	22	23
4609	0.0561552	0.0313239	0.00958533	0	0	0	0	1	-1	-0.00237989	1.00444	-0.0013958	12	13	14	15	16	17	18	19	20	21	22	23
4619	0.0561531	0.031305	0.0096725	0	0	0	0	1	-1	-0.00241138	1.00444	-0.00139197	12	13	14	15	16	17	18	19	20	21	22	23
4629	0.0562276	0.0312965	0.00971649	0	0	0	0	1	-1	-0.00244484	1.00444	-0.00138742	12	13	14	15	16	17	18	19	20	21	22	23
4639	0.0549826	0.0312851	0.00975333	0	0	0	0	1	-1	-0.00246209	1.00442	-0.00137535	12	13	14	15	16	17	18	19	20	21	22	23
4649	0.0550059	0.0313178	0.00982273	0	0	0	0	1	-1	-0.00250624	1.00447	-0.00139622	12	13	14	15	16	17	18	19	20	21	22	23
4659	0.0550943	0.0314342	0.00987336	0	0	0	0	1	-1	-0.00252607	1.00445	-0.00138573	12	13	14	15	16	17	18	19	20	21	22	23
4669	0.0551144	0.0315137	0.00996385	0	0	0	0	1	-1	-0.00254115	1.00443	-0.0013718	12	13	14	15	16	17	18	19	20	21	22	23
4679	0.0551336	0.0315856	0.0100258	0	0	0	0	1	-1	-0.0025923	1.00448	-0.00139531	12	13	14	15	16	17	18	19	20	21	22	23
4690	0.0552208	0.0316451	0.0101707	0	0	0	0	1	-1	-0.00259105	1.0044	-0.00135307	12	13	14	15	16	17	18	19	20	21	22	23
4700	0.055221	0.0316674	0.0101651	0	0	0	0	1	-1	-0.00265594	1.00447	-0.00138166	12	13	14	15	16	17	18	19	20	21	22	23
4710	0.0551887	0.0317202	0.0102109	0	0	0	0	1	-1	-0.0026721	1.00445	-0.00136757	12	13	14	15	16	17	18	19	20	21	22	23
4720	0.0552815	0.0317398	0.0102613	0	0	0	0	1	-1	-0.0026908	1.00443	-0.00135521	12	13	14	15	16	17	18	19	20	21	22	23
4730	0.0553127	0.0317394	0.0102968	0	0	0	0	1	-1	-0.00268507	1.00438	-0.00133148	12	13	14	15	16	17	18	19	20	21	22	23
4740	0.0553665	0.0317775	0.0103031	0	0	0	0	1	-1	-0.0027514	1.00445	-0.00135914	12	13	14	15	16	17	18	19	20	21	22	23
4750	0.0553721	0.0318381	0.0103761	0	0	0	0	1	-1	-0.00278834	1.00445	-0.00135331	12	13	14	15	16	17	18	19	20	21	22	23
4760	0.0553646	0.0318219	0.0104633	0	0	0	0	1	-1	-0.00280778	1.00443	-0.00134103	12	13	14	15	16	17	18	19	20	21	22	23
4770	0.0554074	0.0318625	0.0104493	0	0	0	0	1	-1	-0.00283557	1.00442	-0.00133094	12	13	14	15	16	17	18	19	20	21	22	23
4780	0.0553986	0.0319402	0.0104263	0	0	0	0	1	-1	-0.00283905	1.00438	-0.00131193	12	13	14	15	16	17	18	19	20	21	22	23
4790	0.0554081	0.0319837	0.010443	0	0	0	0	1	-1	-0.00288653	1.00443	-0.00133034	12	13	14	15	16	17	18	19	20	21	22	23
4800	0.0554852	0.0320274	0.0104785	0	0	0	0	1	-1	-0.00290611	1.00441	-0.0013181	12	13	14	15	16	17	18	19	20	21	22	23
4810	0.0554819	0.0320284	0.0105246	0	0	0	0	1	-1	-0.00292037	1.00438	-0.00130264	12	13	14	15	16	17	18	19	20	21	22	23
4820	0.0554582	0.0320193	0.0104968	0	0	0	0	1	-1	-0.00297135	1.00439	-0.00130156	12	13	14	15	16	17	18	19	20	21	22	23
4831	0.0554449	0.0320209	0.0105726	0	0	0	0	1	-1	-0.00297698	1.00436	-0.00128429	12	13	14	15	16	17	18	19	20	21	22	23
4841	0.0554816	0.032113	0.0106012	0	0	0	0	1	-1	-0.00302529	1.00441	-0.00130186	12	13	14	15	16	17	18	19	20	21	22	23
4851	0.0555089	0.0321421	0.010632	0	0	0	0	1	-1	-0.00303941	1.00438	-0.0012863	12	13	14	15	16	17	18	19	20	21	22	23
4861	0.0555329	0.0321653	0.0106741	0	0	0	0	1	-1	-0.00309116	1.00439	-0.0012849	12	13	14	15	16	17	18	19	20	21	22	23
4871	0.0555223	0.0321577	0.0106989	0	0	0	0	1	-1	-0.00306782	1.00433	-0.00125593	12	13	14	15	16	17	18	19	20	21	22	23
4881	0.0555206	0.0321975	0.0107286	0	0	0	0	1	-1	-0.00308217	1.0043	-0.00124111	12	13	14	15	16	17	18	19	20	21	22	23
4891	0.0554892	0.0322021	0.0108096	0	0	0	0	1	-1	-0.00315248	1.00437	-0.00126516	12	13	14	15	16	17	18	19	20	21	22	23
4901	0.0555616	0.0322408	0.010869	0	0	0	0	1	-1	-0.00314612	1.00428	-0.00122372	12	13	14	15	16	17	18	19	20	21	22	23
4911	0.0555665	0.0322504	0.0108452	0	0	0	0	1	-1	-0.00321694	1.00435	-0.0012472	12	13	14	15	16	17	18	19	20	21	22	23
4921	0.0555652	0.032362	0.0108428	0	0	0	0	1	-1	-0.00323149	1.00432	-0.00123228	12	13	14	15	16	17	18	19	20	21	22	23
4931	0.0555762	0.0323448	0.0108571	0	0	0	0	1	-1	-0.00322664	1.00428	-0.00121011	12	13	14	15	16	17	18	19	20	21	22	23
4941	0.0555872	0.0323616	0.0108401	0	0	0	0	1	-1	-0.00327679	1.00432	-0.00122593	12	13	14	15	16	17	18	19	20	21	22	23
4951	0.0555791	0.0323669	0.010831	0	0	0	0	1	-1	-0.00331066	1.00431	-0.00121611	12	13	14	15	16	17	18	19	20	21	22	23
4961	0.055563	0.0323642	0.0108487	0	0	0	0	1	-1	-0.00332576	1.00429	-0.00120129	12	13	14	15	16	17	18	19	20	21	22	23
4972	0.0555662	0.0324473	0.0108838	0	0	0	0	1	-1	-0.00334977	1.00427	-0.00118788	12	13	14	15	16	17	18	19	20	21	22	23
4982	0.0555762	0.0324302	0.0109422	0	0	0	0	1	-1	-0.00334767	1.00423	-0.00116769	12	13	14	15	16	17	18	19	20	21	22	23
4992	0.0557069	0.032426	0.0109774	0	0	0	0	1	-1	-0.00336905	1.00421	-0.00115344	12	13	14	15	16	17	18	19	20	21	22	23
5002	0.0557645	0.0324426	0.0110111	0	0	0	0	1	-1	-0.00342717	1.00426	-0.00117017	12	13	14	15	16	17	18	19	20	21	22	23
5012	0.0557812	0.0324653	0.0110103	0	0	0	0	1	-1	-0.00341542	1.00421	-0.00114703	12	13	14	15	16	17	18	19	20	21	22	23
5022	0.0557108	0.0324759	0.011097	0	0	0	0	1	-1	-0.00345021	1.0042	-0.00113795	12	13	14	15	16	17	18	19	20	21	22	23
5032	0.0557064	0.0324226	0.011182	0	0	0	0	1	-1	-0.0034576	1.00417	-0.00112029	12	13	14	15	16	17	18	19	20	21	22	23
5042	0.0557012	0.0323902	0.0112462	0	0	0	0	1	-1	-0.00348259	1.00415	-0.00110827	12	13	14	15	16	17	18	19	20	21	22	23
5052	0.0557149	0.0323901	0.0112606	0	0	0	0	1	-1	-0.00349598	1.00413	-0.00109398	12	13	14	15	16	17	18	19	20	21	22	23
5062	0.0556839	0.0324035	0.0113027	0	0	0	0	1	-1	-0.00353285	1.00416	-0.00110385	12	13	14	15	16	17	18	19	20	21	22	23
5072	0.0556911	0.0324332	0.0113707	0	0	0	0	1	-1	-0.00357755	1.00416	-0.00109642	12	13	14	15	16	17	18	19	20	21	22	23
5082	0.0557226	0.0323888	0.0114011	0	0	0	0	1	-1	-0.00357332	1.00411	-0.001077	12	13	14	15	16	17	18	19	20	21	22	23
5092	0.0557279	0.0324609	0.011416	0	0	0	0	1	-1	-0.00362543	1.00416	-0.00109039	12	13	14	15	16	17	18	19	20	21	22	23
5102	0.0557594	0.0324498	0.0114568	0	0	0	0	1	-1	-0.00366149	1.00415	-0.00108191	12	13	14	15	16	17	18	19	20	21	22	23
5112	0.0557455	0.0324902	0.0115515	0	0	0	0	1	-1	-0.00368421	1.00413	-0.00106891	12	13	14	15	16	17	18	19	20	21	22	23
5123	0.0557294	0.032463	0.0116466	0	0	0	0	1	-1	-0.00368664	1.00409	-0.00104989	12	13	14	15	16	17	18	19	20	21	22	23
5133	0.0557331	0.0324983	0.0116607	0	0	0	0	1	-1	-0.0036547	1.00403	-0.00102354	12	13	14	15	16	17	18	19	20	21	22	23
5143	0.0557387	0.0325419	0.0116754	0	0	0	0	1	-1	-0.00368603	1.00402	-0.00101315	12	13	14	15	16	17	18	19	20	21	22	23
5153	0.0558113	0.0326056	0.0117183	0	0	0	0	1	-1	-0.00370451	1.004	-0.000998684	12	13	14	15	16	17	18	19	20	21	22	23
5163	0.0558006	0.0326099	0.0117576	0	0	0	0	1	-1	-0.00378033	1.00406	-0.00101598	12	13	14	15	16	17	18	19	20	21	22	23
5173	0.0557633	0.0325495	0.0118193	0	0	0	0	1	-1	-0.00378683	1.00402	-0.000999278	12	13	14	15	16	17	18	19	20	21	22	23
5183	0.0557795	0.0325417	0.0118678	0	0	0	0	1	-1	-0.00381086	1.004	-0.000985782	12	13	14	15	16	17	18	19	20	21	22	23
5193	0.0557654	0.032552	0.0119341	0	0	0	0	1	-1	-0.00379217	1.00395	-0.000963713	12	13	14	15	16	17	18	19	20	21	22	23
5203	0.0557881	0.0325991	0.0119848	0	0	0	0	1	-1	-0.00385314	1.004	-0.000977152	12	13	14	15	16	17	18	19	20	21	22	23
5213	0.0558199	0.0325602	0.0120597	0	0	0	0	1	-1	-0.0038757	1.00398	-0.000964949	12	13	14	15	16	17	18	19	20	21	22	23
5223	0.0558024	0.0325271	0.0121071	0	0	0	0	1	-1	-0.00386172	1.00393	-0.000943968	12	13	14	15	16	17	18	19	20	21	22	23
5233	0.0558317	0.0324663	0.0121482	0	0	0	0	1	-1	-0.00386635	1.0039	-0.000927948	12	13	14	15	16	17	18	19	20	21	22	23
5243	0.0558578	0.0324409	0.0122433	0	0	0	0	1	-1	-0.00389725	1.00389	-0.00091844	12	13	14	15	16	17	18	19	20	21	22	23
5253	0.0558841	0.0324949	0.0123564	0	0	0	0	1	-1	-0.00391443	1.00387	-0.000905184	12	13	14	15	16	17	18	19	20	21	22	23
5263	0.0559443	0.0324807	0.0123974	0	0	0	0	1	-1	-0.00390424	1.00383	-0.000887019	12	13	14	15	16	17	18	19	20	21	22	23
5273	0.0559334	0.0324289	0.012412	0	0	0	0	1	-1	-0.0039579	1.00387	-0.00089775	12	13	14	15	16	17	18	19	20	21	22	23
5284	0.0558857	0.0325089	0.0124321	0	0	0	0	1	-1	-0.00395725	1.00383	-0.000880624	12	13	14	15	16	17	18	19	20	21	22	23
5294	0.0559183	0.0324855	0.0124891	0	0	0	0	1	-1	-0.00395991	1.0038	-0.000864873	12	13	14	15	16	17	18	19	20	21	22	23
5304	0.0559164	0.0324759	0.0125582	0	0	0	0	1	-1	-0.00396595	1.00377	-0.000850478	12	13	14	15	16	17	18	19	20	21	22	23
5314	0.0559383	0.0323894	0.0125634	0	0	0	0	1	-1	-0.00400445	1.00376	-0.000841125	12	13	14	15	16	17	18	19	20	21	22	23
5324	0.0559383	0.0323894	0.0125634	0	0	0	0	1	-1	-0.00406637	1.00381	-0.000852529	12	13	14	15	16	17	18	19	20	21	22	23
5334	0.0559787	0.0324094	0.0125551	0	0	0	0	1	-1	-0.00404645	1.00376	-0.000833152	12	13	14	15	16	17	18	19	20	21	22	23
5344	0.0559432	0.0324337	0.0125285	0	0	0	0	1	-1	-0.00405299	1.00373	-0.000819346	12	13	14	15	16	17	18	19	20	21	22	23
5354	0.0560038	0.0323181	0.0126015	0	0	0	0	1	-1	-0.00405325	1.0037	-0.000803748	12	13	14	15	16	17	18	19	20	21	22	23
5364	0.0560125	0.0323569	0.012622	0	0	0	0	1	-1	-0.00407994	1.00369	-0.000793786	12	13	14	15	16	17	18	19	20	21	22	23
5374	0.0560079	0.0323645	0.0127211	0	0	0	0	1	-1	-0.00415771	1.00374	-0.000807547	12	13	14	15	16	17	18	19	20	21	22	23
5384	0.0559992	0.0323608	0.0127651	0	0	0	0	1	-1	-0.00414095	1.0037	-0.000790728	12	13	14	15	16	17	18	19	20	21	22	23
5394	0.0560406	0.0323639	0.0128133	0	0	0	0	1	-1	-0.00416454	1.00368	-0.000780196	12	13	14	15	16	17	18	19	20	21	22	23
5404	0.0560406	0.0323639	0.0128133	0	0	0	0	1	-1	-0.0041682	1.00365	-0.000766895	12	13	14	15	16	17	18	19	20	21	22	23
5414	0.0559832	0.0324599	0.0129938	0	0	0	0	1	-1	-0.00419072	1.00364	-0.00075742	12	13	14	15	16	17	18	19	20	21	22	23
5425	0.05603	0.0324827	0.0131042	0	0	0	0	1	-1	-0.00425362	1.00368	-0.000767879	12	13	14	15	16	17	18	19	20	21	22	23
5435	0.0559635	0.0324835	0.0131517	0	0	0	0	1	-1	-0.00425353	1.00365	-0.000753597	12	13	14	15	16	17	18	19	20	21	22	23
5445	0.0559635	0.0324835	0.0131517	0	0	0	0	1	-1	-0.0042567	1.00362	-0.000740626	12	13	14	15	16	17	18	19	20	21	22	23
5455	0.0559667	0.0324231	0.0132854	0	0	0	0	1	-1	-0.0042567	1.00362	-0.000740626	12	13	14	15	16	17	18	19	20	21	22	23
5465	0.0559693	0.0323695	0.0132843	0	0	0	0	1	-1	-0.00425347	1.00356	-0.000712238	12	13	14	15	16	17	18	19	20	21	22	23
5475	0.0560101	0.032343	0.0133302	0	0	0	0	1	-1	-0.00425347	1.00356	-0.000712238	12	13	14	15	16	17	18	19	20	21	22	23
5485	0.05598	0.0323616	0.0133806	0	0	0	0	1	-1	-0.00433248	1.00361	-0.000724417	12	13	14	15	16	17	18	19	20	21	22	23
5495	0.0559424	0.0324532	0.0134692	0	0	0	0	1	-1	-0.00434012	1.00355	-0.000697418	12	13	14	15	16	17	18	19	20	21	22	23
5505	0.0559448	0.0324522	0.0135389	0	0	0	0	1	-1	-0.00434012	1.00351	-0.000682376	12	13	14	15	16	17	18	19	20	21	22	23
5515	0.0559479	0.0324177	0.0136163	0	0	0	0	1	-1	-0.00432542	1.00351	-0.000682376	12	13	14	15	16	17	18	19	20	21	22	23
5525	0.0559266	0.0324184	0.013642	0	0	0	0	1	-1	-0.00433398	1.00346	-0.000657053	12	13	14	15	16	17	18	19	20	21	22	23
5535	0.0559514	0.032361	0.0137599	0	0	0	0	1	-1	-0.00441361	1.00351	-0.00066814	12	13	14	15	16	17	18	19	20	21	22	23
5545	0.055835	0.0323512	0.0137881	0	0	0	0	1	-1	-0.0044151	1.00348	-0.000655786	12	13	14	15	16	17	18	19	20	21	22	23
5555	0.0558529	0.0323209	0.0137792	0	0	0	0	1	-1	-0.00439403	1.00344	-0.000639601	12	13	14	15	16	17	18	19	20	21	22	23
5565	0.0558351	0.0323054	0.0137992	0	0	0	0	1	-1	-0.00445005	1.00347	-0.000647123	12	13	14	15	16	17	18	19	20	21	22	23
5576	0.0558126	0.0322705	0.0138226	0	0	0	0	1	-1	-0.00441049	1.00339	-0.000617249	12	13	14	15	16	17	18	19	20	21	22	23
5586	0.0557881	0.0322588	0.0138272	0	0	0	0	1	-1	-0.00449075	1.00344	-0.000627672	12	13	14	15	16	17	18	19	20	21	22	23
5596	0.0557881	0.0322588	0.0138272	0	0	0	0	1	-1	-0.00448557	1.00341	-0.000614174	12	13	14	15	16	17	18	19	20	21	22	23
5606	0.0558028	0.0322663	0.0139275	0	0	0	0	1	-1	-0.00448397	1.00338	-0.000602037	12	13	14	15	16	17	18	19	20	21	22	23
5616	0.0558015	0.0322336	0.013912	0	0	0	0	1	-1	-0.0044756	1.00335	-0.00058815	12	13	14	15	16	17	18	19	20	21	22	23
5626	0.0558015	0.0322336	0.013912	0	0	0	0	1	-1	-0.00453995	1.00339	-0.000596075	12	13	14	15	16	17	18	19	20	21	22	23
5636	0.0558325	0.0322006	0.013947	0	0	0	0	1	-1	-0.00455135	1.00336	-0.000585123	12	13	14	15	16	17	18	19	20	21	22	23
5646	0.0557574	0.0320981	0.0139067	0	0	0	0	1	-1	-0.00457439	1.00335	-0.000576211	12	13	14	15	16	17	18	19	20	21	22	23
5656	0.0557657	0.0321362	0.0139053	0	0	0	0	1	-1	-0.00454196	1.0033	-0.000559889	12	13	14	15	16	17	18	19	20	21	22	23
5666	0.0557657	0.0321362	0.0139053	0	0	0	0	1	-1	-0.00453738	1.00328	-0.000547496	12	13	14	15	16	17	18	19	20	21	22	23
5676	0.0557762	0.0321706	0.0139213	0	0	0	0	1	-1	-0.00460188	1.00331	-0.000554694	12	13	14	15	16	17	18	19	20	21	22	23
5686	0.0558377	0.0321349	0.0138959	0	0	0	0	1	-1	-0.00455215	1.00323	-0.000526148	12	13	14	15	16	17	18	19	20	21	22	23
5696	0.055872	0.0320182	0.0139834	0	0	0	0	1	-1	-0.00460863	1.00327	-0.000532337	12	13	14	15	16	17	18	19	20	21	22	23
5706	0.0558066	0.032053	0.014014	0	0	0	0	1	-1	-0.00460408	1.00324	-0.000520693	12	13	14	15	16	17	18	19	20	21	22	23
5716	0.0558335	0.0320294	0.014095	0	0	0	0	1	-1	-0.00458701	1.0032	-0.00050848	12	13	14	15	16	17	18	19	20	21	22	23
