Time	Roll	Pitch	Yaw	ForceX	ForceY	ForceZ	TorqueRoll	TorquePitch	TorqueYaw	PWM0	PWM1	PWM2	PWM3	PWM4	PWM5	
59	0	1	2	3	4	5	6	7	8	9	10	11	12	13	14
59	0	1	0	3	4	5	6	7	8	9	10	11	12	13	14
70	0.0898857	0.0301241	0	3	4	5	6	7	8	9	10	11	12	13	14
80	0.0898933	0.0301241	0	3	4	5	6	7	8	9	10	11	12	13	14
80	0.0898933	0.0301241	0.046077	3	4	5	6	7	8	9	10	11	12	13	14
90	0.0898558	0.0301379	0.046077	3	4	5	6	7	8	9	10	11	12	13	14
100	0.0899213	0.0301441	0.04629	3	4	5	6	7	8	9	10	11	12	13	14
110	0.0899428	0.0302083	0.0462838	3	4	5	6	7	8	9	10	11	12	13	14
120	0.0899498	0.0302255	0.0462951	3	4	5	6	7	8	9	10	11	12	13	14
130	0.0899469	0.0302734	0.0462764	3	4	5	6	7	8	9	10	11	12	13	14
140	0.0898976	0.0303868	0.0463232	3	4	5	6	7	8	9	10	11	12	13	14
150	0.089931	0.0304081	0.0463586	3	4	5	6	7	8	9	10	11	12	13	14
160	0.0899381	0.0304951	0.046333	3	4	5	6	7	8	9	10	11	12	13	14
170	0.0898717	0.0304971	0.0463654	3	4	5	6	7	8	9	10	11	12	13	14
180	0.0899434	0.0305023	0.0464594	3	4	5	6	7	8	9	10	11	12	13	14
190	0.0899095	0.0305393	0.0464999	3	4	5	6	7	8	9	10	11	12	13	14
200	0.089922	0.0305922	0.0465873	3	4	5	6	7	8	9	10	11	12	13	14
211	0.0898885	0.0306561	0.0465918	3	4	5	6	7	8	9	10	11	12	13	14
221	0.0898357	0.0306417	0.0466304	3	4	5	6	7	8	9	10	11	12	13	14
231	0.0898185	0.0305927	0.046671	3	4	5	6	7	8	9	10	11	12	13	14
241	0.0898218	0.0306265	0.0468313	3	4	5	6	7	8	9	10	11	12	13	14
251	0.0897844	0.0306193	0.0468881	3	4	5	6	7	8	9	10	11	12	13	14
261	0.089791	0.0306213	0.0468901	3	4	5	6	7	8	9	10	11	12	13	14
271	0.0898276	0.0306184	0.0469167	3	4	5	6	7	8	9	10	11	12	13	14
281	0.0898375	0.0306338	0.0468749	3	4	5	6	7	8	9	10	11	12	13	14
291	0.0898423	0.0306651	0.0468569	3	4	5	6	7	8	9	10	11	12	13	14
301	0.0899141	0.0306706	0.0468985	3	4	5	6	7	8	9	10	11	12	13	14
311	0.0899268	0.0307481	0.0468997	3	4	5	6	7	8	9	10	11	12	13	14
321	0.0899197	0.0307112	0.0468839	3	4	5	6	7	8	9	10	11	12	13	14
331	0.0898544	0.0306294	0.0469303	3	4	5	6	7	8	9	10	11	12	13	14
341	0.0898446	0.0306331	0.0469211	3	4	5	6	7	8	9	10	11	12	13	14
352	0.089831	0.0306435	0.0469936	3	4	5	6	7	8	9	10	11	12	13	14
362	0.0898343	0.0306726	0.0470217	3	4	5	6	7	8	9	10	11	12	13	14
372	0.0898723	0.0307428	0.0471284	3	4	5	6	7	8	9	10	11	12	13	14
382	0.0898685	0.0307634	0.0471328	3	4	5	6	7	8	9	10	11	12	13	14
392	0.0898991	0.0308581	0.0471513	3	4	5	6	7	8	9	10	11	12	13	14
402	0.0899261	0.0308933	0.0472207	3	4	5	6	7	8	9	10	11	12	13	14
412	0.0899307	0.0308858	0.0472206	3	4	5	6	7	8	9	10	11	12	13	14
422	0.0898989	0.0308821	0.0471927	3	4	5	6	7	8	9	10	11	12	13	14
432	0.0898612	0.0308665	0.0471751	3	4	5	6	7	8	9	10	11	12	13	14
442	0.0898897	0.0308363	0.0471266	3	4	5	6	7	8	9	10	11	12	13	14
452	0.0899188	0.0308636	0.0470759	3	4	5	6	7	8	9	10	11	12	13	14
462	0.0899312	0.0308767	0.0471488	3	4	5	6	7	8	9	10	11	12	13	14
472	0.0899701	0.0308922	0.0471072	3	4	5	6	7	8	9	10	11	12	13	14
482	0.0899335	0.0309307	0.0471552	3	4	5	6	7	8	9	10	11	12	13	14
492	0.0899801	0.0309052	0.0472121	3	4	5	6	7	8	9	10	11	12	13	14
503	0.0900579	0.0308815	0.0472852	3	4	5	6	7	8	9	10	11	12	13	14
513	0.0900426	0.0308813	0.0472931	3	4	5	6	7	8	9	10	11	12	13	14
523	0.0900657	0.0308859	0.0472966	3	4	5	6	7	8	9	10	11	12	13	14
533	0.0900439	0.030906	0.0473489	3	4	5	6	7	8	9	10	11	12	13	14
543	0.0900252	0.0309097	0.0474682	3	4	5	6	7	8	9	10	11	12	13	14
553	0.0899814	0.0309112	0.0475332	3	4	5	6	7	8	9	10	11	12	13	14
563	0.0899978	0.0308388	0.047492	3	4	5	6	7	8	9	10	11	12	13	14
573	0.0900312	0.0308265	0.0474891	3	4	5	6	7	8	9	10	11	12	13	14
583	0.0900092	0.03083	0.0474778	3	4	5	6	7	8	9	10	11	12	13	14
593	0.0900323	0.0308636	0.0474745	3	4	5	6	7	8	9	10	11	12	13	14
603	0.090113	0.0308796	0.0474466	3	4	5	6	7	8	9	10	11	12	13	14
613	0.0901349	0.0309382	0.0474292	3	4	5	6	7	8	9	10	11	12	13	14
623	0.0901137	0.0309608	0.0473985	3	4	5	6	7	8	9	10	11	12	13	14
633	0.090033	0.0309784	0.0474447	3	4	5	6	7	8	9	10	11	12	13	14
643	0.0899838	0.0309853	0.0474598	3	4	5	6	7	8	9	10	11	12	13	14
654	0.0899768	0.0309467	0.0474713	3	4	5	6	7	8	9	10	11	12	13	14
664	0.0899325	0.0310141	0.0475155	3	4	5	6	7	8	9	10	11	12	13	14
674	0.089978	0.0310129	0.0475267	3	4	5	6	7	8	9	10	11	12	13	14
684	0.0900185	0.0310181	0.0475949	3	4	5	6	7	8	9	10	11	12	13	14
694	0.0901355	0.0310708	0.0477015	3	4	5	6	7	8	9	10	11	12	13	14
704	0.0901983	0.0311934	0.047698	3	4	5	6	7	8	9	10	11	12	13	14
714	0.0902036	0.0312306	0.0476841	3	4	5	6	7	8	9	10	11	12	13	14
724	0.0901947	0.0311898	0.0477181	3	4	5	6	7	8	9	10	11	12	13	14
734	0.0901692	0.0311323	0.0477634	3	4	5	6	7	8	9	10	11	12	13	14
744	0.0900914	0.0310807	0.047753	3	4	5	6	7	8	9	10	11	12	13	14
754	0.0901439	0.0311076	0.0477672	3	4	5	6	7	8	9	10	11	12	13	14
764	0.0901729	0.0311527	0.0477494	3	4	5	6	7	8	9	10	11	12	13	14
774	0.0901301	0.0312059	0.0478124	3	4	5	6	7	8	9	10	11	12	13	14
784	0.0901764	0.0312725	0.0478164	3	4	5	6	7	8	9	10	11	12	13	14
794	0.0902326	0.0313142	0.047846	3	4	5	6	7	8	9	10	11	12	13	14
805	0.0902773	0.0312905	0.0478903	3	4	5	6	7	8	9	10	11	12	13	14
815	0.0903599	0.0313504	0.0479499	3	4	5	6	7	8	9	10	11	12	13	14
825	0.0903904	0.0313453	0.0479743	3	4	5	6	7	8	9	10	11	12	13	14
835	0.0904104	0.0312915	0.0480306	3	4	5	6	7	8	9	10	11	12	13	14
845	0.0904415	0.0312895	0.0480975	3	4	5	6	7	8	9	10	11	12	13	14
855	0.0905287	0.0312407	0.0481654	3	4	5	6	7	8	9	10	11	12	13	14
865	0.0905127	0.0312446	0.0481809	3	4	5	6	7	8	9	10	11	12	13	14
875	0.0905152	0.0312579	0.0481685	3	4	5	6	7	8	9	10	11	12	13	14
885	0.0905081	0.0312792	0.0481931	3	4	5	6	7	8	9	10	11	12	13	14
895	0.090489	0.0313329	0.0482229	3	4	5	6	7	8	9	10	11	12	13	14
905	0.0904933	0.0314356	0.0482438	3	4	5	6	7	8	9	10	11	12	13	14
915	0.0905111	0.0313911	0.0482454	3	4	5	6	7	8	9	10	11	12	13	14
925	0.0891891	0.0314048	0.0482419	3	4	5	6	7	8	9	10	11	12	13	14
935	0.0891302	0.031441	0.0482608	3	4	5	6	7	8	9	10	11	12	13	14
946	0.0891308	0.0313973	0.0483145	3	4	5	6	7	8	9	10	11	12	13	14
956	0.0891404	0.0314026	0.0483316	3	4	5	6	7	8	9	10	11	12	13	14
966	0.0892106	0.0314284	0.0484099	3	4	5	6	7	8	9	10	11	12	13	14
976	0.0892735	0.0314447	0.0484828	3	4	5	6	7	8	9	10	11	12	13	14
986	0.0893189	0.0314718	0.0485709	3	4	5	6	7	8	9	10	11	12	13	14
996	0.0892939	0.031537	0.0486409	3	4	5	6	7	8	9	10	11	12	13	14
1006	0.089336	0.0316579	0.0486258	3	4	5	6	7	8	9	10	11	12	13	14
1016	0.0893078	0.0315867	0.0485619	3	4	5	6	7	8	9	10	11	12	13	14
1026	0.0893436	0.0315928	0.0485426	3	4	5	6	7	8	9	10	11	12	13	14
1036	0.0893466	0.0315846	0.0486014	3	4	5	6	7	8	9	10	11	12	13	14
1046	0.0893651	0.0315641	0.0486217	3	4	5	6	7	8	9	10	11	12	13	14
1056	0.0893762	0.0316026	0.0486511	3	4	5	6	7	8	9	10	11	12	13	14
1066	0.0894073	0.031652	0.0486573	3	4	5	6	7	8	9	10	11	12	13	14
1076	0.0894799	0.0317269	0.0487691	3	4	5	6	7	8	9	10	11	12	13	14
1086	0.0894426	0.0316941	0.0488435	3	4	5	6	7	8	9	10	11	12	13	14
1097	0.0894825	0.0317328	0.0488848	3	4	5	6	7	8	9	10	11	12	13	14
1107	0.0894371	0.0318062	0.0489155	3	4	5	6	7	8	9	10	11	12	13	14
1117	0.0894576	0.0318127	0.0489715	3	4	5	6	7	8	9	10	11	12	13	14
1127	0.0894596	0.0318309	0.049056	3	4	5	6	7	8	9	10	11	12	13	14
1137	0.0894285	0.0318471	0.049109	3	4	5	6	7	8	9	10	11	12	13	14
1147	0.0894241	0.0319277	0.0491637	3	4	5	6	7	8	9	10	11	12	13	14
1157	0.089475	0.0319187	0.0491113	3	4	5	6	7	8	9	10	11	12	13	14
1167	0.0894963	0.0319536	0.0491176	3	4	5	6	7	8	9	10	11	12	13	14
1177	0.0894698	0.0319752	0.0491332	3	4	5	6	7	8	9	10	11	12	13	14
1187	0.0894845	0.0320279	0.0491635	3	4	5	6	7	8	9	10	11	12	13	14
1197	0.0894995	0.0320329	0.0491554	3	4	5	6	7	8	9	10	11	12	13	14
1207	0.0894883	0.0321356	0.0492225	3	4	5	6	7	8	9	10	11	12	13	14
1217	0.0894468	0.0321625	0.0491863	3	4	5	6	7	8	9	10	11	12	13	14
1227	0.089415	0.0321309	0.0492051	3	4	5	6	7	8	9	10	11	12	13	14
1238	0.0893735	0.0321458	0.0492493	3	4	5	6	7	8	9	10	11	12	13	14
1248	0.0893333	0.0321771	0.049319	3	4	5	6	7	8	9	10	11	12	13	14
1258	0.0893533	0.0321983	0.0493159	3	4	5	6	7	8	9	10	11	12	13	14
1268	0.0893562	0.0321898	0.0493438	3	4	5	6	7	8	9	10	11	12	13	14
1278	0.0894575	0.0322291	0.049479	3	4	5	6	7	8	9	10	11	12	13	14
1288	0.0894658	0.0322251	0.0495264	3	4	5	6	7	8	9	10	11	12	13	14
1298	0.0894445	0.0322481	0.0496288	3	4	5	6	7	8	9	10	11	12	13	14
1308	0.0894951	0.0322884	0.04962	3	4	5	6	7	8	9	10	11	12	13	14
1318	0.0895495	0.0322701	0.0495542	3	4	5	6	7	8	9	10	11	12	13	14
1328	0.0895625	0.0322387	0.0495337	3	4	5	6	7	8	9	10	11	12	13	14
1338	0.0895496	0.0321539	0.0495935	3	4	5	6	7	8	9	10	11	12	13	14
1348	0.0895544	0.0321633	0.0495806	3	4	5	6	7	8	9	10	11	12	13	14
1358	0.0895628	0.0321953	0.0496354	3	4	5	6	7	8	9	10	11	12	13	14
1368	0.089503	0.0322063	0.0496562	3	4	5	6	7	8	9	10	11	12	13	14
1379	0.0895357	0.0321957	0.0496588	3	4	5	6	7	8	9	10	11	12	13	14
1389	0.0895904	0.0321855	0.0497419	3	4	5	6	7	8	9	10	11	12	13	14
1399	0.0895605	0.0322154	0.0498149	3	4	5	6	7	8	9	10	11	12	13	14
1409	0.089584	0.0322936	0.0499065	3	4	5	6	7	8	9	10	11	12	13	14
1419	0.0895234	0.0322743	0.0500371	3	4	5	6	7	8	9	10	11	12	13	14
1429	0.0894598	0.0322587	0.0500695	3	4	5	6	7	8	9	10	11	12	13	14
1439	0.0895178	0.032205	0.0501091	3	4	5	6	7	8	9	10	11	12	13	14
1449	0.0895401	0.0322318	0.0501165	3	4	5	6	7	8	9	10	11	12	13	14
1459	0.0895686	0.0322018	0.0501182	3	4	5	6	7	8	9	10	11	12	13	14
1469	0.0896133	0.0322282	0.050123	3	4	5	6	7	8	9	10	11	12	13	14
1479	0.089658	0.0323103	0.0501644	3	4	5	6	7	8	9	10	11	12	13	14
1489	0.0896617	0.0323915	0.0502114	3	4	5	6	7	8	9	10	11	12	13	14
1499	0.0896839	0.0323954	0.0502221	3	4	5	6	7	8	9	10	11	12	13	14
1509	0.0897058	0.03242	0.0503356	3	4	5	6	7	8	9	10	11	12	13	14
1520	0.0896683	0.0323518	0.0503286	3	4	5	6	7	8	9	10	11	12	13	14
1530	0.0896319	0.0323971	0.050425	3	4	5	6	7	8	9	10	11	12	13	14
1540	0.0895931	0.0324209	0.0504973	3	4	5	6	7	8	9	10	11	12	13	14
1550	0.089517	0.0324796	0.0505401	3	4	5	6	7	8	9	10	11	12	13	14
1560	0.0895263	0.0324729	0.0505933	3	4	5	6	7	8	9	10	11	12	13	14
1570	0.0894882	0.032498	0.0506611	3	4	5	6	7	8	9	10	11	12	13	14
1580	0.0895132	0.0324907	0.0508241	3	4	5	6	7	8	9	10	11	12	13	14
1590	0.0895459	0.0325032	0.050875	3	4	5	6	7	8	9	10	11	12	13	14
1600	0.0895716	0.0325447	0.0509023	3	4	5	6	7	8	9	10	11	12	13	14
1610	0.0895852	0.0325776	0.05079	3	4	5	6	7	8	9	10	11	12	13	14
1620	0.0895752	0.0325178	0.0508056	3	4	5	6	7	8	9	10	11	12	13	14
1630	0.0896382	0.0325489	0.0508244	3	4	5	6	7	8	9	10	11	12	13	14
1640	0.0896271	0.0325445	0.0508224	3	4	5	6	7	8	9	10	11	12	13	14
1650	0.089698	0.0325845	0.0508358	3	4	5	6	7	8	9	10	11	12	13	14
1661	0.0897402	0.0326407	0.0508319	3	4	5	6	7	8	9	10	11	12	13	14
1671	0.08977	0.0326928	0.0508515	3	4	5	6	7	8	9	10	11	12	13	14
1681	0.0897931	0.0326907	0.0509327	3	4	5	6	7	8	9	10	11	12	13	14
1691	0.0897949	0.0327087	0.0509435	3	4	5	6	7	8	9	10	11	12	13	14
1701	0.0899001	0.0328025	0.051015	3	4	5	6	7	8	9	10	11	12	13	14
1711	0.0899809	0.0328368	0.0510819	3	4	5	6	7	8	9	10	11	12	13	14
1721	0.0899769	0.0328367	0.0510491	3	4	5	6	7	8	9	10	11	12	13	14
1731	0.0899654	0.0328374	0.0512231	3	4	5	6	7	8	9	10	11	12	13	14
1741	0.0899901	0.0328688	0.0512739	3	4	5	6	7	8	9	10	11	12	13	14
1751	0.089971	0.0328649	0.0512728	3	4	5	6	7	8	9	10	11	12	13	14
1761	0.0900007	0.0329127	0.0512772	3	4	5	6	7	8	9	10	11	12	13	14
1771	0.0899842	0.0329352	0.0513259	3	4	5	6	7	8	9	10	11	12	13	14
1781	0.089998	0.0329898	0.0513585	3	4	5	6	7	8	9	10	11	12	13	14
1791	0.0900684	0.0330199	0.0513711	3	4	5	6	7	8	9	10	11	12	13	14
1801	0.0901116	0.0330388	0.0514244	3	4	5	6	7	8	9	10	11	12	13	14
1812	0.0901658	0.0330856	0.0514279	3	4	5	6	7	8	9	10	11	12	13	14
1822	0.0901533	0.0330249	0.0514814	3	4	5	6	7	8	9	10	11	12	13	14
1832	0.0901727	0.0330521	0.0515528	3	4	5	6	7	8	9	10	11	12	13	14
1842	0.0901787	0.033039	0.051591	3	4	5	6	7	8	9	10	11	12	13	14
1852	0.0901696	0.0330714	0.0516363	3	4	5	6	7	8	9	10	11	12	13	14
1862	0.0901411	0.0331465	0.0516242	3	4	5	6	7	8	9	10	11	12	13	14
1872	0.090091	0.0331375	0.051636	3	4	5	6	7	8	9	10	11	12	13	14
1882	0.0900892	0.0331207	0.0516499	3	4	5	6	7	8	9	10	11	12	13	14
1892	0.0901356	0.0332024	0.0516994	3	4	5	6	7	8	9	10	11	12	13	14
1902	0.0901586	0.0332629	0.0517346	3	4	5	6	7	8	9	10	11	12	13	14
1912	0.0901229	0.0332177	0.051723	3	4	5	6	7	8	9	10	11	12	13	14
1922	0.0901916	0.03327	0.0517166	3	4	5	6	7	8	9	10	11	12	13	14
1932	0.0901529	0.0332438	0.0517368	3	4	5	6	7	8	9	10	11	12	13	14
1943	0.0902038	0.0332878	0.0517735	3	4	5	6	7	8	9	10	11	12	13	14
1953	0.0901543	0.033309	0.0518206	3	4	5	6	7	8	9	10	11	12	13	14
1963	0.0901884	0.0332844	0.0517679	3	4	5	6	7	8	9	10	11	12	13	14
1973	0.0902301	0.0333329	0.051809	3	4	5	6	7	8	9	10	11	12	13	14
1983	0.0902923	0.0333734	0.0518489	3	4	5	6	7	8	9	10	11	12	13	14
1993	0.0902782	0.0333753	0.0519164	3	4	5	6	7	8	9	10	11	12	13	14
2003	0.0903376	0.0334607	0.0519147	3	4	5	6	7	8	9	10	11	12	13	14
2013	0.0903997	0.0334307	0.051959	3	4	5	6	7	8	9	10	11	12	13	14
2023	0.0904021	0.0334456	0.0520228	3	4	5	6	7	8	9	10	11	12	13	14
2033	0.0904225	0.0334168	0.0521268	3	4	5	6	7	8	9	10	11	12	13	14
2043	0.0904256	0.033407	0.0522119	3	4	5	6	7	8	9	10	11	12	13	14
2053	0.0903595	0.033381	0.0521628	3	4	5	6	7	8	9	10	11	12	13	14
2063	0.0878497	0.0333423	0.052187	3	4	5	6	7	8	9	10	11	12	13	14
2073	0.0878909	0.0333663	0.0522471	3	4	5	6	7	8	9	10	11	12	13	14
2084	0.0879445	0.0334579	0.0521858	3	4	5	6	7	8	9	10	11	12	13	14
2094	0.0879535	0.033492	0.0521609	3	4	5	6	7	8	9	10	11	12	13	14
2104	0.0880252	0.0335505	0.0521838	3	4	5	6	7	8	9	10	11	12	13	14
2114	0.0880871	0.033577	0.0522078	3	4	5	6	7	8	9	10	11	12	13	14
2124	0.0880421	0.0335714	0.0522883	3	4	5	6	7	8	9	10	11	12	13	14
2134	0.0879819	0.0336182	0.0522469	3	4	5	6	7	8	9	10	11	12	13	14
2144	0.0879924	0.0335842	0.0523294	3	4	5	6	7	8	9	10	11	12	13	14
2154	0.087984	0.033536	0.0523628	3	4	5	6	7	8	9	10	11	12	13	14
2164	0.0880449	0.0335499	0.0524448	3	4	5	6	7	8	9	10	11	12	13	14
2174	0.0880793	0.0335913	0.0525116	3	4	5	6	7	8	9	10	11	12	13	14
2184	0.0881441	0.0336406	0.0525986	3	4	5	6	7	8	9	10	11	12	13	14
2194	0.0882053	0.0337281	0.0526591	3	4	5	6	7	8	9	10	11	12	13	14
2204	0.0883288	0.0337661	0.0526721	3	4	5	6	7	8	9	10	11	12	13	14
2214	0.0883051	0.0337342	0.0527215	3	4	5	6	7	8	9	10	11	12	13	14
2224	0.0882629	0.0336899	0.052785	3	4	5	6	7	8	9	10	11	12	13	14
2235	0.0882366	0.0337241	0.0527965	3	4	5	6	7	8	9	10	11	12	13	14
2245	0.0882942	0.0337141	0.0528409	3	4	5	6	7	8	9	10	11	12	13	14
2255	0.0882516	0.0337634	0.0528278	3	4	5	6	7	8	9	10	11	12	13	14
2265	0.0882545	0.0337788	0.0528801	3	4	5	6	7	8	9	10	11	12	13	14
2275	0.0883308	0.03382	0.0528591	3	4	5	6	7	8	9	10	11	12	13	14
2285	0.0883546	0.0338483	0.0528898	3	4	5	6	7	8	9	10	11	12	13	14
2295	0.0883919	0.0338825	0.0529395	3	4	5	6	7	8	9	10	11	12	13	14
2305	0.088406	0.0339431	0.0529567	3	4	5	6	7	8	9	10	11	12	13	14
2315	0.0883933	0.0338984	0.0529662	3	4	5	6	7	8	9	10	11	12	13	14
2325	0.0883573	0.0339072	0.0531104	3	4	5	6	7	8	9	10	11	12	13	14
2335	0.0884226	0.0339212	0.0531397	3	4	5	6	7	8	9	10	11	12	13	14
2345	0.0884356	0.0339497	0.0531908	3	4	5	6	7	8	9	10	11	12	13	14
2355	0.0884416	0.0340201	0.0532279	3	4	5	6	7	8	9	10	11	12	13	14
2366	0.0885058	0.0341043	0.0532898	3	4	5	6	7	8	9	10	11	12	13	14
2376	0.0885905	0.0342151	0.0532792	3	4	5	6	7	8	9	10	11	12	13	14
2386	0.0885709	0.0342119	0.0533025	3	4	5	6	7	8	9	10	11	12	13	14
2396	0.0885828	0.0342826	0.0532379	3	4	5	6	7	8	9	10	11	12	13	14
2406	0.088701	0.0343399	0.0532963	3	4	5	6	7	8	9	10	11	12	13	14
2416	0.0886707	0.0343165	0.0532881	3	4	5	6	7	8	9	10	11	12	13	14
2426	0.0886803	0.0343703	0.0533326	3	4	5	6	7	8	9	10	11	12	13	14
2436	0.0886391	0.0343699	0.0533737	3	4	5	6	7	8	9	10	11	12	13	14
2446	0.0886018	0.0343479	0.0534745	3	4	5	6	7	8	9	10	11	12	13	14
2456	0.0885492	0.0343886	0.0535056	3	4	5	6	7	8	9	10	11	12	13	14
2466	0.0885449	0.0343737	0.0535435	3	4	5	6	7	8	9	10	11	12	13	14
2476	0.0886245	0.0344541	0.0536524	3	4	5	6	7	8	9	10	11	12	13	14
2486	0.0886664	0.0344793	0.0536934	3	4	5	6	7	8	9	10	11	12	13	14
2496	0.0887344	0.0345243	0.0538069	3	4	5	6	7	8	9	10	11	12	13	14
2507	0.0887818	0.0345053	0.0538421	3	4	5	6	7	8	9	10	11	12	13	14
2517	0.0888334	0.0344561	0.0538663	3	4	5	6	7	8	9	10	11	12	13	14
2527	0.0888279	0.0344697	0.0539569	3	4	5	6	7	8	9	10	11	12	13	14
2537	0.0888683	0.034504	0.0540022	3	4	5	6	7	8	9	10	11	12	13	14
2547	0.088879	0.0344848	0.0539986	3	4	5	6	7	8	9	10	11	12	13	14
2557	0.0889282	0.0345254	0.0540511	3	4	5	6	7	8	9	10	11	12	13	14
2567	0.0890084	0.0345781	0.0541037	3	4	5	6	7	8	9	10	11	12	13	14
2577	0.0890982	0.0345538	0.0541246	3	4	5	6	7	8	9	10	11	12	13	14
2587	0.0891078	0.0345875	0.0541163	3	4	5	6	7	8	9	10	11	12	13	14
2597	0.0891432	0.0346877	0.0541414	3	4	5	6	7	8	9	10	11	12	13	14
2607	0.0891819	0.0348193	0.0541708	3	4	5	6	7	8	9	10	11	12	13	14
2617	0.0892134	0.0348134	0.0543438	3	4	5	6	7	8	9	10	11	12	13	14
2627	0.0892664	0.0348224	0.0544822	3	4	5	6	7	8	9	10	11	12	13	14
2637	0.089289	0.0348224	0.0545211	3	4	5	6	7	8	9	10	11	12	13	14
2648	0.0893274	0.0348805	0.0546234	3	4	5	6	7	8	9	10	11	12	13	14
2658	0.0893781	0.0348515	0.0546403	3	4	5	6	7	8	9	10	11	12	13	14
2668	0.0893907	0.034856	0.0546619	3	4	5	6	7	8	9	10	11	12	13	14
2678	0.0893896	0.0348412	0.0546434	3	4	5	6	7	8	9	10	11	12	13	14
2688	0.0895145	0.0348618	0.0546728	3	4	5	6	7	8	9	10	11	12	13	14
2698	0.0895686	0.0348975	0.0547061	3	4	5	6	7	8	9	10	11	12	13	14
2708	0.0895981	0.0349179	0.0547348	3	4	5	6	7	8	9	10	11	12	13	14
2718	0.0895962	0.0349001	0.0547857	3	4	5	6	7	8	9	10	11	12	13	14
2728	0.0896271	0.0349261	0.0548316	3	4	5	6	7	8	9	10	11	12	13	14
2738	0.0896439	0.034928	0.0548538	3	4	5	6	7	8	9	10	11	12	13	14
2748	0.0897113	0.0348958	0.0549258	3	4	5	6	7	8	9	10	11	12	13	14
2758	0.0896988	0.0349037	0.0549881	3	4	5	6	7	8	9	10	11	12	13	14
2768	0.0897007	0.0348905	0.0550299	3	4	5	6	7	8	9	10	11	12	13	14
2778	0.0897853	0.0349344	0.0551183	3	4	5	6	7	8	9	10	11	12	13	14
2789	0.0898585	0.0350202	0.0551775	3	4	5	6	7	8	9	10	11	12	13	14
2799	0.0898765	0.0350901	0.0552183	3	4	5	6	7	8	9	10	11	12	13	14
2809	0.0900718	0.0350401	0.0551773	3	4	5	6	7	8	9	10	11	12	13	14
2819	0.0901032	0.0350671	0.0551561	3	4	5	6	7	8	9	10	11	12	13	14
2829	0.0900602	0.0351004	0.055176	3	4	5	6	7	8	9	10	11	12	13	14
2839	0.0901273	0.0350804	0.055155	3	4	5	6	7	8	9	10	11	12	13	14
2849	0.0901429	0.0351058	0.0551207	3	4	5	6	7	8	9	10	11	12	13	14
2859	0.0901851	0.0350714	0.0551274	3	4	5	6	7	8	9	10	11	12	13	14
2869	0.0902253	0.0350413	0.0551088	3	4	5	6	7	8	9	10	11	12	13	14
2879	0.0903375	0.0350444	0.0551462	3	4	5	6	7	8	9	10	11	12	13	14
2889	0.0903777	0.0350703	0.0551846	3	4	5	6	7	8	9	10	11	12	13	14
2899	0.0904404	0.0350808	0.0552432	3	4	5	6	7	8	9	10	11	12	13	14
2909	0.0904685	0.0350842	0.0552871	3	4	5	6	7	8	9	10	11	12	13	14
2919	0.0906175	0.0351603	0.0554131	3	4	5	6	7	8	9	10	11	12	13	14
2930	0.0906677	0.0351141	0.0554436	3	4	5	6	7	8	9	10	11	12	13	14
2940	0.0907542	0.0350928	0.0554764	3	4	5	6	7	8	9	10	11	12	13	14
2950	0.0907988	0.0351044	0.0554543	3	4	5	6	7	8	9	10	11	12	13	14
2960	0.0908636	0.0351738	0.0554502	3	4	5	6	7	8	9	10	11	12	13	14
2970	0.0908761	0.0351997	0.0555154	3	4	5	6	7	8	9	10	11	12	13	14
2980	0.0908356	0.0351766	0.0554692	3	4	5	6	7	8	9	10	11	12	13	14
2990	0.0909089	0.0351701	0.0555058	3	4	5	6	7	8	9	10	11	12	13	14
3000	0.0909606	0.0352717	0.05545	3	4	5	6	7	8	9	10	11	12	13	14
3010	0.0910644	0.0353201	0.055471	3	4	5	6	7	8	9	10	11	12	13	14
3020	0.0911496	0.035345	0.0554969	3	4	5	6	7	8	9	10	11	12	13	14
3030	0.0911881	0.0353701	0.055551	3	4	5	6	7	8	9	10	11	12	13	14
3040	0.0912716	0.0353785	0.0555802	3	4	5	6	7	8	9	10	11	12	13	14
3050	0.0913072	0.0354029	0.0556571	3	4	5	6	7	8	9	10	11	12	13	14
3060	0.0913654	0.0354528	0.055718	3	4	5	6	7	8	9	10	11	12	13	14
3070	0.0914036	0.0355158	0.0558005	3	4	5	6	7	8	9	10	11	12	13	14
3081	0.0914223	0.035565	0.0558778	3	4	5	6	7	8	9	10	11	12	13	14
3091	0.0914819	0.035613	0.0559664	3	4	5	6	7	8	9	10	11	12	13	14
3101	0.0914791	0.0356305	0.0560207	3	4	5	6	7	8	9	10	11	12	13	14
3111	0.0915847	0.0357186	0.0559992	3	4	5	6	7	8	9	10	11	12	13	14
3121	0.0916926	0.0357743	0.0560276	3	4	5	6	7	8	9	10	11	12	13	14
3131	0.0916881	0.0357461	0.0561103	3	4	5	6	7	8	9	10	11	12	13	14
3141	0.0917906	0.0358209	0.0561721	3	4	5	6	7	8	9	10	11	12	13	14
3151	0.0918153	0.0358826	0.0562216	3	4	5	6	7	8	9	10	11	12	13	14
3161	0.0919166	0.035809	0.0562435	3	4	5	6	7	8	9	10	11	12	13	14
3171	0.091996	0.035798	0.056289	3	4	5	6	7	8	9	10	11	12	13	14
3181	0.0920686	0.0357989	0.0563602	3	4	5	6	7	8	9	10	11	12	13	14
3191	0.0909453	0.0358843	0.0564101	3	4	5	6	7	8	9	10	11	12	13	14
3201	0.0910025	0.0358637	0.0564564	3	4	5	6	7	8	9	10	11	12	13	14
3211	0.0911089	0.0359057	0.0565476	3	4	5	6	7	8	9	10	11	12	13	14
3222	0.0911147	0.0359412	0.0566293	3	4	5	6	7	8	9	10	11	12	13	14
3232	0.0911831	0.0359206	0.0567161	3	4	5	6	7	8	9	10	11	12	13	14
3242	0.0912029	0.0359041	0.0567771	3	4	5	6	7	8	9	10	11	12	13	14
3252	0.0912813	0.0359491	0.0568114	3	4	5	6	7	8	9	10	11	12	13	14
3262	0.0913737	0.0360074	0.0568183	3	4	5	6	7	8	9	10	11	12	13	14
3272	0.0914042	0.0360099	0.0568909	3	4	5	6	7	8	9	10	11	12	13	14
3282	0.091556	0.0360165	0.0568965	3	4	5	6	7	8	9	10	11	12	13	14
3292	0.09169	0.0360299	0.0568699	3	4	5	6	7	8	9	10	11	12	13	14
3302	0.0917596	0.0360581	0.0568446	3	4	5	6	7	8	9	10	11	12	13	14
3312	0.0919023	0.0361268	0.0568843	3	4	5	6	7	8	9	10	11	12	13	14
3322	0.0919089	0.0361378	0.0569514	3	4	5	6	7	8	9	10	11	12	13	14
3332	0.0919301	0.0361232	0.0570069	3	4	5	6	7	8	9	10	11	12	13	14
3342	0.0920143	0.0361687	0.0570829	3	4	5	6	7	8	9	10	11	12	13	14
3352	0.0920173	0.0361769	0.0571065	3	4	5	6	7	8	9	10	11	12	13	14
3363	0.0919903	0.0361804	0.0571648	3	4	5	6	7	8	9	10	11	12	13	14
3373	0.0920306	0.0361636	0.0571745	3	4	5	6	7	8	9	10	11	12	13	14
3383	0.0921441	0.0362607	0.0572989	3	4	5	6	7	8	9	10	11	12	13	14
3393	0.0921498	0.0363331	0.0573743	3	4	5	6	7	8	9	10	11	12	13	14
3403	0.0922552	0.0362745	0.0573657	3	4	5	6	7	8	9	10	11	12	13	14
3413	0.092341	0.0363059	0.0573419	3	4	5	6	7	8	9	10	11	12	13	14
3423	0.0923712	0.0363791	0.0572943	3	4	5	6	7	8	9	10	11	12	13	14
3433	0.0923115	0.036358	0.0573418	3	4	5	6	7	8	9	10	11	12	13	14
3443	0.0922917	0.0364342	0.0573772	3	4	5	6	7	8	9	10	11	12	13	14
3453	0.0923834	0.0364338	0.0574149	3	4	5	6	7	8	9	10	11	12	13	14
3463	0.0924117	0.0364678	0.0574244	3	4	5	6	7	8	9	10	11	12	13	14
3473	0.0924395	0.0365747	0.0574483	3	4	5	6	7	8	9	10	11	12	13	14
3483	0.0924036	0.0366154	0.0574384	3	4	5	6	7	8	9	10	11	12	13	14
3493	0.092447	0.0366368	0.0575067	3	4	5	6	7	8	9	10	11	12	13	14
3504	0.092478	0.0366679	0.0575551	3	4	5	6	7	8	9	10	11	12	13	14
3514	0.0925539	0.0367791	0.0576012	3	4	5	6	7	8	9	10	11	12	13	14
3524	0.0926355	0.0367823	0.0576907	3	4	5	6	7	8	9	10	11	12	13	14
3534	0.0927057	0.0367904	0.0577881	3	4	5	6	7	8	9	10	11	12	13	14
3544	0.0927548	0.0367899	0.0578709	3	4	5	6	7	8	9	10	11	12	13	14
3554	0.0928386	0.0368035	0.0578335	3	4	5	6	7	8	9	10	11	12	13	14
3564	0.0929113	0.0368564	0.057814	3	4	5	6	7	8	9	10	11	12	13	14
3574	0.093028	0.0369731	0.0577604	3	4	5	6	7	8	9	10	11	12	13	14
3584	0.0930451	0.0370808	0.0577081	3	4	5	6	7	8	9	10	11	12	13	14
3594	0.0930369	0.0371294	0.0577224	3	4	5	6	7	8	9	10	11	12	13	14
3604	0.0931517	0.0371442	0.0577197	3	4	5	6	7	8	9	10	11	12	13	14
3614	0.0932639	0.0372072	0.0577881	3	4	5	6	7	8	9	10	11	12	13	14
3624	0.0933392	0.0372411	0.0578831	3	4	5	6	7	8	9	10	11	12	13	14
3634	0.0933201	0.0372578	0.0579339	3	4	5	6	7	8	9	10	11	12	13	14
3645	0.0933158	0.0373286	0.0579357	3	4	5	6	7	8	9	10	11	12	13	14
3655	0.0933386	0.0372946	0.0579679	3	4	5	6	7	8	9	10	11	12	13	14
3665	0.0933692	0.0373292	0.0579479	3	4	5	6	7	8	9	10	11	12	13	14
3675	0.0934574	0.0373255	0.0580585	3	4	5	6	7	8	9	10	11	12	13	14
3685	0.0935154	0.0373169	0.0581453	3	4	5	6	7	8	9	10	11	12	13	14
3695	0.0935405	0.0373398	0.0582363	3	4	5	6	7	8	9	10	11	12	13	14
3705	0.0935888	0.0374127	0.0582481	3	4	5	6	7	8	9	10	11	12	13	14
3715	0.0936789	0.0374913	0.0582299	3	4	5	6	7	8	9	10	11	12	13	14
3725	0.0937449	0.0374757	0.0582119	3	4	5	6	7	8	9	10	11	12	13	14
3735	0.093803	0.0374291	0.0582414	3	4	5	6	7	8	9	10	11	12	13	14
3745	0.0938741	0.037458	0.0582751	3	4	5	6	7	8	9	10	11	12	13	14
3755	0.0939083	0.0374013	0.0583398	3	4	5	6	7	8	9	10	11	12	13	14
3765	0.0939378	0.0373785	0.0583376	3	4	5	6	7	8	9	10	11	12	13	14
3775	0.0940266	0.0374156	0.0583803	3	4	5	6	7	8	9	10	11	12	13	14
3786	0.0940108	0.0373953	0.0584016	3	4	5	6	7	8	9	10	11	12	13	14
3796	0.0940373	0.0374521	0.0584831	3	4	5	6	7	8	9	10	11	12	13	14
3806	0.0941094	0.0374592	0.0585083	3	4	5	6	7	8	9	10	11	12	13	14
3816	0.0942724	0.0374346	0.0585625	3	4	5	6	7	8	9	10	11	12	13	14
3826	0.094301	0.0374419	0.0586313	3	4	5	6	7	8	9	10	11	12	13	14
3836	0.0943568	0.0374519	0.0588016	3	4	5	6	7	8	9	10	11	12	13	14
3846	0.0943978	0.0374935	0.05895	3	4	5	6	7	8	9	10	11	12	13	14
3856	0.0943633	0.0374942	0.0589007	3	4	5	6	7	8	9	10	11	12	13	14
3866	0.094417	0.0375113	0.0588858	3	4	5	6	7	8	9	10	11	12	13	14
3876	0.0943948	0.0375881	0.0589253	3	4	5	6	7	8	9	10	11	12	13	14
3886	0.0944745	0.0375859	0.0589585	3	4	5	6	7	8	9	10	11	12	13	14
3896	0.0945474	0.0375867	0.0589849	3	4	5	6	7	8	9	10	11	12	13	14
3906	0.0945804	0.0376239	0.0590491	3	4	5	6	7	8	9	10	11	12	13	14
3916	0.0946579	0.0376954	0.0590586	3	4	5	6	7	8	9	10	11	12	13	14
3926	0.0947004	0.0377569	0.0590763	3	4	5	6	7	8	9	10	11	12	13	14
3937	0.0947084	0.0377303	0.059078	3	4	5	6	7	8	9	10	11	12	13	14
3947	0.0947592	0.0377052	0.0591161	3	4	5	6	7	8	9	10	11	12	13	14
3957	0.0948378	0.0376521	0.0592642	3	4	5	6	7	8	9	10	11	12	13	14
3967	0.0948637	0.037673	0.0593534	3	4	5	6	7	8	9	10	11	12	13	14
3977	0.0948764	0.0376887	0.0594518	3	4	5	6	7	8	9	10	11	12	13	14
3987	0.0949333	0.0377879	0.0596064	3	4	5	6	7	8	9	10	11	12	13	14
3997	0.0949737	0.0378045	0.0596481	3	4	5	6	7	8	9	10	11	12	13	14
4007	0.0951249	0.03786	0.0597351	3	4	5	6	7	8	9	10	11	12	13	14
4017	0.0952056	0.037872	0.0597654	3	4	5	6	7	8	9	10	11	12	13	14
4027	0.095268	0.0378812	0.0597903	3	4	5	6	7	8	9	10	11	12	13	14
4037	0.095268	0.0378499	0.0598002	3	4	5	6	7	8	9	10	11	12	13	14
4047	0.0953235	0.0378688	0.0598353	3	4	5	6	7	8	9	10	11	12	13	14
4057	0.0953574	0.0378581	0.0598132	3	4	5	6	7	8	9	10	11	12	13	14
4068	0.0954145	0.0378375	0.0598354	3	4	5	6	7	8	9	10	11	12	13	14
4078	0.0954654	0.0378405	0.0599218	3	4	5	6	7	8	9	10	11	12	13	14
4088	0.095581	0.037869	0.059971	3	4	5	6	7	8	9	10	11	12	13	14
4098	0.0956193	0.0378708	0.0600086	3	4	5	6	7	8	9	10	11	12	13	14
4108	0.0956691	0.0378701	0.0600382	3	4	5	6	7	8	9	10	11	12	13	14
4118	0.0957246	0.0379286	0.0600808	3	4	5	6	7	8	9	10	11	12	13	14
4128	0.0956985	0.0379915	0.0601909	3	4	5	6	7	8	9	10	11	12	13	14
4138	0.0957615	0.0379956	0.0602513	3	4	5	6	7	8	9	10	11	12	13	14
4148	0.0958287	0.0379608	0.0602708	3	4	5	6	7	8	9	10	11	12	13	14
4158	0.095893	0.037989	0.0602863	3	4	5	6	7	8	9	10	11	12	13	14
4168	0.0959399	0.0379907	0.0602299	3	4	5	6	7	8	9	10	11	12	13	14
4178	0.0960249	0.037957	0.0602315	3	4	5	6	7	8	9	10	11	12	13	14
4188	0.0961015	0.0379587	0.0602546	3	4	5	6	7	8	9	10	11	12	13	14
4198	0.0961932	0.0380159	0.0602131	3	4	5	6	7	8	9	10	11	12	13	14
4209	0.0962352	0.0380386	0.0602447	3	4	5	6	7	8	9	10	11	12	13	14
4219	0.0963277	0.0380419	0.0602734	3	4	5	6	7	8	9	10	11	12	13	14
4229	0.0963927	0.0380016	0.0602996	3	4	5	6	7	8	9	10	11	12	13	14
4239	0.0964653	0.0379764	0.0602849	3	4	5	6	7	8	9	10	11	12	13	14
4249	0.0965698	0.0380248	0.0603695	3	4	5	6	7	8	9	10	11	12	13	14
4259	0.0966271	0.0380701	0.060401	3	4	5	6	7	8	9	10	11	12	13	14
4269	0.0965998	0.0381267	0.0604133	3	4	5	6	7	8	9	10	11	12	13	14
4279	0.096732	0.0381485	0.0604514	3	4	5	6	7	8	9	10	11	12	13	14
4289	0.0967657	0.0381567	0.0605139	3	4	5	6	7	8	9	10	11	12	13	14
4299	0.0968592	0.0381518	0.0605621	3	4	5	6	7	8	9	10	11	12	13	14
4309	0.0969323	0.0381385	0.0605632	3	4	5	6	7	8	9	10	11	12	13	14
4319	0.0970317	0.0381184	0.0605748	3	4	5	6	7	8	9	10	11	12	13	14
4329	0.0970507	0.0381468	0.0606501	3	4	5	6	7	8	9	10	11	12	13	14
4339	0.0958502	0.0381897	0.0606857	3	4	5	6	7	8	9	10	11	12	13	14
4350	0.0959223	0.0381836	0.0607099	3	4	5	6	7	8	9	10	11	12	13	14
4360	0.0960854	0.0381717	0.0607936	3	4	5	6	7	8	9	10	11	12	13	14
4370	0.0961229	0.0381904	0.0608163	3	4	5	6	7	8	9	10	11	12	13	14
4380	0.0960971	0.0382644	0.0608649	3	4	5	6	7	8	9	10	11	12	13	14
4390	0.0962598	0.0383054	0.0609148	3	4	5	6	7	8	9	10	11	12	13	14
4400	0.0963818	0.038358	0.0610522	3	4	5	6	7	8	9	10	11	12	13	14
4410	0.09647	0.0384115	0.0610998	3	4	5	6	7	8	9	10	11	12	13	14
4420	0.09652	0.0383589	0.0611871	3	4	5	6	7	8	9	10	11	12	13	14
4430	0.0965073	0.0384297	0.0612929	3	4	5	6	7	8	9	10	11	12	13	14
4440	0.0965308	0.0383415	0.0613562	3	4	5	6	7	8	9	10	11	12	13	14
4450	0.0966216	0.0382836	0.0613432	3	4	5	6	7	8	9	10	11	12	13	14
4460	0.0966659	0.0383029	0.0613181	3	4	5	6	7	8	9	10	11	12	13	14
4470	0.0967496	0.0383219	0.0613406	3	4	5	6	7	8	9	10	11	12	13	14
4480	0.0967669	0.0383179	0.0613376	3	4	5	6	7	8	9	10	11	12	13	14
4490	0.0967967	0.0384375	0.0613438	3	4	5	6	7	8	9	10	11	12	13	14
4501	0.0969163	0.0384616	0.0613647	3	4	5	6	7	8	9	10	11	12	13	14
4511	0.0969657	0.0384877	0.0613806	3	4	5	6	7	8	9	10	11	12	13	14
4521	0.0970592	0.0384657	0.0614793	3	4	5	6	7	8	9	10	11	12	13	14
4531	0.0971207	0.038404	0.0615127	3	4	5	6	7	8	9	10	11	12	13	14
4541	0.0971262	0.03847	0.0615378	3	4	5	6	7	8	9	10	11	12	13	14
4551	0.0971802	0.0385838	0.0616108	3	4	5	6	7	8	9	10	11	12	13	14
4561	0.0971524	0.03857	0.0616915	3	4	5	6	7	8	9	10	11	12	13	14
4571	0.0972167	0.038564	0.0617789	3	4	5	6	7	8	9	10	11	12	13	14
4581	0.0972899	0.0385938	0.0618728	3	4	5	6	7	8	9	10	11	12	13	14
4591	0.0973741	0.0386134	0.0619024	3	4	5	6	7	8	9	10	11	12	13	14
4601	0.0974063	0.038666	0.0619625	3	4	5	6	7	8	9	10	11	12	13	14
4611	0.097529	0.0387039	0.0619038	3	4	5	6	7	8	9	10	11	12	13	14
4621	0.0976221	0.0387887	0.0619668	3	4	5	6	7	8	9	10	11	12	13	14
4631	0.0976264	0.0387598	0.0619234	3	4	5	6	7	8	9	10	11	12	13	14
4642	0.0976231	0.0388028	0.0618751	3	4	5	6	7	8	9	10	11	12	13	14
4652	0.0976837	0.0387868	0.0619586	3	4	5	6	7	8	9	10	11	12	13	14
4662	0.0977034	0.0387775	0.0619496	3	4	5	6	7	8	9	10	11	12	13	14
4672	0.097695	0.0387917	0.0619964	3	4	5	6	7	8	9	10	11	12	13	14
4682	0.0977184	0.0387985	0.0619982	3	4	5	6	7	8	9	10	11	12	13	14
4692	0.0977222	0.0388511	0.0620609	3	4	5	6	7	8	9	10	11	12	13	14
4702	0.097754	0.038883	0.0621558	3	4	5	6	7	8	9	10	11	12	13	14
4712	0.0978874	0.0389894	0.0622379	3	4	5	6	7	8	9	10	11	12	13	14
4722	0.0979293	0.0390228	0.062352	3	4	5	6	7	8	9	10	11	12	13	14
4732	0.0979522	0.0390386	0.0623958	3	4	5	6	7	8	9	10	11	12	13	14
4742	0.0979825	0.039041	0.0624765	3	4	5	6	7	8	9	10	11	12	13	14
4752	0.0980844	0.0390474	0.062498	3	4	5	6	7	8	9	10	11	12	13	14
4762	0.0981031	0.0390523	0.0625428	3	4	5	6	7	8	9	10	11	12	13	14
4772	0.0981285	0.0391199	0.0625588	3	4	5	6	7	8	9	10	11	12	13	14
4782	0.0981737	0.0391388	0.0626235	3	4	5	6	7	8	9	10	11	12	13	14
4793	0.0982093	0.0391445	0.0626596	3	4	5	6	7	8	9	10	11	12	13	14
4803	0.0982722	0.0391555	0.0626523	3	4	5	6	7	8	9	10	11	12	13	14
4813	0.0983264	0.0392128	0.0626705	3	4	5	6	7	8	9	10	11	12	13	14
4823	0.0982937	0.0392091	0.0626787	3	4	5	6	7	8	9	10	11	12	13	14
4833	0.0982634	0.0391637	0.062721	3	4	5	6	7	8	9	10	11	12	13	14
4843	0.0982331	0.0391501	0.0628217	3	4	5	6	7	8	9	10	11	12	13	14
4853	0.098306	0.0391075	0.062863	3	4	5	6	7	8	9	10	11	12	13	14
4863	0.0983544	0.0390863	0.0628927	3	4	5	6	7	8	9	10	11	12	13	14
4873	0.0983943	0.0390918	0.0630057	3	4	5	6	7	8	9	10	11	12	13	14
4883	0.0983808	0.0391522	0.0631012	3	4	5	6	7	8	9	10	11	12	13	14
4893	0.0984437	0.0392856	0.0631312	3	4	5	6	7	8	9	10	11	12	13	14
4903	0.0984409	0.0393569	0.0632005	3	4	5	6	7	8	9	10	11	12	13	14
4913	0.0985437	0.0393514	0.063187	3	4	5	6	7	8	9	10	11	12	13	14
4923	0.098557	0.0393171	0.0631784	3	4	5	6	7	8	9	10	11	12	13	14
4933	0.0985455	0.0393308	0.063204	3	4	5	6	7	8	9	10	11	12	13	14
4944	0.0985773	0.0393368	0.0632103	3	4	5	6	7	8	9	10	11	12	13	14
4954	0.0985819	0.0393624	0.0633109	3	4	5	6	7	8	9	10	11	12	13	14
4964	0.0985932	0.0393562	0.0633026	3	4	5	6	7	8	9	10	11	12	13	14
4974	0.0986019	0.0394167	0.0633112	3	4	5	6	7	8	9	10	11	12	13	14
4984	0.0987279	0.0393751	0.0633955	3	4	5	6	7	8	9	10	11	12	13	14
4994	0.098779	0.039359	0.0634813	3	4	5	6	7	8	9	10	11	12	13	14
5004	0.0988276	0.0393833	0.0635634	3	4	5	6	7	8	9	10	11	12	13	14
5014	0.0988359	0.0394261	0.0636668	3	4	5	6	7	8	9	10	11	12	13	14
5024	0.0987463	0.0394375	0.0637654	3	4	5	6	7	8	9	10	11	12	13	14
5034	0.0987508	0.0394273	0.0637891	3	4	5	6	7	8	9	10	11	12	13	14
5044	0.0986875	0.0394602	0.0638581	3	4	5	6	7	8	9	10	11	12	13	14
5054	0.0986853	0.0395237	0.0638568	3	4	5	6	7	8	9	10	11	12	13	14
5064	0.0987616	0.0395189	0.0638895	3	4	5	6	7	8	9	10	11	12	13	14
5074	0.0988165	0.0395197	0.0638437	3	4	5	6	7	8	9	10	11	12	13	14
5084	0.0988977	0.0395616	0.0638679	3	4	5	6	7	8	9	10	11	12	13	14
5095	0.0988993	0.0395242	0.0638716	3	4	5	6	7	8	9	10	11	12	13	14
5105	0.0989563	0.0394904	0.0638512	3	4	5	6	7	8	9	10	11	12	13	14
5115	0.0990344	0.0396169	0.0638574	3	4	5	6	7	8	9	10	11	12	13	14
5125	0.0989961	0.0396167	0.063888	3	4	5	6	7	8	9	10	11	12	13	14
5135	0.0990332	0.0395814	0.0639488	3	4	5	6	7	8	9	10	11	12	13	14
5145	0.0990495	0.0395973	0.063969	3	4	5	6	7	8	9	10	11	12	13	14
5155	0.0990181	0.039627	0.0640332	3	4	5	6	7	8	9	10	11	12	13	14
5165	0.099006	0.0396433	0.06413	3	4	5	6	7	8	9	10	11	12	13	14
5175	0.0989821	0.0396216	0.064217	3	4	5	6	7	8	9	10	11	12	13	14
5185	0.0989663	0.0396246	0.0642922	3	4	5	6	7	8	9	10	11	12	13	14
5195	0.0990585	0.0397153	0.0643471	3	4	5	6	7	8	9	10	11	12	13	14
5205	0.0991092	0.0397418	0.0643537	3	4	5	6	7	8	9	10	11	12	13	14
5215	0.0992068	0.0398059	0.0643613	3	4	5	6	7	8	9	10	11	12	13	14
5225	0.0992061	0.0397959	0.0644153	3	4	5	6	7	8	9	10	11	12	13	14
5236	0.0990707	0.0397078	0.0645823	3	4	5	6	7	8	9	10	11	12	13	14
5246	0.0990542	0.0396959	0.0646045	3	4	5	6	7	8	9	10	11	12	13	14
5256	0.0990799	0.039712	0.0645953	3	4	5	6	7	8	9	10	11	12	13	14
5266	0.0990802	0.039734	0.0646149	3	4	5	6	7	8	9	10	11	12	13	14
5276	0.0991422	0.0396553	0.0646071	3	4	5	6	7	8	9	10	11	12	13	14
5286	0.0991395	0.0396463	0.0647015	3	4	5	6	7	8	9	10	11	12	13	14
5296	0.0992653	0.0396912	0.0647775	3	4	5	6	7	8	9	10	11	12	13	14
5306	0.0994363	0.0397527	0.0648685	3	4	5	6	7	8	9	10	11	12	13	14
5316	0.0994588	0.0397936	0.0649138	3	4	5	6	7	8	9	10	11	12	13	14
5326	0.0994143	0.0397423	0.0649474	3	4	5	6	7	8	9	10	11	12	13	14
5336	0.0994418	0.0397129	0.0650256	3	4	5	6	7	8	9	10	11	12	13	14
5346	0.0994642	0.0396763	0.0650279	3	4	5	6	7	8	9	10	11	12	13	14
5356	0.0994153	0.0396544	0.0650108	3	4	5	6	7	8	9	10	11	12	13	14
5366	0.0994432	0.0396256	0.0650068	3	4	5	6	7	8	9	10	11	12	13	14
5377	0.0994694	0.0396226	0.0650948	3	4	5	6	7	8	9	10	11	12	13	14
5387	0.0995022	0.039681	0.0651275	3	4	5	6	7	8	9	10	11	12	13	14
5397	0.0996154	0.039737	0.0651122	3	4	5	6	7	8	9	10	11	12	13	14
5407	0.0996324	0.0397371	0.0650756	0	0	0	-1.66726e-05	-6.87098e-06	-6.02341e-06	1000	1000	1000	1000	1000	1000
5417	0.0996149	0.0397663	0.0651391	0	0	0	-1.6348e-05	-6.72499e-06	-6.09162e-06	1000	1000	1000	1000	1000	1000
5427	0.099559	0.0397643	0.0652125	0	0	0	-1.62952e-05	-6.8121e-06	-6.22572e-06	1000	1000	1000	1000	1000	1000
5437	0.0995402	0.0397614	0.0653052	0	0	0	-1.64329e-05	-6.8616e-06	-6.34932e-06	1000	1000	1000	1000	1000	1000
5447	0.0995569	0.0397838	0.0653736	0	0	0	-1.65854e-05	-6.88282e-06	-6.32547e-06	1000	1000	1000	1000	1000	1000
5457	0.0994845	0.0398123	0.0654288	0	0	0	-1.64246e-05	-6.97032e-06	-6.15323e-06	1000	1000	1000	1000	1000	1000
5467	0.0995254	0.0398617	0.0654358	0	0	0	-1.64536e-05	-6.9904e-06	-6.10144e-06	1000	1000	1000	1000	1000	1000
5477	0.098311	0.0398813	0.0655461	0	0	0	-1.26892e-05	-7.01094e-06	-6.17926e-06	1000	1000	1000	1000	1000	1000
5487	0.0983256	0.0399622	0.0656762	0	0	0	-1.42636e-05	-6.99582e-06	-6.28434e-06	1000	1000	1000	1000	1000	1000
5497	0.0983627	0.0400566	0.0658416	0	0	0	-1.61478e-05	-7.09046e-06	-6.41118e-06	1000	1000	1000	1000	1000	1000
5507	0.0983378	0.0401943	0.0658465	0	0	0	-1.63447e-05	-7.21487e-06	-6.37246e-06	1000	1000	1000	1000	1000	1000
5518	0.098349	0.0402102	0.0658303	0	0	0	-1.63397e-05	-7.08436e-06	-6.20962e-06	1000	1000	1000	1000	1000	1000
5528	0.0983234	0.0402161	0.0658681	0	0	0	-1.62772e-05	-6.97324e-06	-6.23734e-06	1000	1000	1000	1000	1000	1000
5538	0.0983562	0.0402739	0.0659408	0	0	0	-1.63722e-05	-7.1047e-06	-6.32801e-06	1000	1000	1000	1000	1000	1000
5548	0.0983608	0.0401878	0.0659671	0	0	0	-1.65583e-05	-6.78097e-06	-6.30788e-06	1000	1000	1000	1000	1000	1000
5558	0.0982835	0.0402442	0.0659695	0	0	0	-1.62073e-05	-6.83243e-06	-6.23162e-06	1000	1000	1000	1000	1000	1000
5568	0.0982607	0.0402765	0.0659974	0	0	0	-1.60053e-05	-7.03082e-06	-6.17771e-06	1000	1000	1000	1000	1000	1000
5578	0.0982398	0.0403176	0.0660513	0	0	0	-1.60682e-05	-7.05405e-06	-6.25213e-06	1000	1000	1000	1000	1000	1000
5588	0.0982626	0.0403928	0.0660411	0	0	0	-1.62015e-05	-7.11246e-06	-6.2196e-06	1000	1000	1000	1000	1000	1000
5598	0.098268	0.0403994	0.0660411	0	0	0	-1.63178e-05	-7.06588e-06	-6.13729e-06	1000	1000	1000	1000	1000	1000
5608	0.0983043	0.0404352	0.0661211	0	0	0	-1.63639e-05	-6.97488e-06	-6.21051e-06	1000	1000	1000	1000	1000	1000
5618	0.0983557	0.0404209	0.0661616	0	0	0	-1.63988e-05	-6.77127e-06	-6.13558e-06	1000	1000	1000	1000	1000	1000
5628	0.0983363	0.0404106	0.0662074	0	0	0	-1.64101e-05	-6.88314e-06	-6.12957e-06	1000	1000	1000	1000	1000	1000
5638	0.0983574	0.0404024	0.0662934	0	0	0	-1.64849e-05	-6.98279e-06	-6.25718e-06	1000	1000	1000	1000	1000	1000
5648	0.0983537	0.0404088	0.0662844	0	0	0	-1.64433e-05	-6.89284e-06	-6.27774e-06	1000	1000	1000	1000	1000	1000
5658	0.0983618	0.0404109	0.0662644	0	0	0	-1.64436e-05	-6.91181e-06	-6.1738e-06	1000	1000	1000	1000	1000	1000
5669	0.0983854	0.0404927	0.066305	0	0	0	-1.64103e-05	-7.14574e-06	-6.29772e-06	1000	1000	1000	1000	1000	1000
5679	0.0984029	0.0405401	0.0662686	0	0	0	-1.64623e-05	-7.10671e-06	-6.22164e-06	1000	1000	1000	1000	1000	1000
5689	0.098419	0.0405968	0.0662991	0	0	0	-1.63718e-05	-7.13368e-06	-6.25488e-06	1000	1000	1000	1000	1000	1000
5699	0.0985193	0.0405865	0.0663318	0	0	0	-1.65213e-05	-6.93335e-06	-6.27912e-06	1000	1000	1000	1000	1000	1000
5709	0.0985626	0.0405996	0.0663259	0	0	0	-1.65489e-05	-6.85608e-06	-6.26166e-06	1000	1000	1000	1000	1000	1000
5719	0.0985655	0.0406491	0.0663161	0	0	0	-1.64598e-05	-6.90364e-06	-6.21882e-06	1000	1000	1000	1000	1000	1000
5729	0.098496	0.0406985	0.0663129	0	0	0	-1.6334e-05	-7.20641e-06	-6.16707e-06	1000	1000	1000	1000	1000	1000
5739	0.0985485	0.0407093	0.0663896	0	0	0	-1.64928e-05	-7.03197e-06	-6.25299e-06	1000	1000	1000	1000	1000	1000
5749	0.0985618	0.0407355	0.0664655	0	0	0	-1.65423e-05	-7.07984e-06	-6.3822e-06	1000	1000	1000	1000	1000	1000
5759	0.0985544	0.0407094	0.0665142	0	0	0	-1.64828e-05	-6.96387e-06	-6.32365e-06	1000	1000	1000	1000	1000	1000
5769	0.0985432	0.0407258	0.0666054	0	0	0	-1.63284e-05	-6.90119e-06	-6.28742e-06	1000	1000	1000	1000	1000	1000
5779	0.0985792	0.040745	0.0666905	0	0	0	-1.64946e-05	-7.00919e-06	-6.26552e-06	1000	1000	1000	1000	1000	1000
5789	0.098636	0.0407881	0.0667348	0	0	0	-1.65236e-05	-7.03078e-06	-6.24216e-06	1000	1000	1000	1000	1000	1000
5799	0.098636	0.0408733	0.0667359	0	0	0	-1.64679e-05	-7.13036e-06	-6.30279e-06	1000	1000	1000	1000	1000	1000
5810	0.0986491	0.0409148	0.0667379	0	0	0	-1.63312e-05	-7.21562e-06	-6.31569e-06	1000	1000	1000	1000	1000	1000
5820	0.0986429	0.0408551	0.0667292	0	0	0	-1.63274e-05	-6.89129e-06	-6.31468e-06	1000	1000	1000	1000	1000	1000
5830	0.0986082	0.0408966	0.066729	0	0	0	-1.63368e-05	-6.98624e-06	-6.2937e-06	1000	1000	1000	1000	1000	1000
5840	0.0985996	0.0408821	0.0668236	0	0	0	-1.64296e-05	-7.08684e-06	-6.38091e-06	1000	1000	1000	1000	1000	1000
5850	0.0985964	0.0408647	0.06686	0	0	0	-1.64174e-05	-7.00356e-06	-6.43122e-06	1000	1000	1000	1000	1000	1000
5860	0.0985587	0.0408855	0.0668387	0	0	0	-1.64525e-05	-6.99168e-06	-6.32381e-06	1000	1000	1000	1000	1000	1000
5870	0.0985877	0.0408993	0.0668879	0	0	0	-1.64028e-05	-7.01458e-06	-6.30376e-06	1000	1000	1000	1000	1000	1000
5880	0.0986473	0.0409399	0.0669368	0	0	0	-1.64955e-05	-7.08795e-06	-6.32067e-06	1000	1000	1000	1000	1000	1000
5890	0.0986402	0.0410033	0.0669981	0	0	0	-1.64753e-05	-7.11653e-06	-6.39867e-06	1000	1000	1000	1000	1000	1000
5900	0.0986817	0.0410729	0.067032	0	0	0	-1.64965e-05	-7.24755e-06	-6.34489e-06	1000	1000	1000	1000	1000	1000
5910	0.0987784	0.0411629	0.067147	0	0	0	-1.646e-05	-7.14928e-06	-6.34031e-06	1000	1000	1000	1000	1000	1000
5920	0.0987726	0.0412008	0.0671932	0	0	0	-1.65008e-05	-7.2429e-06	-6.33523e-06	1000	1000	1000	1000	1000	1000
5930	0.0987514	0.0411474	0.0672523	0	0	0	-1.65321e-05	-7.12192e-06	-6.28938e-06	1000	1000	1000	1000	1000	1000
5940	0.0987092	0.0411692	0.0673313	0	0	0	-1.64668e-05	-7.05353e-06	-6.3344e-06	1000	1000	1000	1000	1000	1000
5950	0.0986409	0.0411941	0.0674169	0	0	0	-1.62567e-05	-7.08005e-06	-6.51684e-06	1000	1000	1000	1000	1000	1000
5961	0.0985995	0.0412333	0.0673901	0	0	0	-1.61772e-05	-7.17346e-06	-6.42806e-06	1000	1000	1000	1000	1000	1000
5971	0.0986165	0.0412229	0.0673794	0	0	0	-1.62742e-05	-7.10856e-06	-6.34139e-06	1000	1000	1000	1000	1000	1000
5981	0.0986608	0.041256	0.0673183	0	0	0	-1.6467e-05	-7.00153e-06	-6.20957e-06	1000	1000	1000	1000	1000	1000
5991	0.0987378	0.0412844	0.0673516	0	0	0	-1.66031e-05	-7.0964e-06	-6.26795e-06	1000	1000	1000	1000	1000	1000
6001	0.0988001	0.0413493	0.0673672	0	0	0	-1.67109e-05	-7.21833e-06	-6.32617e-06	1000	1000	1000	1000	1000	1000
6011	0.098824	0.0413615	0.0673729	0	0	0	-1.64513e-05	-7.06606e-06	-6.3477e-06	1000	1000	1000	1000	1000	1000
6021	0.0988538	0.0413622	0.0673987	0	0	0	-1.64792e-05	-7.00147e-06	-6.32739e-06	1000	1000	1000	1000	1000	1000
6031	0.0988173	0.0412908	0.0674278	0	0	0	-1.65221e-05	-6.89649e-06	-6.32075e-06	1000	1000	1000	1000	1000	1000
6041	0.0988134	0.041274	0.0674188	0	0	0	-1.64197e-05	-6.89748e-06	-6.29609e-06	1000	1000	1000	1000	1000	1000
6051	0.0988191	0.0412804	0.0674712	0	0	0	-1.64965e-05	-7.0141e-06	-6.29922e-06	1000	1000	1000	1000	1000	1000
6061	0.098795	0.0412808	0.0675481	0	0	0	-1.64363e-05	-7.02795e-06	-6.37468e-06	1000	1000	1000	1000	1000	1000
6071	0.0987834	0.0412817	0.0676636	0	0	0	-1.63559e-05	-7.01983e-06	-6.41378e-06	1000	1000	1000	1000	1000	1000
6081	0.0988298	0.0413112	0.0678016	0	0	0	-1.65289e-05	-7.11219e-06	-6.49498e-06	1000	1000	1000	1000	1000	1000
6092	0.0988364	0.0412904	0.0678734	0	0	0	-1.64521e-05	-6.90376e-06	-6.50485e-06	1000	1000	1000	1000	1000	1000
6102	0.0989159	0.0413268	0.0678228	0	0	0	-1.65441e-05	-7.02575e-06	-6.43506e-06	1000	1000	1000	1000	1000	1000
6112	0.098992	0.0413507	0.0678345	0	0	0	-1.65796e-05	-6.9261e-06	-6.37467e-06	1000	1000	1000	1000	1000	1000
6122	0.0989371	0.0413457	0.0678611	0	0	0	-1.6522e-05	-7.01228e-06	-6.44118e-06	1000	1000	1000	1000	1000	1000
6132	0.0988058	0.0413151	0.0678388	0	0	0	-1.61886e-05	-7.05801e-06	-6.32682e-06	1000	1000	1000	1000	1000	1000
6142	0.0987599	0.0413385	0.0678804	0	0	0	-1.60967e-05	-7.12021e-06	-6.40475e-06	1000	1000	1000	1000	1000	1000
6152	0.0987671	0.0413114	0.0678894	0	0	0	-1.62396e-05	-7.07578e-06	-6.46721e-06	1000	1000	1000	1000	1000	1000
6162	0.0987759	0.0412786	0.0679513	0	0	0	-1.64801e-05	-6.96129e-06	-6.45448e-06	1000	1000	1000	1000	1000	1000
6172	0.0987527	0.0413415	0.0679785	0	0	0	-1.64195e-05	-7.09149e-06	-6.48581e-06	1000	1000	1000	1000	1000	1000
6182	0.098772	0.0413375	0.068052	0	0	0	-1.63297e-05	-7.06345e-06	-6.49488e-06	1000	1000	1000	1000	1000	1000
6192	0.0987744	0.0413344	0.0680358	0	0	0	-1.63874e-05	-7.01237e-06	-6.42827e-06	1000	1000	1000	1000	1000	1000
6202	0.0988122	0.0414511	0.0681536	0	0	0	-1.64064e-05	-7.19521e-06	-6.43804e-06	1000	1000	1000	1000	1000	1000
6212	0.0989053	0.0414856	0.0682542	0	0	0	-1.64707e-05	-7.20318e-06	-6.51093e-06	1000	1000	1000	1000	1000	1000
6222	0.0988594	0.0414823	0.06827	0	0	0	-1.65026e-05	-7.14686e-06	-6.44287e-06	1000	1000	1000	1000	1000	1000
6232	0.098798	0.0415134	0.0683535	0	0	0	-1.63344e-05	-7.21112e-06	-6.39148e-06	1000	1000	1000	1000	1000	1000
6243	0.0987424	0.0415518	0.0684171	0	0	0	-1.62692e-05	-7.34008e-06	-6.46761e-06	1000	1000	1000	1000	1000	1000
6253	0.0987599	0.0415519	0.0683536	0	0	0	-1.6462e-05	-7.2813e-06	-6.36233e-06	1000	1000	1000	1000	1000	1000
6263	0.0987532	0.0415936	0.0682886	0	0	0	-1.64755e-05	-7.25468e-06	-6.26876e-06	1000	1000	1000	1000	1000	1000
6273	0.0987527	0.0416104	0.0683257	0	0	0	-1.64401e-05	-7.19844e-06	-6.32796e-06	1000	1000	1000	1000	1000	1000
6283	0.0987834	0.0416337	0.0683221	0	0	0	-1.64736e-05	-7.11981e-06	-6.47022e-06	1000	1000	1000	1000	1000	1000
6293	0.0988003	0.0417106	0.0683441	0	0	0	-1.64391e-05	-7.18618e-06	-6.44082e-06	1000	1000	1000	1000	1000	1000
6303	0.0988386	0.0417359	0.0682975	0	0	0	-1.64138e-05	-7.23781e-06	-6.39952e-06	1000	1000	1000	1000	1000	1000
6313	0.0988668	0.0418199	0.0682757	0	0	0	-1.63924e-05	-7.30604e-06	-6.29081e-06	1000	1000	1000	1000	1000	1000
6323	0.0987711	0.0417718	0.0682968	0	0	0	-1.63143e-05	-7.1795e-06	-6.37629e-06	1000	1000	1000	1000	1000	1000
6333	0.0987046	0.0417653	0.0683537	0	0	0	-1.61893e-05	-7.08826e-06	-6.41687e-06	1000	1000	1000	1000	1000	1000
6343	0.0986882	0.0417897	0.0683967	0	0	0	-1.62992e-05	-7.21334e-06	-6.44254e-06	1000	1000	1000	1000	1000	1000
6353	0.098678	0.0417575	0.0685254	0	0	0	-1.64411e-05	-7.09651e-06	-6.54417e-06	1000	1000	1000	1000	1000	1000
6363	0.0986695	0.0417962	0.0685719	0	0	0	-1.64013e-05	-7.17225e-06	-6.56081e-06	1000	1000	1000	1000	1000	1000
6373	0.0986978	0.041778	0.0686762	0	0	0	-1.64483e-05	-7.1482e-06	-6.56559e-06	1000	1000	1000	1000	1000	1000
6384	0.0987192	0.041802	0.0687122	0	0	0	-1.64536e-05	-7.09399e-06	-6.4859e-06	1000	1000	1000	1000	1000	1000
6394	0.0987332	0.0418084	0.0688199	0	0	0	-1.64428e-05	-7.10275e-06	-6.52121e-06	1000	1000	1000	1000	1000	1000
6404	0.0987675	0.0418983	0.0688119	0	0	0	-1.63158e-05	-7.19242e-06	-6.5168e-06	1000	1000	1000	1000	1000	1000
6414	0.0987937	0.0419364	0.0688413	0	0	0	-1.63531e-05	-7.37348e-06	-6.50016e-06	1000	1000	1000	1000	1000	1000
6424	0.0987722	0.0419076	0.0688233	0	0	0	-1.64427e-05	-7.23418e-06	-6.4747e-06	1000	1000	1000	1000	1000	1000
6434	0.0987754	0.0419507	0.0688375	0	0	0	-1.65323e-05	-7.2099e-06	-6.49171e-06	1000	1000	1000	1000	1000	1000
6444	0.0987542	0.0419629	0.0688576	0	0	0	-1.65152e-05	-7.33365e-06	-6.51247e-06	1000	1000	1000	1000	1000	1000
6454	0.0987413	0.0419458	0.0688969	0	0	0	-1.64381e-05	-7.27629e-06	-6.51561e-06	1000	1000	1000	1000	1000	1000
6464	0.098764	0.0420039	0.068908	0	0	0	-1.64823e-05	-7.22447e-06	-6.4898e-06	1000	1000	1000	1000	1000	1000
6474	0.0988113	0.0420495	0.0688889	0	0	0	-1.65815e-05	-7.28623e-06	-6.43357e-06	1000	1000	1000	1000	1000	1000
6484	0.098799	0.0420851	0.0689637	0	0	0	-1.6477e-05	-7.39591e-06	-6.46101e-06	1000	1000	1000	1000	1000	1000
6494	0.0988261	0.0421063	0.0690486	0	0	0	-1.63793e-05	-7.2878e-06	-6.55773e-06	1000	1000	1000	1000	1000	1000
6504	0.0988392	0.0421255	0.0691598	0	0	0	-1.63574e-05	-7.21728e-06	-6.64056e-06	1000	1000	1000	1000	1000	1000
6514	0.0989181	0.0422035	0.0692238	0	0	0	-1.64884e-05	-7.19107e-06	-6.61901e-06	1000	1000	1000	1000	1000	1000
6525	0.0989499	0.0421495	0.0692805	0	0	0	-1.67707e-05	-7.18969e-06	-6.51146e-06	1000	1000	1000	1000	1000	1000
6535	0.0989878	0.0421431	0.0694225	0	0	0	-1.68572e-05	-7.20274e-06	-6.5486e-06	1000	1000	1000	1000	1000	1000
6545	0.0989636	0.0420831	0.0694573	0	0	0	-1.66277e-05	-7.19045e-06	-6.61748e-06	1000	1000	1000	1000	1000	1000
6555	0.0989245	0.0421052	0.069457	0	0	0	-1.64104e-05	-7.1063e-06	-6.58964e-06	1000	1000	1000	1000	1000	1000
6565	0.0989356	0.0421448	0.0694566	0	0	0	-1.64615e-05	-7.2496e-06	-6.54557e-06	1000	1000	1000	1000	1000	1000
6575	0.0989527	0.0421408	0.069477	0	0	0	-1.64389e-05	-7.22769e-06	-6.5533e-06	1000	1000	1000	1000	1000	1000
6585	0.0988986	0.0421836	0.0695011	0	0	0	-1.63166e-05	-7.26292e-06	-6.60912e-06	1000	1000	1000	1000	1000	1000
6595	0.0988673	0.042288	0.0695431	0	0	0	-1.62777e-05	-7.40177e-06	-6.60327e-06	1000	1000	1000	1000	1000	1000
6605	0.0989508	0.0423493	0.0695525	0	0	0	-1.63365e-05	-7.47982e-06	-6.55254e-06	1000	1000	1000	1000	1000	1000
6615	0.0989565	0.0423577	0.0695176	0	0	0	-1.6431e-05	-7.35721e-06	-6.49175e-06	1000	1000	1000	1000	1000	1000
6625	0.098894	0.0423585	0.0695372	0	0	0	-1.64158e-05	-7.24393e-06	-6.48079e-06	1000	1000	1000	1000	1000	1000
6635	0.0988687	0.0423658	0.069599	0	0	0	-1.63922e-05	-7.31159e-06	-6.56984e-06	1000	1000	1000	1000	1000	1000
6645	0.0988628	0.0423102	0.069693	0	0	0	-1.64295e-05	-7.13713e-06	-6.59931e-06	1000	1000	1000	1000	1000	1000
6656	0.0988376	0.042275	0.0697937	0	0	0	-1.64547e-05	-7.1254e-06	-6.68556e-06	1000	1000	1000	1000	1000	1000
6666	0.0988478	0.0422278	0.0698523	0	0	0	-1.64384e-05	-6.96937e-06	-6.63393e-06	1000	1000	1000	1000	1000	1000
6676	0.0988785	0.0422197	0.0699518	0	0	0	-1.64208e-05	-6.96905e-06	-6.59799e-06	1000	1000	1000	1000	1000	1000
6686	0.0989343	0.0422171	0.0700741	0	0	0	-1.65691e-05	-7.03735e-06	-6.66935e-06	1000	1000	1000	1000	1000	1000
6696	0.0989183	0.0422084	0.0701252	0	0	0	-1.64363e-05	-7.04971e-06	-6.71026e-06	1000	1000	1000	1000	1000	1000
6706	0.0989894	0.0423102	0.0700729	0	0	0	-1.65205e-05	-7.33227e-06	-6.62083e-06	1000	1000	1000	1000	1000	1000
6716	0.0989934	0.0423726	0.070085	0	0	0	-1.64533e-05	-7.43733e-06	-6.57548e-06	1000	1000	1000	1000	1000	1000
6726	0.0989234	0.0423747	0.0700505	0	0	0	-1.63534e-05	-7.41158e-06	-6.55533e-06	1000	1000	1000	1000	1000	1000
6736	0.0988911	0.0423722	0.0700631	0	0	0	-1.63468e-05	-7.39579e-06	-6.52617e-06	1000	1000	1000	1000	1000	1000
6746	0.0988787	0.042364	0.0700961	0	0	0	-1.63716e-05	-7.24018e-06	-6.58961e-06	1000	1000	1000	1000	1000	1000
6756	0.0988876	0.0423997	0.0701969	0	0	0	-1.6476e-05	-7.29392e-06	-6.75757e-06	1000	1000	1000	1000	1000	1000
6766	0.0988491	0.0423994	0.0702869	0	0	0	-1.63873e-05	-7.20668e-06	-6.77384e-06	1000	1000	1000	1000	1000	1000
6776	0.0988957	0.0424068	0.0703505	0	0	0	-1.63818e-05	-7.18622e-06	-6.71478e-06	1000	1000	1000	1000	1000	1000
6786	0.0989328	0.0424985	0.0703579	0	0	0	-1.65019e-05	-7.44434e-06	-6.68697e-06	1000	1000	1000	1000	1000	1000
6797	0.0989718	0.0425136	0.0704183	0	0	0	-1.6574e-05	-7.41426e-06	-6.62644e-06	1000	1000	1000	1000	1000	1000
6807	0.0990774	0.0425469	0.0704679	0	0	0	-1.66645e-05	-7.2865e-06	-6.59687e-06	1000	1000	1000	1000	1000	1000
6817	0.0990642	0.0425853	0.0706054	0	0	0	-1.65812e-05	-7.31104e-06	-6.68902e-06	1000	1000	1000	1000	1000	1000
6827	0.0990221	0.0425627	0.0707846	0	0	0	-1.64497e-05	-7.24404e-06	-6.83695e-06	1000	1000	1000	1000	1000	1000
6837	0.0990215	0.0425903	0.0708548	0	0	0	-1.64168e-05	-7.39399e-06	-6.75072e-06	1000	1000	1000	1000	1000	1000
6847	0.0990584	0.0425861	0.0708573	0	0	0	-1.66129e-05	-7.42036e-06	-6.76396e-06	1000	1000	1000	1000	1000	1000
6857	0.0990539	0.0425796	0.0708712	0	0	0	-1.66957e-05	-7.36711e-06	-6.7174e-06	1000	1000	1000	1000	1000	1000
6867	0.0990654	0.042566	0.0708837	0	0	0	-1.65685e-05	-7.18593e-06	-6.74181e-06	1000	1000	1000	1000	1000	1000
6877	0.09905	0.0425618	0.070972	0	0	0	-1.63717e-05	-7.15879e-06	-6.76194e-06	1000	1000	1000	1000	1000	1000
6887	0.0990059	0.0426201	0.0709066	0	0	0	-1.6246e-05	-7.239e-06	-6.70507e-06	1000	1000	1000	1000	1000	1000
6897	0.0989584	0.042626	0.0709196	0	0	0	-1.61457e-05	-7.28588e-06	-6.60586e-06	1000	1000	1000	1000	1000	1000
6907	0.0989411	0.0427158	0.070913	0	0	0	-1.60754e-05	-7.44004e-06	-6.58779e-06	1000	1000	1000	1000	1000	1000
6917	0.0989725	0.0427993	0.070941	0	0	0	-1.61903e-05	-7.51482e-06	-6.64544e-06	1000	1000	1000	1000	1000	1000
6927	0.0988949	0.042831	0.0709708	0	0	0	-1.63548e-05	-7.64644e-06	-6.65597e-06	1000	1000	1000	1000	1000	1000
6938	0.098928	0.0428107	0.0710605	0	0	0	-1.65611e-05	-7.4338e-06	-6.73013e-06	1000	1000	1000	1000	1000	1000
6948	0.0989375	0.0428134	0.071152	0	0	0	-1.66425e-05	-7.2849e-06	-6.75549e-06	1000	1000	1000	1000	1000	1000
6958	0.0989313	0.0428066	0.0712196	0	0	0	-1.64789e-05	-7.31409e-06	-6.77509e-06	1000	1000	1000	1000	1000	1000
6968	0.0989022	0.0428076	0.0712372	0	0	0	-1.637e-05	-7.30386e-06	-6.71736e-06	1000	1000	1000	1000	1000	1000
6978	0.0988834	0.0427973	0.071271	0	0	0	-1.6296e-05	-7.24744e-06	-6.62864e-06	1000	1000	1000	1000	1000	1000
6988	0.0988985	0.0427838	0.071434	0	0	0	-1.63113e-05	-7.1793e-06	-6.75453e-06	1000	1000	1000	1000	1000	1000
6998	0.0989624	0.0427664	0.0714774	0	0	0	-1.65173e-05	-7.08423e-06	-6.86595e-06	1000	1000	1000	1000	1000	1000
7008	0.0989871	0.0428763	0.0714328	0	0	0	-1.64512e-05	-7.36948e-06	-6.72167e-06	1000	1000	1000	1000	1000	1000
7018	0.0989952	0.0428417	0.0714732	0	0	0	-1.64661e-05	-7.43299e-06	-6.74731e-06	1000	1000	1000	1000	1000	1000
7028	0.0989986	0.0427877	0.0714682	0	0	0	-1.65801e-05	-7.205e-06	-6.70812e-06	1000	1000	1000	1000	1000	1000
7038	0.0990162	0.0427262	0.0714756	0	0	0	-1.6634e-05	-7.14446e-06	-6.72204e-06	1000	1000	1000	1000	1000	1000
7048	0.0990345	0.0427275	0.0715764	0	0	0	-1.66322e-05	-7.19483e-06	-6.85194e-06	1000	1000	1000	1000	1000	1000
7058	0.099019	0.0427781	0.071578	0	0	0	-1.65067e-05	-7.3348e-06	-6.83579e-06	1000	1000	1000	1000	1000	1000
7069	0.0990184	0.0427934	0.0716882	0	0	0	-1.63998e-05	-7.45163e-06	-6.85225e-06	1000	1000	1000	1000	1000	1000
7079	0.0990238	0.0427718	0.071773	0	0	0	-1.64589e-05	-7.33348e-06	-6.91747e-06	1000	1000	1000	1000	1000	1000
7089	0.0990519	0.0427605	0.0718175	0	0	0	-1.65074e-05	-7.16447e-06	-6.86653e-06	1000	1000	1000	1000	1000	1000
7099	0.0991429	0.0428543	0.0718576	0	0	0	-1.6609e-05	-7.29588e-06	-6.79245e-06	1000	1000	1000	1000	1000	1000
7109	0.0992119	0.0429397	0.0720095	0	0	0	-1.66061e-05	-7.53301e-06	-6.84753e-06	1000	1000	1000	1000	1000	1000
7119	0.0990891	0.0429095	0.0721026	0	0	0	-1.62857e-05	-7.33146e-06	-6.85821e-06	1000	1000	1000	1000	1000	1000
7129	0.0990338	0.0429337	0.072158	0	0	0	-1.60607e-05	-7.32447e-06	-6.82389e-06	1000	1000	1000	1000	1000	1000
7139	0.0990044	0.0429573	0.0722445	0	0	0	-1.61947e-05	-7.52651e-06	-6.83374e-06	1000	1000	1000	1000	1000	1000
7149	0.0989473	0.0429255	0.072194	0	0	0	-1.62767e-05	-7.4584e-06	-6.77032e-06	1000	1000	1000	1000	1000	1000
7159	0.0989436	0.0429207	0.0721524	0	0	0	-1.63359e-05	-7.25623e-06	-6.67412e-06	1000	1000	1000	1000	1000	1000
7169	0.0989032	0.0429416	0.0722369	0	0	0	-1.63052e-05	-7.35766e-06	-6.79027e-06	1000	1000	1000	1000	1000	1000
7179	0.0989726	0.0429589	0.0722769	0	0	0	-1.64495e-05	-7.3674e-06	-6.91895e-06	1000	1000	1000	1000	1000	1000
7189	0.09895	0.0430374	0.0722868	0	0	0	-1.641e-05	-7.46247e-06	-6.83922e-06	1000	1000	1000	1000	1000	1000
7199	0.09896	0.0430782	0.0723367	0	0	0	-1.62912e-05	-7.43815e-06	-6.85014e-06	1000	1000	1000	1000	1000	1000
7210	0.0990618	0.043142	0.0723463	0	0	0	-1.65184e-05	-7.46836e-06	-6.86634e-06	1000	1000	1000	1000	1000	1000
7220	0.099102	0.0431369	0.0723395	0	0	0	-1.66786e-05	-7.50262e-06	-6.80107e-06	1000	1000	1000	1000	1000	1000
7230	0.0991013	0.0431089	0.0724925	0	0	0	-1.66954e-05	-7.37066e-06	-6.91128e-06	1000	1000	1000	1000	1000	1000
7240	0.0990467	0.0430986	0.072646	0	0	0	-1.64191e-05	-7.36773e-06	-7.03238e-06	1000	1000	1000	1000	1000	1000
7250	0.0990393	0.043115	0.0726839	0	0	0	-1.63936e-05	-7.41668e-06	-6.99894e-06	1000	1000	1000	1000	1000	1000
7260	0.0990814	0.0430953	0.072768	0	0	0	-1.65785e-05	-7.31574e-06	-6.90519e-06	1000	1000	1000	1000	1000	1000
7270	0.099061	0.0430975	0.0728503	0	0	0	-1.64918e-05	-7.29397e-06	-6.85369e-06	1000	1000	1000	1000	1000	1000
7280	0.0990448	0.0431043	0.0729187	0	0	0	-1.63076e-05	-7.23663e-06	-6.86231e-06	1000	1000	1000	1000	1000	1000
7290	0.0991367	0.0431549	0.0729361	0	0	0	-1.65459e-05	-7.42114e-06	-6.79092e-06	1000	1000	1000	1000	1000	1000
7300	0.0991952	0.0432486	0.0729075	0	0	0	-1.65676e-05	-7.51998e-06	-6.76204e-06	1000	1000	1000	1000	1000	1000
7310	0.0991795	0.0432706	0.0729603	0	0	0	-1.63741e-05	-7.47466e-06	-6.84889e-06	1000	1000	1000	1000	1000	1000
7320	0.0991283	0.043275	0.0729987	0	0	0	-1.63764e-05	-7.48721e-06	-6.94576e-06	1000	1000	1000	1000	1000	1000
7330	0.0990204	0.0433186	0.0729901	0	0	0	-1.62022e-05	-7.5826e-06	-6.96397e-06	1000	1000	1000	1000	1000	1000
7340	0.0990177	0.0433266	0.0729851	0	0	0	-1.61901e-05	-7.62271e-06	-6.86e-06	1000	1000	1000	1000	1000	1000
7351	0.0990044	0.0433316	0.072978	0	0	0	-1.63745e-05	-7.48897e-06	-6.77611e-06	1000	1000	1000	1000	1000	1000
7361	0.0990227	0.0433809	0.0730878	0	0	0	-1.65255e-05	-7.50967e-06	-6.98018e-06	1000	1000	1000	1000	1000	1000
7371	0.0990168	0.0434163	0.0731078	0	0	0	-1.64291e-05	-7.55053e-06	-6.94109e-06	1000	1000	1000	1000	1000	1000
7381	0.0990888	0.0434167	0.0731056	0	0	0	-1.65606e-05	-7.47955e-06	-6.85596e-06	1000	1000	1000	1000	1000	1000
7391	0.0991165	0.0434271	0.0731069	0	0	0	-1.66936e-05	-7.36965e-06	-6.756e-06	1000	1000	1000	1000	1000	1000
7401	0.0991388	0.0434678	0.0732147	0	0	0	-1.6552e-05	-7.38996e-06	-6.87928e-06	1000	1000	1000	1000	1000	1000
7411	0.099152	0.0435342	0.0732286	0	0	0	-1.64104e-05	-7.52159e-06	-6.83752e-06	1000	1000	1000	1000	1000	1000
7421	0.099162	0.0435636	0.0732242	0	0	0	-1.64862e-05	-7.56817e-06	-6.71341e-06	1000	1000	1000	1000	1000	1000
7431	0.099153	0.0435824	0.0733371	0	0	0	-1.65142e-05	-7.57645e-06	-6.83129e-06	1000	1000	1000	1000	1000	1000
7441	0.0991495	0.0436254	0.0733653	0	0	0	-1.66092e-05	-7.67886e-06	-6.88015e-06	1000	1000	1000	1000	1000	1000
7451	0.0991262	0.0436414	0.0733416	0	0	0	-1.64968e-05	-7.64433e-06	-6.88564e-06	1000	1000	1000	1000	1000	1000
7461	0.0991329	0.0436417	0.0732843	0	0	0	-1.64598e-05	-7.5524e-06	-6.8223e-06	1000	1000	1000	1000	1000	1000
7471	0.0991312	0.0437096	0.0733527	0	0	0	-1.64555e-05	-7.67837e-06	-6.86527e-06	1000	1000	1000	1000	1000	1000
7482	0.0991261	0.0437285	0.0733915	0	0	0	-1.64169e-05	-7.49136e-06	-7.00477e-06	1000	1000	1000	1000	1000	1000
7492	0.0991808	0.0437681	0.0733734	0	0	0	-1.64605e-05	-7.4904e-06	-6.87947e-06	1000	1000	1000	1000	1000	1000
7502	0.0992125	0.0438052	0.0734763	0	0	0	-1.65266e-05	-7.55201e-06	-7.00082e-06	1000	1000	1000	1000	1000	1000
7512	0.0992496	0.0438814	0.0735272	0	0	0	-1.65e-05	-7.60967e-06	-7.07779e-06	1000	1000	1000	1000	1000	1000
7522	0.0992357	0.0438658	0.0735483	0	0	0	-1.65008e-05	-7.5901e-06	-7.02513e-06	1000	1000	1000	1000	1000	1000
7532	0.0991733	0.0438911	0.0736205	0	0	0	-1.64072e-05	-7.56717e-06	-6.93497e-06	1000	1000	1000	1000	1000	1000
7542	0.0991753	0.0439033	0.0736667	0	0	0	-1.64294e-05	-7.59703e-06	-6.93348e-06	1000	1000	1000	1000	1000	1000
7552	0.0991967	0.0438382	0.0736773	0	0	0	-1.66051e-05	-7.51196e-06	-6.8956e-06	1000	1000	1000	1000	1000	1000
7562	0.0991512	0.0438592	0.0736825	0	0	0	-1.65392e-05	-7.3949e-06	-6.80393e-06	1000	1000	1000	1000	1000	1000
7572	0.0991594	0.043881	0.0737149	0	0	0	-1.64332e-05	-7.5376e-06	-6.79806e-06	1000	1000	1000	1000	1000	1000
7582	0.0991614	0.0439125	0.0738867	0	0	0	-1.64144e-05	-7.5057e-06	-6.96211e-06	1000	1000	1000	1000	1000	1000
7592	0.0991939	0.044024	0.0739059	0	0	0	-1.63527e-05	-7.73347e-06	-6.97645e-06	1000	1000	1000	1000	1000	1000
7602	0.0992343	0.0440835	0.0739496	0	0	0	-1.65124e-05	-7.83815e-06	-7.03872e-06	1000	1000	1000	1000	1000	1000
7612	0.0993007	0.0441236	0.0740056	0	0	0	-1.65289e-05	-7.64626e-06	-7.11487e-06	1000	1000	1000	1000	1000	1000
7622	0.0993013	0.0441576	0.0740136	0	0	0	-1.66407e-05	-7.68708e-06	-7.10711e-06	1000	1000	1000	1000	1000	1000
7633	0.0992555	0.0441528	0.0740244	0	0	0	-1.65928e-05	-7.70339e-06	-6.99585e-06	1000	1000	1000	1000	1000	1000
7643	0.0992037	0.0442251	0.0739684	0	0	0	-1.63932e-05	-7.77548e-06	-6.84789e-06	1000	1000	1000	1000	1000	1000
7653	0.0992372	0.0442469	0.0740006	0	0	0	-1.65099e-05	-7.75899e-06	-6.83436e-06	1000	1000	1000	1000	1000	1000
7663	0.0991957	0.0442835	0.0739893	0	0	0	-1.64661e-05	-7.75514e-06	-6.90542e-06	1000	1000	1000	1000	1000	1000
7673	0.0992454	0.0443322	0.0740894	0	0	0	-1.64519e-05	-7.73669e-06	-6.99922e-06	1000	1000	1000	1000	1000	1000
7683	0.0992878	0.044357	0.0741339	0	0	0	-1.65765e-05	-7.73757e-06	-7.03972e-06	1000	1000	1000	1000	1000	1000
7693	0.0992804	0.0443932	0.0741864	0	0	0	-1.65334e-05	-7.65443e-06	-7.04724e-06	1000	1000	1000	1000	1000	1000
7703	0.0993502	0.0444103	0.074284	0	0	0	-1.65043e-05	-7.50437e-06	-7.0223e-06	1000	1000	1000	1000	1000	1000
7713	0.0993501	0.0444414	0.0743594	0	0	0	-1.64833e-05	-7.51153e-06	-7.00528e-06	1000	1000	1000	1000	1000	1000
7723	0.0993658	0.0444375	0.0744306	0	0	0	-1.65486e-05	-7.62973e-06	-6.96509e-06	1000	1000	1000	1000	1000	1000
7733	0.0993131	0.0443963	0.0744858	0	0	0	-1.64917e-05	-7.60307e-06	-6.9459e-06	1000	1000	1000	1000	1000	1000
7743	0.0992784	0.0444288	0.0745694	0	0	0	-1.63484e-05	-7.59898e-06	-7.02532e-06	1000	1000	1000	1000	1000	1000
7753	0.0993045	0.044458	0.0746137	0	0	0	-1.65039e-05	-7.68115e-06	-7.10141e-06	1000	1000	1000	1000	1000	1000
7763	0.0992202	0.0444682	0.0745735	0	0	0	-1.63719e-05	-7.71244e-06	-7.03484e-06	1000	1000	1000	1000	1000	1000
7773	0.0992503	0.0445258	0.0745482	0	0	0	-1.62942e-05	-7.69667e-06	-6.91994e-06	1000	1000	1000	1000	1000	1000
7784	0.0992109	0.0445358	0.0746323	0	0	0	-1.63219e-05	-7.69693e-06	-7.04289e-06	1000	1000	1000	1000	1000	1000
7794	0.0992744	0.0445789	0.0745986	0	0	0	-1.64469e-05	-7.71618e-06	-7.07369e-06	1000	1000	1000	1000	1000	1000
