Time	Roll	Pitch	Yaw	Des_Roll	Des_Pitch	Des_Yaw	Des_Pos_X	Des_Pos_Y	Des_Pos_Z	Pos_X	Pos_Y	Pos_Z	ForceX	ForceY	ForceZ	TorqueRoll	TorquePitch	TorqueYaw	PWM0	PWM1	PWM2	PWM3	PWM4	PWM5	
65	0	1	2	3	4	5	6	7	8	9	10	11	12	13	14	15	16	17	18	19	20	21	22	23
65	0	1	0	3	4	5	6	7	8	9	10	11	12	13	14	15	16	17	18	19	20	21	22	23
65	0	1	0	3	0	5	6	7	8	9	10	11	12	13	14	15	16	17	18	19	20	21	22	23
65	0	1	0	3	0	5	0	7	8	9	10	11	12	13	14	15	16	17	18	19	20	21	22	23
65	0	1	0	3	0	5	0	7	-1	9	10	11	12	13	14	15	16	17	18	19	20	21	22	23
65	0	1	0	3	0	5	0	7	-1	9	0	11	12	13	14	15	16	17	18	19	20	21	22	23
75	0.0436828	1	0	3	0	5	0	7	-1	9	0	11	12	13	14	15	16	17	18	19	20	21	22	23
75	0.0436828	1	0.00541643	3	0	5	0	7	-1	9	0	11	12	13	14	15	16	17	18	19	20	21	22	23
75	0.0436828	1	0.00541643	3	0	5	0	7	-1	9	0	11	12	13	14	15	16	17	18	19	20	21	22	23
75	0.0436828	1	0.00541643	3	0	5	0	7	-1	9	0	11	12	13	14	15	16	17	18	19	20	21	22	23
75	0.0436828	1	0.00541643	3	0	5	0	7	-1	9	0	11	12	13	14	15	16	17	18	19	20	21	22	23
75	0.0436828	1	0.00541643	3	0	5	0	7	-1	9	1.00322	11	12	13	14	15	16	17	18	19	20	21	22	23
85	0.0435418	1	0.00541643	3	0	5	0	7	-1	9	1.00322	11	12	13	14	15	16	17	18	19	20	21	22	23
85	0.0435418	1	0.00544034	3	0	5	0	7	-1	9	1.00322	11	12	13	14	15	16	17	18	19	20	21	22	23
85	0.0435418	1	0.00544034	3	0	5	0	7	-1	9	1.00322	11	12	13	14	15	16	17	18	19	20	21	22	23
85	0.0435418	1	0.00544034	3	0	5	0	7	-1	9	1.00322	11	12	13	14	15	16	17	18	19	20	21	22	23
85	0.0435418	1	0.00544034	3	0	5	0	7	-1	9	1.00322	11	12	13	14	15	16	17	18	19	20	21	22	23
85	0.0435418	1	0.00544034	3	0	5	0	7	-1	9	1.00326	11	12	13	14	15	16	17	18	19	20	21	22	23
95	0.0433339	1	0.00544034	3	0	5	0	7	-1	9	1.00326	11	12	13	14	15	16	17	18	19	20	21	22	23
95	0.0433339	1	0.00542297	3	0	5	0	7	-1	9	1.00326	11	12	13	14	15	16	17	18	19	20	21	22	23
95	0.0433339	1	0.00542297	3	0	5	0	7	-1	9	1.00326	11	12	13	14	15	16	17	18	19	20	21	22	23
95	0.0433339	1	0.00542297	3	0	5	0	7	-1	9	1.00326	11	12	13	14	15	16	17	18	19	20	21	22	23
95	0.0433339	1	0.00542297	3	0	5	0	7	-1	9	1.00326	11	12	13	14	15	16	17	18	19	20	21	22	23
95	0.0433339	1	0.00542297	3	0	5	0	7	-1	9	1.00323	11	12	13	14	15	16	17	18	19	20	21	22	23
105	0.0432266	-0.00125743	0.00549746	0	0	0	0	1	-1	-0.000343201	1.00318	-0.00256699	12	13	14	15	16	17	18	19	20	21	22	23
115	0.043044	-0.00120568	0.00542883	0	0	0	0	1	-1	-0.000345856	1.00317	-0.00257752	12	13	14	15	16	17	18	19	20	21	22	23
125	0.0429848	-0.00118307	0.00547501	0	0	0	0	1	-1	-0.00034301	1.00312	-0.00256366	12	13	14	15	16	17	18	19	20	21	22	23
135	0.0429454	-0.00114172	0.00540799	0	0	0	0	1	-1	-0.000348764	1.00315	-0.00258905	12	13	14	15	16	17	18	19	20	21	22	23
146	0.0428073	-0.001118	0.00540135	0	0	0	0	1	-1	-0.000348977	1.00312	-0.0025883	12	13	14	15	16	17	18	19	20	21	22	23
156	0.042683	-0.0010942	0.00540094	0	0	0	0	1	-1	-0.000347977	1.00309	-0.0025826	12	13	14	15	16	17	18	19	20	21	22	23
166	0.0426036	-0.000984542	0.00539404	0	0	0	0	1	-1	-0.000348683	1.00306	-0.00258365	12	13	14	15	16	17	18	19	20	21	22	23
176	0.0424932	-0.00101715	0.0054415	0	0	0	0	1	-1	-0.000347541	1.00302	-0.0025766	12	13	14	15	16	17	18	19	20	21	22	23
186	0.0423898	-0.00100361	0.00544089	0	0	0	0	1	-1	-0.00035246	1.00305	-0.00259814	12	13	14	15	16	17	18	19	20	21	22	23
196	0.0423496	-0.00090942	0.00541509	0	0	0	0	1	-1	-0.000351787	1.00301	-0.00259211	12	13	14	15	16	17	18	19	20	21	22	23
206	0.0422609	-0.000870865	0.00541963	0	0	0	0	1	-1	-0.000349162	1.00296	-0.00257742	12	13	14	15	16	17	18	19	20	21	22	23
216	0.0420645	-0.000868502	0.0054024	0	0	0	0	1	-1	-0.000351633	1.00294	-0.00258501	12	13	14	15	16	17	18	19	20	21	22	23
226	0.0420134	-0.000795961	0.00538025	0	0	0	0	1	-1	-0.000350321	1.0029	-0.002575	12	13	14	15	16	17	18	19	20	21	22	23
236	0.0419512	-0.000754667	0.00539421	0	0	0	0	1	-1	-0.000355252	1.00293	-0.00259569	12	13	14	15	16	17	18	19	20	21	22	23
246	0.0418156	-0.000718924	0.00542331	0	0	0	0	1	-1	-0.000354244	1.00289	-0.00258673	12	13	14	15	16	17	18	19	20	21	22	23
256	0.0417095	-0.000703273	0.00547303	0	0	0	0	1	-1	-0.000353604	1.00285	-0.00257915	12	13	14	15	16	17	18	19	20	21	22	23
266	0.0416706	-0.000615639	0.00542549	0	0	0	0	1	-1	-0.000352432	1.00281	-0.00256908	12	13	14	15	16	17	18	19	20	21	22	23
276	0.0415898	-0.000572007	0.00539933	0	0	0	0	1	-1	-0.000357941	1.00284	-0.00259238	12	13	14	15	16	17	18	19	20	21	22	23
286	0.0390257	-0.000535618	0.00540378	0	0	0	0	1	-1	-0.000357832	1.0028	-0.00258697	12	13	14	15	16	17	18	19	20	21	22	23
297	0.0389207	-0.000559066	0.00543649	0	0	0	0	1	-1	-0.000358677	1.0028	-0.00260704	12	13	14	15	16	17	18	19	20	21	22	23
307	0.0388431	-0.000590435	0.00540836	0	0	0	0	1	-1	-0.00035694	1.00278	-0.0026114	12	13	14	15	16	17	18	19	20	21	22	23
317	0.0387237	-0.000580554	0.00531862	0	0	0	0	1	-1	-0.000354608	1.00276	-0.00261346	12	13	14	15	16	17	18	19	20	21	22	23
327	0.0385883	-0.000552781	0.00528323	0	0	0	0	1	-1	-0.000350793	1.00272	-0.0026041	12	13	14	15	16	17	18	19	20	21	22	23
337	0.0385027	-0.000554632	0.00530665	0	0	0	0	1	-1	-0.000351127	1.00272	-0.00262192	12	13	14	15	16	17	18	19	20	21	22	23
347	0.0384477	-0.000549833	0.00535053	0	0	0	0	1	-1	-0.000357659	1.00278	-0.00266465	12	13	14	15	16	17	18	19	20	21	22	23
357	0.0383603	-0.000524077	0.00532383	0	0	0	0	1	-1	-0.000353828	1.00274	-0.0026544	12	13	14	15	16	17	18	19	20	21	22	23
367	0.0382997	-0.000538311	0.00532919	0	0	0	0	1	-1	-0.000352338	1.00272	-0.00265837	12	13	14	15	16	17	18	19	20	21	22	23
377	0.0381448	-0.000507967	0.00535259	0	0	0	0	1	-1	-0.000350349	1.00269	-0.00265979	12	13	14	15	16	17	18	19	20	21	22	23
387	0.0380462	-0.000429103	0.00540784	0	0	0	0	1	-1	-0.000356779	1.00275	-0.00270177	12	13	14	15	16	17	18	19	20	21	22	23
397	0.0378736	-0.000378274	0.00538987	0	0	0	0	1	-1	-0.000356852	1.00274	-0.00271683	12	13	14	15	16	17	18	19	20	21	22	23
407	0.0377663	-0.000327612	0.00536427	0	0	0	0	1	-1	-0.000356668	1.00273	-0.00272901	12	13	14	15	16	17	18	19	20	21	22	23
417	0.037706	-0.000290372	0.00535275	0	0	0	0	1	-1	-0.000353351	1.0027	-0.00272182	12	13	14	15	16	17	18	19	20	21	22	23
427	0.0375893	-0.000281432	0.00536464	0	0	0	0	1	-1	-0.000349772	1.00266	-0.00271204	12	13	14	15	16	17	18	19	20	21	22	23
438	0.0375227	-0.000210933	0.00542237	0	0	0	0	1	-1	-0.00035031	1.00266	-0.00272817	12	13	14	15	16	17	18	19	20	21	22	23
448	0.0374729	-0.000204448	0.00545032	0	0	0	0	1	-1	-0.000356533	1.00271	-0.00276917	12	13	14	15	16	17	18	19	20	21	22	23
458	0.037369	-0.000165731	0.00545908	0	0	0	0	1	-1	-0.000355728	1.0027	-0.00277802	12	13	14	15	16	17	18	19	20	21	22	23
468	0.0373301	-0.000128426	0.00543882	0	0	0	0	1	-1	-0.00035288	1.00267	-0.00277204	12	13	14	15	16	17	18	19	20	21	22	23
478	0.0372561	-0.000102314	0.00540592	0	0	0	0	1	-1	-0.000348927	1.00263	-0.00275933	12	13	14	15	16	17	18	19	20	21	22	23
488	0.0371353	-7.51303e-05	0.00536733	0	0	0	0	1	-1	-0.000349086	1.00262	-0.00277227	12	13	14	15	16	17	18	19	20	21	22	23
498	0.0370655	-3.38024e-05	0.00530781	0	0	0	0	1	-1	-0.00035537	1.00267	-0.00281246	12	13	14	15	16	17	18	19	20	21	22	23
508	0.0369851	-2.36822e-05	0.00530008	0	0	0	0	1	-1	-0.000352002	1.00263	-0.00280247	12	13	14	15	16	17	18	19	20	21	22	23
518	0.0368954	-3.06582e-05	0.00535772	0	0	0	0	1	-1	-0.000351923	1.00262	-0.00281341	12	13	14	15	16	17	18	19	20	21	22	23
528	0.0368399	-6.92861e-05	0.0054219	0	0	0	0	1	-1	-0.000348458	1.00259	-0.00280202	12	13	14	15	16	17	18	19	20	21	22	23
538	0.0366893	-5.76871e-05	0.00546006	0	0	0	0	1	-1	-0.000350475	1.00259	-0.00282354	12	13	14	15	16	17	18	19	20	21	22	23
548	0.0365851	-2.14807e-05	0.00547802	0	0	0	0	1	-1	-0.000355671	1.00262	-0.00285491	12	13	14	15	16	17	18	19	20	21	22	23
558	0.0365173	4.18256e-05	0.00544859	0	0	0	0	1	-1	-0.00035536	1.00261	-0.00286107	12	13	14	15	16	17	18	19	20	21	22	23
568	0.0364942	8.19566e-05	0.00545506	0	0	0	0	1	-1	-0.000352888	1.00258	-0.00285303	12	13	14	15	16	17	18	19	20	21	22	23
579	0.0365204	9.03395e-05	0.00545323	0	0	0	0	1	-1	-0.000349265	1.00254	-0.00283813	12	13	14	15	16	17	18	19	20	21	22	23
589	0.0364708	0.000115733	0.0054599	0	0	0	0	1	-1	-0.000350843	1.00253	-0.00285117	12	13	14	15	16	17	18	19	20	21	22	23
599	0.0363673	0.000161042	0.0055362	0	0	0	0	1	-1	-0.000356382	1.00256	-0.00288169	12	13	14	15	16	17	18	19	20	21	22	23
609	0.0362538	0.000178814	0.00554817	0	0	0	0	1	-1	-0.000354855	1.00253	-0.00287657	12	13	14	15	16	17	18	19	20	21	22	23
619	0.0360733	0.000221818	0.00559029	0	0	0	0	1	-1	-0.000354391	1.00251	-0.00287629	12	13	14	15	16	17	18	19	20	21	22	23
629	0.0359844	0.000286953	0.00558154	0	0	0	0	1	-1	-0.000349398	1.00246	-0.00285139	12	13	14	15	16	17	18	19	20	21	22	23
639	0.0357973	0.000284542	0.00557333	0	0	0	0	1	-1	-0.000356331	1.00249	-0.00288867	12	13	14	15	16	17	18	19	20	21	22	23
649	0.0356179	0.000348063	0.00553988	0	0	0	0	1	-1	-0.000356523	1.00247	-0.00289065	12	13	14	15	16	17	18	19	20	21	22	23
659	0.0354316	0.000364628	0.00555861	0	0	0	0	1	-1	-0.000354976	1.00244	-0.00288314	12	13	14	15	16	17	18	19	20	21	22	23
669	0.0353048	0.00038256	0.00560398	0	0	0	0	1	-1	-0.000350956	1.0024	-0.00286207	12	13	14	15	16	17	18	19	20	21	22	23
679	0.0351361	0.000386221	0.00559711	0	0	0	0	1	-1	-0.00034956	1.00236	-0.00285381	12	13	14	15	16	17	18	19	20	21	22	23
689	0.0349483	0.000395844	0.00561278	0	0	0	0	1	-1	-0.000350052	1.00234	-0.00285383	12	13	14	15	16	17	18	19	20	21	22	23
699	0.0347396	0.000437319	0.00558878	0	0	0	0	1	-1	-0.000350121	1.00231	-0.00285193	12	13	14	15	16	17	18	19	20	21	22	23
709	0.0346584	0.000398313	0.00568624	0	0	0	0	1	-1	-0.000357375	1.00235	-0.00288804	12	13	14	15	16	17	18	19	20	21	22	23
719	0.0345355	0.000397363	0.00567288	0	0	0	0	1	-1	-0.000354244	1.0023	-0.00286899	12	13	14	15	16	17	18	19	20	21	22	23
730	0.034427	0.000407304	0.00572725	0	0	0	0	1	-1	-0.000353079	1.00227	-0.00285895	12	13	14	15	16	17	18	19	20	21	22	23
740	0.0343319	0.000340672	0.0057206	0	0	0	0	1	-1	-0.000352328	1.00224	-0.00285057	12	13	14	15	16	17	18	19	20	21	22	23
750	0.0341753	0.00039055	0.00568943	0	0	0	0	1	-1	-0.000352735	1.00221	-0.00284659	12	13	14	15	16	17	18	19	20	21	22	23
760	0.0340499	0.000411926	0.0056538	0	0	0	0	1	-1	-0.000360669	1.00224	-0.00288171	12	13	14	15	16	17	18	19	20	21	22	23
770	0.0339732	0.000431147	0.00559487	0	0	0	0	1	-1	-0.00036032	1.00221	-0.0028717	12	13	14	15	16	17	18	19	20	21	22	23
780	0.0339638	0.00046541	0.00565858	0	0	0	0	1	-1	-0.000356353	1.00216	-0.002846	12	13	14	15	16	17	18	19	20	21	22	23
790	0.0338842	0.000447965	0.00571171	0	0	0	0	1	-1	-0.000359887	1.00214	-0.00285189	12	13	14	15	16	17	18	19	20	21	22	23
800	0.0337529	0.000454222	0.00577197	0	0	0	0	1	-1	-0.000358995	1.0021	-0.00283817	12	13	14	15	16	17	18	19	20	21	22	23
810	0.0336646	0.000484906	0.00578678	0	0	0	0	1	-1	-0.000367085	1.00213	-0.00287217	12	13	14	15	16	17	18	19	20	21	22	23
820	0.0335756	0.000536729	0.00573372	0	0	0	0	1	-1	-0.00036669	1.00209	-0.00285987	12	13	14	15	16	17	18	19	20	21	22	23
830	0.0335862	0.00058774	0.00573435	0	0	0	0	1	-1	-0.000365019	1.00206	-0.00284259	12	13	14	15	16	17	18	19	20	21	22	23
840	0.033533	0.000624268	0.00580232	0	0	0	0	1	-1	-0.000364494	1.00202	-0.00282937	12	13	14	15	16	17	18	19	20	21	22	23
850	0.0334354	0.0006308	0.00574654	0	0	0	0	1	-1	-0.000372696	1.00205	-0.00286261	12	13	14	15	16	17	18	19	20	21	22	23
861	0.0333436	0.000667689	0.00579015	0	0	0	0	1	-1	-0.00037419	1.00202	-0.00285716	12	13	14	15	16	17	18	19	20	21	22	23
871	0.0332692	0.000673971	0.00583206	0	0	0	0	1	-1	-0.000374377	1.00198	-0.00284676	12	13	14	15	16	17	18	19	20	21	22	23
881	0.0332222	0.000666816	0.00579581	0	0	0	0	1	-1	-0.000374057	1.00195	-0.00283352	12	13	14	15	16	17	18	19	20	21	22	23
891	0.0331566	0.000658883	0.00584622	0	0	0	0	1	-1	-0.000374145	1.00191	-0.00282189	12	13	14	15	16	17	18	19	20	21	22	23
901	0.0330491	0.000641436	0.00588071	0	0	0	0	1	-1	-0.000374669	1.00188	-0.00281186	12	13	14	15	16	17	18	19	20	21	22	23
911	0.0330268	0.000587683	0.00583533	0	0	0	0	1	-1	-0.00038136	1.0019	-0.00283736	12	13	14	15	16	17	18	19	20	21	22	23
921	0.0330121	0.000578369	0.0058927	0	0	0	0	1	-1	-0.000381316	1.00187	-0.00282427	12	13	14	15	16	17	18	19	20	21	22	23
931	0.0329717	0.000655592	0.00597452	0	0	0	0	1	-1	-0.000383248	1.00184	-0.00281909	12	13	14	15	16	17	18	19	20	21	22	23
941	0.0329308	0.000685592	0.00604393	0	0	0	0	1	-1	-0.000383808	1.00181	-0.00280922	12	13	14	15	16	17	18	19	20	21	22	23
951	0.0328536	0.000689913	0.00610429	0	0	0	0	1	-1	-0.000386192	1.00178	-0.00280558	12	13	14	15	16	17	18	19	20	21	22	23
961	0.0328005	0.000743348	0.00610416	0	0	0	0	1	-1	-0.000391935	1.00179	-0.00282731	12	13	14	15	16	17	18	19	20	21	22	23
971	0.0327217	0.000788027	0.00609614	0	0	0	0	1	-1	-0.000390646	1.00176	-0.00280961	12	13	14	15	16	17	18	19	20	21	22	23
981	0.0326411	0.000769465	0.00614039	0	0	0	0	1	-1	-0.000390487	1.00172	-0.00279536	12	13	14	15	16	17	18	19	20	21	22	23
991	0.0325237	0.000753589	0.00620313	0	0	0	0	1	-1	-0.000390823	1.00169	-0.00278277	12	13	14	15	16	17	18	19	20	21	22	23
1001	0.0324454	0.000797699	0.00626096	0	0	0	0	1	-1	-0.000393303	1.00166	-0.00277785	12	13	14	15	16	17	18	19	20	21	22	23
1012	0.0324587	0.00079256	0.00629981	0	0	0	0	1	-1	-0.000395997	1.00163	-0.00277279	12	13	14	15	16	17	18	19	20	21	22	23
1022	0.0324221	0.000775728	0.00631143	0	0	0	0	1	-1	-0.000404522	1.00165	-0.00280278	12	13	14	15	16	17	18	19	20	21	22	23
1032	0.0324108	0.000836727	0.00627925	0	0	0	0	1	-1	-0.000404799	1.00162	-0.00278989	12	13	14	15	16	17	18	19	20	21	22	23
1042	0.0323196	0.0008704	0.00626599	0	0	0	0	1	-1	-0.000401884	1.00157	-0.0027652	12	13	14	15	16	17	18	19	20	21	22	23
1052	0.0322356	0.000940438	0.00630243	0	0	0	0	1	-1	-0.000401832	1.00154	-0.00275107	12	13	14	15	16	17	18	19	20	21	22	23
1062	0.0321846	0.00101127	0.00634596	0	0	0	0	1	-1	-0.000410057	1.00156	-0.0027803	12	13	14	15	16	17	18	19	20	21	22	23
1072	0.0321527	0.00102294	0.00635055	0	0	0	0	1	-1	-0.000409417	1.00152	-0.00276321	12	13	14	15	16	17	18	19	20	21	22	23
1082	0.0320333	0.0010943	0.00631171	0	0	0	0	1	-1	-0.000407539	1.00148	-0.00274205	12	13	14	15	16	17	18	19	20	21	22	23
1092	0.0319324	0.0010946	0.00636389	0	0	0	0	1	-1	-0.000407804	1.00145	-0.00272815	12	13	14	15	16	17	18	19	20	21	22	23
1102	0.0318864	0.00121024	0.00648851	0	0	0	0	1	-1	-0.000409315	1.00141	-0.00271691	12	13	14	15	16	17	18	19	20	21	22	23
1112	0.0318672	0.00125117	0.00648976	0	0	0	0	1	-1	-0.000412237	1.00138	-0.00270991	12	13	14	15	16	17	18	19	20	21	22	23
1122	0.0318711	0.00125528	0.00650711	0	0	0	0	1	-1	-0.000421134	1.0014	-0.00273765	12	13	14	15	16	17	18	19	20	21	22	23
1132	0.0318157	0.00130384	0.00645386	0	0	0	0	1	-1	-0.00041934	1.00136	-0.00271554	12	13	14	15	16	17	18	19	20	21	22	23
1142	0.031808	0.00129374	0.00648152	0	0	0	0	1	-1	-0.000419559	1.00132	-0.00269894	12	13	14	15	16	17	18	19	20	21	22	23
1153	0.0317033	0.00133206	0.0065273	0	0	0	0	1	-1	-0.000420322	1.00129	-0.00268407	12	13	14	15	16	17	18	19	20	21	22	23
1163	0.0316254	0.00138024	0.00652369	0	0	0	0	1	-1	-0.000429599	1.0013	-0.00271146	12	13	14	15	16	17	18	19	20	21	22	23
1173	0.0316549	0.00146069	0.0065351	0	0	0	0	1	-1	-0.000430864	1.00127	-0.00269781	12	13	14	15	16	17	18	19	20	21	22	23
1183	0.0315461	0.00138775	0.00661478	0	0	0	0	1	-1	-0.000431377	1.00123	-0.00268114	12	13	14	15	16	17	18	19	20	21	22	23
1193	0.0314785	0.00145519	0.00662626	0	0	0	0	1	-1	-0.000436988	1.00121	-0.00267957	12	13	14	15	16	17	18	19	20	21	22	23
1203	0.0314057	0.00146143	0.00660477	0	0	0	0	1	-1	-0.00043661	1.00117	-0.00266078	12	13	14	15	16	17	18	19	20	21	22	23
1213	0.0313967	0.00148551	0.00659461	0	0	0	0	1	-1	-0.000437405	1.00114	-0.00264423	12	13	14	15	16	17	18	19	20	21	22	23
1223	0.0314003	0.00147925	0.00660156	0	0	0	0	1	-1	-0.000444211	1.00114	-0.00266262	12	13	14	15	16	17	18	19	20	21	22	23
1233	0.0313789	0.00149344	0.00661504	0	0	0	0	1	-1	-0.000445608	1.00111	-0.00264747	12	13	14	15	16	17	18	19	20	21	22	23
1243	0.0313158	0.00152405	0.00669049	0	0	0	0	1	-1	-0.000447304	1.00108	-0.00263378	12	13	14	15	16	17	18	19	20	21	22	23
1253	0.0312608	0.00154835	0.00667185	0	0	0	0	1	-1	-0.000448207	1.00104	-0.00261695	12	13	14	15	16	17	18	19	20	21	22	23
1263	0.0312315	0.00157466	0.00662756	0	0	0	0	1	-1	-0.000457958	1.00105	-0.00264236	12	13	14	15	16	17	18	19	20	21	22	23
1273	0.0311934	0.00161926	0.0066436	0	0	0	0	1	-1	-0.000459392	1.00102	-0.00262693	12	13	14	15	16	17	18	19	20	21	22	23
1283	0.0311464	0.00164794	0.00669398	0	0	0	0	1	-1	-0.000461275	1.00099	-0.00261317	12	13	14	15	16	17	18	19	20	21	22	23
1294	0.0311304	0.00169512	0.00674457	0	0	0	0	1	-1	-0.000467433	1.00095	-0.00260872	12	13	14	15	16	17	18	19	20	21	22	23
1304	0.03112	0.00175094	0.00675318	0	0	0	0	1	-1	-0.000468979	1.00092	-0.00259329	12	13	14	15	16	17	18	19	20	21	22	23
1314	0.031155	0.00176832	0.00677387	0	0	0	0	1	-1	-0.000468886	1.00089	-0.00257447	12	13	14	15	16	17	18	19	20	21	22	23
1324	0.0310725	0.00177754	0.00680902	0	0	0	0	1	-1	-0.000476011	1.00089	-0.00259158	12	13	14	15	16	17	18	19	20	21	22	23
1334	0.0309941	0.00181749	0.00678088	0	0	0	0	1	-1	-0.000477155	1.00086	-0.00257423	12	13	14	15	16	17	18	19	20	21	22	23
1344	0.0310123	0.00185004	0.00681313	0	0	0	0	1	-1	-0.0004788	1.00083	-0.00255832	12	13	14	15	16	17	18	19	20	21	22	23
1354	0.0310365	0.00185583	0.00680446	0	0	0	0	1	-1	-0.000480887	1.0008	-0.00254386	12	13	14	15	16	17	18	19	20	21	22	23
1364	0.0309803	0.00189896	0.00687709	0	0	0	0	1	-1	-0.000485286	1.00077	-0.00253321	12	13	14	15	16	17	18	19	20	21	22	23
1374	0.0308818	0.001888	0.00691998	0	0	0	0	1	-1	-0.00048909	1.00074	-0.00252177	12	13	14	15	16	17	18	19	20	21	22	23
1384	0.0308632	0.00191685	0.00693741	0	0	0	0	1	-1	-0.000497586	1.00074	-0.00254041	12	13	14	15	16	17	18	19	20	21	22	23
1394	0.0308214	0.00194569	0.00695595	0	0	0	0	1	-1	-0.000499937	1.00071	-0.00252579	12	13	14	15	16	17	18	19	20	21	22	23
1404	0.0308258	0.0019602	0.00699009	0	0	0	0	1	-1	-0.000498164	1.00067	-0.00250115	12	13	14	15	16	17	18	19	20	21	22	23
1414	0.030855	0.00198124	0.00699411	0	0	0	0	1	-1	-0.000509164	1.00067	-0.00252407	12	13	14	15	16	17	18	19	20	21	22	23
1424	0.0295243	0.00194178	0.00704364	0	0	0	0	1	-1	-0.00050679	1.0006	-0.00246943	12	13	14	15	16	17	18	19	20	21	22	23
1434	0.0295697	0.00196477	0.00707513	0	0	0	0	1	-1	-0.000517818	1.0006	-0.00249174	12	13	14	15	16	17	18	19	20	21	22	23
1444	0.0295562	0.00192532	0.00711679	0	0	0	0	1	-1	-0.000519387	1.00057	-0.0024735	12	13	14	15	16	17	18	19	20	21	22	23
1455	0.0296094	0.00196491	0.00709504	0	0	0	0	1	-1	-0.000519167	1.00054	-0.00245247	12	13	14	15	16	17	18	19	20	21	22	23
1465	0.0296464	0.00202759	0.00713585	0	0	0	0	1	-1	-0.00052028	1.0005	-0.00243285	12	13	14	15	16	17	18	19	20	21	22	23
1475	0.0296916	0.0020719	0.00712682	0	0	0	0	1	-1	-0.000531574	1.0005	-0.00245452	12	13	14	15	16	17	18	19	20	21	22	23
1485	0.0296834	0.00203656	0.00718644	0	0	0	0	1	-1	-0.0005367	1.00047	-0.0024425	12	13	14	15	16	17	18	19	20	21	22	23
1495	0.0296514	0.00202171	0.00718395	0	0	0	0	1	-1	-0.000535531	1.00044	-0.00241958	12	13	14	15	16	17	18	19	20	21	22	23
1505	0.0296187	0.00201791	0.00720098	0	0	0	0	1	-1	-0.000534627	1.00041	-0.00239576	12	13	14	15	16	17	18	19	20	21	22	23
1515	0.0295706	0.00204591	0.00710259	0	0	0	0	1	-1	-0.000538902	1.00038	-0.00238182	12	13	14	15	16	17	18	19	20	21	22	23
1525	0.0296023	0.00206226	0.00709655	0	0	0	0	1	-1	-0.000550703	1.00037	-0.00240232	12	13	14	15	16	17	18	19	20	21	22	23
1535	0.0296198	0.00206749	0.0071125	0	0	0	0	1	-1	-0.000553275	1.00034	-0.00238527	12	13	14	15	16	17	18	19	20	21	22	23
1545	0.029643	0.00213666	0.0070971	0	0	0	0	1	-1	-0.000558531	1.00031	-0.00237095	12	13	14	15	16	17	18	19	20	21	22	23
1555	0.0296209	0.00213814	0.00710403	0	0	0	0	1	-1	-0.00055711	1.00028	-0.00234625	12	13	14	15	16	17	18	19	20	21	22	23
1565	0.029579	0.00217748	0.00719814	0	0	0	0	1	-1	-0.000558461	1.00025	-0.00232455	12	13	14	15	16	17	18	19	20	21	22	23
1575	0.0295738	0.00217717	0.00730868	0	0	0	0	1	-1	-0.000570777	1.00025	-0.00234383	12	13	14	15	16	17	18	19	20	21	22	23
1585	0.0295693	0.0021958	0.00730375	0	0	0	0	1	-1	-0.000572664	1.00022	-0.0023236	12	13	14	15	16	17	18	19	20	21	22	23
1596	0.0295891	0.00226147	0.00740222	0	0	0	0	1	-1	-0.000579065	1.00018	-0.00231058	12	13	14	15	16	17	18	19	20	21	22	23
1606	0.0295616	0.00233624	0.00735102	0	0	0	0	1	-1	-0.000583364	1.00015	-0.0022926	12	13	14	15	16	17	18	19	20	21	22	23
1616	0.0296129	0.00234465	0.00735476	0	0	0	0	1	-1	-0.000583084	1.00012	-0.00226862	12	13	14	15	16	17	18	19	20	21	22	23
1626	0.0296179	0.0023306	0.00735341	0	0	0	0	1	-1	-0.000585913	1.00009	-0.00224986	12	13	14	15	16	17	18	19	20	21	22	23
1636	0.0297237	0.00232018	0.00736442	0	0	0	0	1	-1	-0.00059493	1.00009	-0.00226264	12	13	14	15	16	17	18	19	20	21	22	23
1646	0.0297076	0.00239043	0.00735097	0	0	0	0	1	-1	-0.000596625	1.00006	-0.002241	12	13	14	15	16	17	18	19	20	21	22	23
1656	0.029749	0.00238947	0.00739597	0	0	0	0	1	-1	-0.00059884	1.00003	-0.00222083	12	13	14	15	16	17	18	19	20	21	22	23
1666	0.0297545	0.00243523	0.00736251	0	0	0	0	1	-1	-0.000605537	0.999997	-0.00220751	12	13	14	15	16	17	18	19	20	21	22	23
1676	0.0297053	0.00252266	0.00739368	0	0	0	0	1	-1	-0.000607321	0.999967	-0.00218601	12	13	14	15	16	17	18	19	20	21	22	23
1686	0.0296533	0.00257766	0.0073558	0	0	0	0	1	-1	-0.000620544	0.999957	-0.00220339	12	13	14	15	16	17	18	19	20	21	22	23
1696	0.0296387	0.00255932	0.00734039	0	0	0	0	1	-1	-0.000622941	0.999928	-0.00218325	12	13	14	15	16	17	18	19	20	21	22	23
1706	0.0295698	0.00254817	0.00732933	0	0	0	0	1	-1	-0.000624318	0.999898	-0.0021603	12	13	14	15	16	17	18	19	20	21	22	23
1716	0.0295833	0.00262806	0.00730668	0	0	0	0	1	-1	-0.000626315	0.999869	-0.00213876	12	13	14	15	16	17	18	19	20	21	22	23
1726	0.0295986	0.00265434	0.00729417	0	0	0	0	1	-1	-0.000635868	0.999861	-0.00215031	12	13	14	15	16	17	18	19	20	21	22	23
1737	0.0297109	0.00270309	0.00736867	0	0	0	0	1	-1	-0.000638629	0.999833	-0.00213004	12	13	14	15	16	17	18	19	20	21	22	23
1747	0.0297309	0.00271316	0.00737043	0	0	0	0	1	-1	-0.000644407	0.9998	-0.00211192	12	13	14	15	16	17	18	19	20	21	22	23
1757	0.0297984	0.00272412	0.00738372	0	0	0	0	1	-1	-0.000649247	0.99977	-0.00209367	12	13	14	15	16	17	18	19	20	21	22	23
1767	0.0297479	0.00277069	0.00735846	0	0	0	0	1	-1	-0.000649276	0.999745	-0.00207049	12	13	14	15	16	17	18	19	20	21	22	23
1777	0.0297671	0.00274721	0.00732366	0	0	0	0	1	-1	-0.000659105	0.999736	-0.00208137	12	13	14	15	16	17	18	19	20	21	22	23
1787	0.0297042	0.00280408	0.00740444	0	0	0	0	1	-1	-0.000665085	0.999704	-0.002063	12	13	14	15	16	17	18	19	20	21	22	23
1797	0.0296611	0.00275172	0.00741666	0	0	0	0	1	-1	-0.000670336	0.999674	-0.00204436	12	13	14	15	16	17	18	19	20	21	22	23
1807	0.0297166	0.00275288	0.00745327	0	0	0	0	1	-1	-0.00067337	0.999648	-0.00202409	12	13	14	15	16	17	18	19	20	21	22	23
1817	0.0297745	0.00273204	0.00743926	0	0	0	0	1	-1	-0.000672398	0.999624	-0.00199831	12	13	14	15	16	17	18	19	20	21	22	23
1827	0.0298405	0.0027895	0.00750869	0	0	0	0	1	-1	-0.000675025	0.999598	-0.00197684	12	13	14	15	16	17	18	19	20	21	22	23
1837	0.0298681	0.00277843	0.00750802	0	0	0	0	1	-1	-0.00068531	0.999588	-0.0019867	12	13	14	15	16	17	18	19	20	21	22	23
1847	0.0299274	0.00289648	0.00753876	0	0	0	0	1	-1	-0.000692941	0.999558	-0.00197049	12	13	14	15	16	17	18	19	20	21	22	23
1857	0.0299689	0.00290565	0.00759786	0	0	0	0	1	-1	-0.000694896	0.999532	-0.00194741	12	13	14	15	16	17	18	19	20	21	22	23
1868	0.0299922	0.00294468	0.00762414	0	0	0	0	1	-1	-0.000700529	0.999505	-0.00192831	12	13	14	15	16	17	18	19	20	21	22	23
1878	0.0299883	0.00296939	0.00763506	0	0	0	0	1	-1	-0.000702183	0.99948	-0.00190401	12	13	14	15	16	17	18	19	20	21	22	23
1888	0.0299599	0.00300148	0.00767024	0	0	0	0	1	-1	-0.00070451	0.999455	-0.00188118	12	13	14	15	16	17	18	19	20	21	22	23
1898	0.0299497	0.00298692	0.00766867	0	0	0	0	1	-1	-0.000716685	0.999443	-0.00189128	12	13	14	15	16	17	18	19	20	21	22	23
1908	0.0299296	0.00306544	0.00771672	0	0	0	0	1	-1	-0.000714991	0.999424	-0.00186597	12	13	14	15	16	17	18	19	20	21	22	23
1918	0.0298879	0.00312612	0.00773255	0	0	0	0	1	-1	-0.000721276	0.999396	-0.00184587	12	13	14	15	16	17	18	19	20	21	22	23
1928	0.0299476	0.00318682	0.0077862	0	0	0	0	1	-1	-0.000726807	0.999369	-0.00182595	12	13	14	15	16	17	18	19	20	21	22	23
1938	0.029927	0.0032371	0.00774102	0	0	0	0	1	-1	-0.000729824	0.999347	-0.00180483	12	13	14	15	16	17	18	19	20	21	22	23
1948	0.0299066	0.00323343	0.0077718	0	0	0	0	1	-1	-0.000745444	0.99933	-0.00181663	12	13	14	15	16	17	18	19	20	21	22	23
1958	0.0299383	0.00332251	0.00772953	0	0	0	0	1	-1	-0.000747165	0.999307	-0.00179281	12	13	14	15	16	17	18	19	20	21	22	23
1968	0.0299525	0.00334851	0.00772956	0	0	0	0	1	-1	-0.000749455	0.999285	-0.00177041	12	13	14	15	16	17	18	19	20	21	22	23
1978	0.0299681	0.00334517	0.00771004	0	0	0	0	1	-1	-0.000749226	0.999267	-0.00174712	12	13	14	15	16	17	18	19	20	21	22	23
1988	0.0299303	0.00335003	0.00778762	0	0	0	0	1	-1	-0.000760156	0.999255	-0.00175496	12	13	14	15	16	17	18	19	20	21	22	23
1998	0.0299617	0.00331184	0.0077859	0	0	0	0	1	-1	-0.000769619	0.999224	-0.00173696	12	13	14	15	16	17	18	19	20	21	22	23
2008	0.02993	0.00329479	0.00774946	0	0	0	0	1	-1	-0.000770192	0.999202	-0.00171125	12	13	14	15	16	17	18	19	20	21	22	23
2019	0.0299555	0.00336256	0.00778628	0	0	0	0	1	-1	-0.000771555	0.999181	-0.00168696	12	13	14	15	16	17	18	19	20	21	22	23
2029	0.0299719	0.00338357	0.00785738	0	0	0	0	1	-1	-0.000773621	0.99916	-0.00166409	12	13	14	15	16	17	18	19	20	21	22	23
2039	0.0299646	0.0034113	0.00786633	0	0	0	0	1	-1	-0.000786502	0.999144	-0.00167227	12	13	14	15	16	17	18	19	20	21	22	23
2049	0.0300076	0.00346678	0.0079362	0	0	0	0	1	-1	-0.000787363	0.999124	-0.00164725	12	13	14	15	16	17	18	19	20	21	22	23
2059	0.0300187	0.00349972	0.00797316	0	0	0	0	1	-1	-0.000788818	0.999104	-0.00162357	12	13	14	15	16	17	18	19	20	21	22	23
2069	0.0301448	0.00350434	0.00798513	0	0	0	0	1	-1	-0.000794089	0.99908	-0.00160318	12	13	14	15	16	17	18	19	20	21	22	23
2079	0.0301395	0.00355489	0.00793742	0	0	0	0	1	-1	-0.000799756	0.999055	-0.00158172	12	13	14	15	16	17	18	19	20	21	22	23
2089	0.0302045	0.00353632	0.00793319	0	0	0	0	1	-1	-0.000796405	0.999042	-0.00155599	12	13	14	15	16	17	18	19	20	21	22	23
2099	0.0302557	0.00349241	0.00793901	0	0	0	0	1	-1	-0.000809425	0.999026	-0.00156337	12	13	14	15	16	17	18	19	20	21	22	23
2109	0.0302375	0.00356278	0.00792538	0	0	0	0	1	-1	-0.000811705	0.999007	-0.00154162	12	13	14	15	16	17	18	19	20	21	22	23
2119	0.0302765	0.00361374	0.00791766	0	0	0	0	1	-1	-0.00081596	0.998985	-0.0015197	12	13	14	15	16	17	18	19	20	21	22	23
2129	0.0302962	0.00364991	0.00787932	0	0	0	0	1	-1	-0.000817762	0.998967	-0.00149717	12	13	14	15	16	17	18	19	20	21	22	23
2139	0.0303616	0.00363056	0.00788205	0	0	0	0	1	-1	-0.000823491	0.998944	-0.00147532	12	13	14	15	16	17	18	19	20	21	22	23
2149	0.0304402	0.0036617	0.00783789	0	0	0	0	1	-1	-0.00082485	0.998927	-0.00145207	12	13	14	15	16	17	18	19	20	21	22	23
2160	0.0304624	0.00365303	0.00790437	0	0	0	0	1	-1	-0.000836672	0.998912	-0.00145759	12	13	14	15	16	17	18	19	20	21	22	23
2170	0.0304887	0.00372762	0.00788331	0	0	0	0	1	-1	-0.000838718	0.998895	-0.00143528	12	13	14	15	16	17	18	19	20	21	22	23
2180	0.0305126	0.00370539	0.00787889	0	0	0	0	1	-1	-0.000839497	0.998879	-0.00141106	12	13	14	15	16	17	18	19	20	21	22	23
2190	0.030559	0.0037509	0.00794385	0	0	0	0	1	-1	-0.000840972	0.998863	-0.00138821	12	13	14	15	16	17	18	19	20	21	22	23
2200	0.0305887	0.00377695	0.0079299	0	0	0	0	1	-1	-0.000848245	0.998841	-0.00136859	12	13	14	15	16	17	18	19	20	21	22	23
2210	0.030682	0.00388139	0.00793825	0	0	0	0	1	-1	-0.000865335	0.99882	-0.00137529	12	13	14	15	16	17	18	19	20	21	22	23
2220	0.0306904	0.00384915	0.00798492	0	0	0	0	1	-1	-0.000866173	0.998805	-0.00135136	12	13	14	15	16	17	18	19	20	21	22	23
2230	0.0307075	0.003847	0.00795666	0	0	0	0	1	-1	-0.000862495	0.998797	-0.00132676	12	13	14	15	16	17	18	19	20	21	22	23
2240	0.0307566	0.00389313	0.00800155	0	0	0	0	1	-1	-0.000864688	0.998783	-0.00130525	12	13	14	15	16	17	18	19	20	21	22	23
2250	0.0307957	0.00396515	0.00804047	0	0	0	0	1	-1	-0.000878474	0.998765	-0.00131003	12	13	14	15	16	17	18	19	20	21	22	23
2260	0.0308196	0.00387251	0.00805221	0	0	0	0	1	-1	-0.000887751	0.99874	-0.00128952	12	13	14	15	16	17	18	19	20	21	22	23
2270	0.0308981	0.00399826	0.00805568	0	0	0	0	1	-1	-0.000889056	0.998727	-0.00126726	12	13	14	15	16	17	18	19	20	21	22	23
2280	0.0309306	0.00402136	0.00811843	0	0	0	0	1	-1	-0.000891016	0.998714	-0.00124612	12	13	14	15	16	17	18	19	20	21	22	23
2290	0.0309631	0.0040227	0.00811376	0	0	0	0	1	-1	-0.000886399	0.998708	-0.00122171	12	13	14	15	16	17	18	19	20	21	22	23
2301	0.0310141	0.00408014	0.00816463	0	0	0	0	1	-1	-0.000903738	0.998685	-0.00122694	12	13	14	15	16	17	18	19	20	21	22	23
2311	0.0310584	0.0040918	0.008214	0	0	0	0	1	-1	-0.000905155	0.998673	-0.00120508	12	13	14	15	16	17	18	19	20	21	22	23
2321	0.0310746	0.0041293	0.00820605	0	0	0	0	1	-1	-0.000910453	0.998655	-0.0011831	12	13	14	15	16	17	18	19	20	21	22	23
2331	0.0311384	0.00413194	0.008216	0	0	0	0	1	-1	-0.000911217	0.998643	-0.00116077	12	13	14	15	16	17	18	19	20	21	22	23
2341	0.0311777	0.00419285	0.00823074	0	0	0	0	1	-1	-0.000912793	0.998632	-0.00113951	12	13	14	15	16	17	18	19	20	21	22	23
2351	0.0312804	0.00423667	0.00821302	0	0	0	0	1	-1	-0.00091305	0.998621	-0.00111666	12	13	14	15	16	17	18	19	20	21	22	23
2361	0.0313329	0.00430583	0.00819645	0	0	0	0	1	-1	-0.00093076	0.998598	-0.00112079	12	13	14	15	16	17	18	19	20	21	22	23
2371	0.031409	0.00434053	0.0082388	0	0	0	0	1	-1	-0.000926245	0.998594	-0.00109776	12	13	14	15	16	17	18	19	20	21	22	23
2381	0.0315075	0.00432862	0.00826793	0	0	0	0	1	-1	-0.000933081	0.998576	-0.00107815	12	13	14	15	16	17	18	19	20	21	22	23
2391	0.0315507	0.0043596	0.00828308	0	0	0	0	1	-1	-0.000927763	0.998574	-0.00105478	12	13	14	15	16	17	18	19	20	21	22	23
2401	0.0315695	0.00435265	0.00831451	0	0	0	0	1	-1	-0.000937487	0.998552	-0.00103513	12	13	14	15	16	17	18	19	20	21	22	23
2411	0.0316596	0.00432099	0.00831843	0	0	0	0	1	-1	-0.000936978	0.998543	-0.00101247	12	13	14	15	16	17	18	19	20	21	22	23
2421	0.0317053	0.00430243	0.00836375	0	0	0	0	1	-1	-0.000951336	0.998524	-0.00101492	12	13	14	15	16	17	18	19	20	21	22	23
2431	0.0317323	0.00434419	0.00831955	0	0	0	0	1	-1	-0.000946298	0.998522	-0.000992209	12	13	14	15	16	17	18	19	20	21	22	23
2442	0.0318121	0.00436408	0.00834494	0	0	0	0	1	-1	-0.000950687	0.998507	-0.000969896	12	13	14	15	16	17	18	19	20	21	22	23
2452	0.0319129	0.00441241	0.00834304	0	0	0	0	1	-1	-0.000954137	0.998494	-0.000948419	12	13	14	15	16	17	18	19	20	21	22	23
2462	0.0320193	0.00446184	0.00836459	0	0	0	0	1	-1	-0.000968701	0.998474	-0.000950499	12	13	14	15	16	17	18	19	20	21	22	23
2472	0.0320226	0.00449676	0.00833936	0	0	0	0	1	-1	-0.00096381	0.998473	-0.000928768	12	13	14	15	16	17	18	19	20	21	22	23
2482	0.0320747	0.00459138	0.00829688	0	0	0	0	1	-1	-0.000963004	0.998466	-0.000906578	12	13	14	15	16	17	18	19	20	21	22	23
2492	0.0321678	0.0046255	0.00837668	0	0	0	0	1	-1	-0.000962975	0.998459	-0.000885369	12	13	14	15	16	17	18	19	20	21	22	23
2502	0.0322488	0.00460544	0.00837296	0	0	0	0	1	-1	-0.000981318	0.998434	-0.000887279	12	13	14	15	16	17	18	19	20	21	22	23
2512	0.0324435	0.00458615	0.00840144	0	0	0	0	1	-1	-0.000985374	0.998421	-0.000865136	12	13	14	15	16	17	18	19	20	21	22	23
2522	0.0324666	0.00459649	0.00836593	0	0	0	0	1	-1	-0.000988216	0.99841	-0.000843734	12	13	14	15	16	17	18	19	20	21	22	23
2532	0.0324931	0.00458033	0.00834942	0	0	0	0	1	-1	-0.000988315	0.998403	-0.000822939	12	13	14	15	16	17	18	19	20	21	22	23
2542	0.0325541	0.00461046	0.00837635	0	0	0	0	1	-1	-0.000983384	0.998403	-0.000800849	12	13	14	15	16	17	18	19	20	21	22	23
2552	0.0326397	0.00463478	0.00837292	0	0	0	0	1	-1	-0.000996244	0.998385	-0.000801561	12	13	14	15	16	17	18	19	20	21	22	23
2562	0.0327112	0.0046524	0.00838611	0	0	0	0	1	-1	-0.00099589	0.99838	-0.000780547	12	13	14	15	16	17	18	19	20	21	22	23
2572	0.0327209	0.00465546	0.00839584	0	0	0	0	1	-1	-0.00099379	0.998375	-0.00075867	12	13	14	15	16	17	18	19	20	21	22	23
2583	0.0327744	0.0047358	0.00834379	0	0	0	0	1	-1	-0.0010008	0.998357	-0.000738397	12	13	14	15	16	17	18	19	20	21	22	23
2593	0.032747	0.00475463	0.00838335	0	0	0	0	1	-1	-0.000996164	0.998357	-0.000718563	12	13	14	15	16	17	18	19	20	21	22	23
2603	0.0328516	0.00478663	0.00839673	0	0	0	0	1	-1	-0.000997133	0.998348	-0.000698351	12	13	14	15	16	17	18	19	20	21	22	23
2613	0.0328595	0.00479699	0.00835493	0	0	0	0	1	-1	-0.000996116	0.998343	-0.000678603	12	13	14	15	16	17	18	19	20	21	22	23
2623	0.0328763	0.00478387	0.00832318	0	0	0	0	1	-1	-0.0010111	0.998323	-0.00067872	12	13	14	15	16	17	18	19	20	21	22	23
2633	0.0329406	0.00480376	0.00838178	0	0	0	0	1	-1	-0.00101164	0.998371	-0.000697947	12	13	14	15	16	17	18	19	20	21	22	23
2643	0.0330042	0.00485247	0.00836005	0	0	0	0	1	-1	-0.00100509	0.998433	-0.00071929	12	13	14	15	16	17	18	19	20	21	22	23
2653	0.0330791	0.00485409	0.0084153	0	0	0	0	1	-1	-0.00101083	0.998529	-0.000776931	12	13	14	15	16	17	18	19	20	21	22	23
2663	0.033149	0.00487244	0.00840004	0	0	0	0	1	-1	-0.00103005	0.998586	-0.000835679	12	13	14	15	16	17	18	19	20	21	22	23
2673	0.0332432	0.00490978	0.0083744	0	0	0	0	1	-1	-0.00103256	0.998677	-0.000885991	12	13	14	15	16	17	18	19	20	21	22	23
2683	0.0333218	0.00491236	0.00834163	0	0	0	0	1	-1	-0.00103205	0.998757	-0.000925292	12	13	14	15	16	17	18	19	20	21	22	23
2693	0.0334108	0.00495602	0.00834289	0	0	0	0	1	-1	-0.00103031	0.99884	-0.000965154	12	13	14	15	16	17	18	19	20	21	22	23
2703	0.0335004	0.00493359	0.0083878	0	0	0	0	1	-1	-0.00102948	0.998923	-0.00100568	12	13	14	15	16	17	18	19	20	21	22	23
2713	0.0335327	0.00499232	0.00842533	0	0	0	0	1	-1	-0.00102947	0.999005	-0.00104713	12	13	14	15	16	17	18	19	20	21	22	23
2723	0.0335692	0.0050176	0.00846842	0	0	0	0	1	-1	-0.00104512	0.999051	-0.0010932	12	13	14	15	16	17	18	19	20	21	22	23
2734	0.0336016	0.00502464	0.00848651	0	0	0	0	1	-1	-0.00104376	0.999133	-0.00113288	12	13	14	15	16	17	18	19	20	21	22	23
2744	0.033648	0.00503083	0.00851841	0	0	0	0	1	-1	-0.00104332	0.999215	-0.00117341	12	13	14	15	16	17	18	19	20	21	22	23
2754	0.0336888	0.00504006	0.00847908	0	0	0	0	1	-1	-0.00104771	0.999308	-0.00122619	12	13	14	15	16	17	18	19	20	21	22	23
2764	0.0337802	0.00504425	0.00849577	0	0	0	0	1	-1	-0.00104667	0.999389	-0.00126574	12	13	14	15	16	17	18	19	20	21	22	23
2774	0.0338167	0.00504443	0.0085535	0	0	0	0	1	-1	-0.00106648	0.999446	-0.00132274	12	13	14	15	16	17	18	19	20	21	22	23
2784	0.0338229	0.00505018	0.00850424	0	0	0	0	1	-1	-0.00106231	0.999515	-0.00135151	12	13	14	15	16	17	18	19	20	21	22	23
2794	0.0338893	0.00510215	0.00849961	0	0	0	0	1	-1	-0.0010631	0.999596	-0.00139234	12	13	14	15	16	17	18	19	20	21	22	23
2804	0.0339721	0.0051189	0.00856993	0	0	0	0	1	-1	-0.00106224	0.999674	-0.00143098	12	13	14	15	16	17	18	19	20	21	22	23
2814	0.0340102	0.00519767	0.00867335	0	0	0	0	1	-1	-0.00106633	0.999764	-0.00148182	12	13	14	15	16	17	18	19	20	21	22	23
2824	0.0340263	0.00518965	0.00874007	0	0	0	0	1	-1	-0.00108653	0.999821	-0.00153818	12	13	14	15	16	17	18	19	20	21	22	23
2834	0.0340882	0.00524748	0.00881035	0	0	0	0	1	-1	-0.00109357	0.999917	-0.00159519	12	13	14	15	16	17	18	19	20	21	22	23
2844	0.0341268	0.00527167	0.00882328	0	0	0	0	1	-1	-0.00108683	0.999976	-0.00161595	12	13	14	15	16	17	18	19	20	21	22	23
2854	0.0341052	0.00528988	0.00881081	0	0	0	0	1	-1	-0.0010849	1.00005	-0.00165116	12	13	14	15	16	17	18	19	20	21	22	23
2864	0.0341178	0.00528661	0.0088388	0	0	0	0	1	-1	-0.00110126	1.0001	-0.00169589	12	13	14	15	16	17	18	19	20	21	22	23
2875	0.0342002	0.00530016	0.00885115	0	0	0	0	1	-1	-0.00110034	1.00017	-0.0017318	12	13	14	15	16	17	18	19	20	21	22	23
2885	0.0343239	0.00542269	0.00882085	0	0	0	0	1	-1	-0.00110449	1.00025	-0.00177973	12	13	14	15	16	17	18	19	20	21	22	23
2895	0.034322	0.00538326	0.00882993	0	0	0	0	1	-1	-0.00110306	1.00033	-0.00181376	12	13	14	15	16	17	18	19	20	21	22	23
2905	0.0343117	0.00533908	0.00901189	0	0	0	0	1	-1	-0.00110875	1.00041	-0.0018652	12	13	14	15	16	17	18	19	20	21	22	23
2915	0.0343019	0.00537641	0.00904483	0	0	0	0	1	-1	-0.00110925	1.00048	-0.00190083	12	13	14	15	16	17	18	19	20	21	22	23
2925	0.034306	0.00540512	0.00903618	0	0	0	0	1	-1	-0.00110404	1.00054	-0.00192255	12	13	14	15	16	17	18	19	20	21	22	23
2935	0.0342706	0.00541892	0.00903849	0	0	0	0	1	-1	-0.00111854	1.00058	-0.00196084	12	13	14	15	16	17	18	19	20	21	22	23
2945	0.0342569	0.00545623	0.0090069	0	0	0	0	1	-1	-0.00111831	1.00065	-0.00199434	12	13	14	15	16	17	18	19	20	21	22	23
2955	0.0342283	0.00550602	0.00905049	0	0	0	0	1	-1	-0.00111898	1.00072	-0.00202868	12	13	14	15	16	17	18	19	20	21	22	23
2965	0.0342747	0.00552643	0.0090917	0	0	0	0	1	-1	-0.00112844	1.00081	-0.00208676	12	13	14	15	16	17	18	19	20	21	22	23
2975	0.0342465	0.00553031	0.00912994	0	0	0	0	1	-1	-0.00112432	1.00086	-0.00210784	12	13	14	15	16	17	18	19	20	21	22	23
2985	0.0341864	0.00554563	0.00925356	0	0	0	0	1	-1	-0.00112965	1.00094	-0.00215157	12	13	14	15	16	17	18	19	20	21	22	23
2995	0.034138	0.00557265	0.00926525	0	0	0	0	1	-1	-0.00114673	1.00098	-0.00219461	12	13	14	15	16	17	18	19	20	21	22	23
3006	0.0341598	0.00559864	0.00922004	0	0	0	0	1	-1	-0.00113995	1.00103	-0.00220773	12	13	14	15	16	17	18	19	20	21	22	23
3016	0.0341741	0.00562268	0.00920421	0	0	0	0	1	-1	-0.00115151	1.00111	-0.00226451	12	13	14	15	16	17	18	19	20	21	22	23
3026	0.0341614	0.00563193	0.00922493	0	0	0	0	1	-1	-0.00115319	1.00117	-0.00229535	12	13	14	15	16	17	18	19	20	21	22	23
3036	0.0341526	0.00563641	0.00922703	0	0	0	0	1	-1	-0.00115308	1.00123	-0.00232234	12	13	14	15	16	17	18	19	20	21	22	23
3046	0.034121	0.00561602	0.0092319	0	0	0	0	1	-1	-0.00117497	1.00129	-0.00237494	12	13	14	15	16	17	18	19	20	21	22	23
3056	0.0342102	0.00565334	0.00930109	0	0	0	0	1	-1	-0.00117157	1.00133	-0.00239222	12	13	14	15	16	17	18	19	20	21	22	23
3066	0.0342177	0.00567694	0.00935845	0	0	0	0	1	-1	-0.00117095	1.00138	-0.00241612	12	13	14	15	16	17	18	19	20	21	22	23
3076	0.0342007	0.00567918	0.00933966	0	0	0	0	1	-1	-0.00117129	1.00144	-0.00244111	12	13	14	15	16	17	18	19	20	21	22	23
3086	0.0341546	0.00568308	0.0093052	0	0	0	0	1	-1	-0.00118688	1.00147	-0.0024775	12	13	14	15	16	17	18	19	20	21	22	23
3096	0.0341455	0.00577866	0.00930451	0	0	0	0	1	-1	-0.00119707	1.00155	-0.00252469	12	13	14	15	16	17	18	19	20	21	22	23
3106	0.0341519	0.00572064	0.00932037	0	0	0	0	1	-1	-0.00119708	1.0016	-0.00254705	12	13	14	15	16	17	18	19	20	21	22	23
3116	0.034129	0.00570812	0.00930004	0	0	0	0	1	-1	-0.00119351	1.00163	-0.00256024	12	13	14	15	16	17	18	19	20	21	22	23
3126	0.0340643	0.00572442	0.00930899	0	0	0	0	1	-1	-0.0012093	1.00167	-0.00259603	12	13	14	15	16	17	18	19	20	21	22	23
3136	0.0340751	0.00566764	0.00932815	0	0	0	0	1	-1	-0.00121535	1.00173	-0.0026306	12	13	14	15	16	17	18	19	20	21	22	23
3147	0.0340403	0.00569771	0.00929912	0	0	0	0	1	-1	-0.00122	1.00179	-0.00266124	12	13	14	15	16	17	18	19	20	21	22	23
3157	0.0340596	0.00577667	0.00937644	0	0	0	0	1	-1	-0.00121846	1.00183	-0.0026779	12	13	14	15	16	17	18	19	20	21	22	23
3167	0.0340365	0.0057316	0.00945068	0	0	0	0	1	-1	-0.00121801	1.00187	-0.00269598	12	13	14	15	16	17	18	19	20	21	22	23
3177	0.0340572	0.00578452	0.00950802	0	0	0	0	1	-1	-0.00121404	1.00189	-0.00270518	12	13	14	15	16	17	18	19	20	21	22	23
3187	0.0340164	0.00586977	0.00955585	0	0	0	0	1	-1	-0.00121769	1.00194	-0.00273033	12	13	14	15	16	17	18	19	20	21	22	23
3197	0.0339928	0.00591097	0.00956426	0	0	0	0	1	-1	-0.00123621	1.00198	-0.00277005	12	13	14	15	16	17	18	19	20	21	22	23
3207	0.0340556	0.00592766	0.00955729	0	0	0	0	1	-1	-0.00123637	1.00202	-0.00278618	12	13	14	15	16	17	18	19	20	21	22	23
3217	0.0340293	0.00597585	0.00953235	0	0	0	0	1	-1	-0.00124934	1.00208	-0.002828	12	13	14	15	16	17	18	19	20	21	22	23
3227	0.0340075	0.00595349	0.00953604	0	0	0	0	1	-1	-0.00124184	1.00209	-0.00282628	12	13	14	15	16	17	18	19	20	21	22	23
3237	0.0340026	0.00598116	0.00955028	0	0	0	0	1	-1	-0.00126072	1.00214	-0.00286525	12	13	14	15	16	17	18	19	20	21	22	23
3247	0.0339954	0.00605081	0.00958362	0	0	0	0	1	-1	-0.00126141	1.00217	-0.00287949	12	13	14	15	16	17	18	19	20	21	22	23
3257	0.0339686	0.00606056	0.00964791	0	0	0	0	1	-1	-0.0012677	1.00221	-0.00290449	12	13	14	15	16	17	18	19	20	21	22	23
3267	0.0339317	0.00610997	0.00970813	0	0	0	0	1	-1	-0.00126745	1.00223	-0.00291538	12	13	14	15	16	17	18	19	20	21	22	23
3278	0.0339462	0.00609497	0.00971215	0	0	0	0	1	-1	-0.00126351	1.00225	-0.00291815	12	13	14	15	16	17	18	19	20	21	22	23
3288	0.0338987	0.00611951	0.00970761	0	0	0	0	1	-1	-0.00128743	1.0023	-0.00296557	12	13	14	15	16	17	18	19	20	21	22	23
3298	0.0338603	0.00615075	0.00973181	0	0	0	0	1	-1	-0.00129128	1.00233	-0.00298275	12	13	14	15	16	17	18	19	20	21	22	23
3308	0.0338299	0.00617957	0.00976457	0	0	0	0	1	-1	-0.00129852	1.00237	-0.00300602	12	13	14	15	16	17	18	19	20	21	22	23
3318	0.0337578	0.00621554	0.00977453	0	0	0	0	1	-1	-0.00128968	1.00237	-0.00299708	12	13	14	15	16	17	18	19	20	21	22	23
3328	0.0337467	0.00619003	0.00982128	0	0	0	0	1	-1	-0.00128921	1.00239	-0.00300374	12	13	14	15	16	17	18	19	20	21	22	23
3338	0.0336832	0.00619634	0.00983784	0	0	0	0	1	-1	-0.00130855	1.00243	-0.0030407	12	13	14	15	16	17	18	19	20	21	22	23
3348	0.0336307	0.00620868	0.00981454	0	0	0	0	1	-1	-0.00130903	1.00245	-0.0030485	12	13	14	15	16	17	18	19	20	21	22	23
3358	0.0334891	0.00631394	0.0098762	0	0	0	0	1	-1	-0.00131983	1.00248	-0.00307474	12	13	14	15	16	17	18	19	20	21	22	23
3368	0.0334525	0.0063333	0.00981434	0	0	0	0	1	-1	-0.00131972	1.0025	-0.00307952	12	13	14	15	16	17	18	19	20	21	22	23
3378	0.0334611	0.00631772	0.00983867	0	0	0	0	1	-1	-0.00131339	1.0025	-0.00307235	12	13	14	15	16	17	18	19	20	21	22	23
3388	0.0334407	0.00637326	0.0098269	0	0	0	0	1	-1	-0.00133297	1.00254	-0.00310814	12	13	14	15	16	17	18	19	20	21	22	23
3398	0.0334351	0.00637545	0.00984647	0	0	0	0	1	-1	-0.00133693	1.00256	-0.00311871	12	13	14	15	16	17	18	19	20	21	22	23
3408	0.0334019	0.00640361	0.00989548	0	0	0	0	1	-1	-0.00134444	1.00258	-0.00313526	12	13	14	15	16	17	18	19	20	21	22	23
3419	0.0333725	0.006394	0.00985242	0	0	0	0	1	-1	-0.00134267	1.00259	-0.00313429	12	13	14	15	16	17	18	19	20	21	22	23
3429	0.0332776	0.00635756	0.00991137	0	0	0	0	1	-1	-0.00133457	1.00258	-0.00312195	12	13	14	15	16	17	18	19	20	21	22	23
3439	0.0332242	0.00638408	0.00994381	0	0	0	0	1	-1	-0.0013349	1.00259	-0.0031245	12	13	14	15	16	17	18	19	20	21	22	23
3449	0.0332001	0.00645274	0.0100238	0	0	0	0	1	-1	-0.00134043	1.0026	-0.00313559	12	13	14	15	16	17	18	19	20	21	22	23
3459	0.0332097	0.00648599	0.00995276	0	0	0	0	1	-1	-0.00135745	1.00263	-0.00316576	12	13	14	15	16	17	18	19	20	21	22	23
3469	0.0331906	0.00652031	0.00989577	0	0	0	0	1	-1	-0.00135682	1.00264	-0.00316522	12	13	14	15	16	17	18	19	20	21	22	23
3479	0.0331964	0.00652294	0.00996913	0	0	0	0	1	-1	-0.00135719	1.00264	-0.00316637	12	13	14	15	16	17	18	19	20	21	22	23
3489	0.0332237	0.00649874	0.00996293	0	0	0	0	1	-1	-0.00136295	1.00265	-0.00317575	12	13	14	15	16	17	18	19	20	21	22	23
3499	0.0332032	0.00647563	0.00996889	0	0	0	0	1	-1	-0.00138018	1.00268	-0.00320518	12	13	14	15	16	17	18	19	20	21	22	23
3509	0.0331449	0.00651471	0.0100012	0	0	0	0	1	-1	-0.00138436	1.00269	-0.00320991	12	13	14	15	16	17	18	19	20	21	22	23
3519	0.0330842	0.00653292	0.0099618	0	0	0	0	1	-1	-0.00138227	1.00269	-0.00320389	12	13	14	15	16	17	18	19	20	21	22	23
3529	0.0329849	0.00651523	0.0100107	0	0	0	0	1	-1	-0.00137388	1.00267	-0.00318737	12	13	14	15	16	17	18	19	20	21	22	23
3540	0.0329049	0.00652849	0.0100204	0	0	0	0	1	-1	-0.00137126	1.00266	-0.00317917	12	13	14	15	16	17	18	19	20	21	22	23
3550	0.0328835	0.00648429	0.00995842	0	0	0	0	1	-1	-0.00139644	1.0027	-0.00321992	12	13	14	15	16	17	18	19	20	21	22	23
3560	0.0328356	0.00649111	0.00990349	0	0	0	0	1	-1	-0.00139516	1.0027	-0.0032132	12	13	14	15	16	17	18	19	20	21	22	23
3570	0.0327905	0.00646661	0.0099301	0	0	0	0	1	-1	-0.00139209	1.00269	-0.00320252	12	13	14	15	16	17	18	19	20	21	22	23
3580	0.0327082	0.00647042	0.00993497	0	0	0	0	1	-1	-0.00139769	1.00269	-0.00320553	12	13	14	15	16	17	18	19	20	21	22	23
3590	0.0326631	0.00641639	0.00998593	0	0	0	0	1	-1	-0.00139705	1.00268	-0.00319827	12	13	14	15	16	17	18	19	20	21	22	23
3600	0.0325977	0.00644311	0.0100015	0	0	0	0	1	-1	-0.00139443	1.00267	-0.00318674	12	13	14	15	16	17	18	19	20	21	22	23
3610	0.0325222	0.00644621	0.0100432	0	0	0	0	1	-1	-0.00141218	1.00269	-0.00321384	12	13	14	15	16	17	18	19	20	21	22	23
3620	0.0325456	0.0064771	0.0100794	0	0	0	0	1	-1	-0.00141073	1.00268	-0.00320405	12	13	14	15	16	17	18	19	20	21	22	23
3630	0.032504	0.00647706	0.0101114	0	0	0	0	1	-1	-0.00141813	1.00268	-0.00320748	12	13	14	15	16	17	18	19	20	21	22	23
3640	0.0324747	0.0064754	0.0101198	0	0	0	0	1	-1	-0.00141592	1.00267	-0.00319533	12	13	14	15	16	17	18	19	20	21	22	23
3650	0.0323919	0.00652707	0.0102361	0	0	0	0	1	-1	-0.00142005	1.00266	-0.00319263	12	13	14	15	16	17	18	19	20	21	22	23
3660	0.0323471	0.00652961	0.0102077	0	0	0	0	1	-1	-0.00144063	1.00269	-0.00322274	12	13	14	15	16	17	18	19	20	21	22	23
3670	0.0323659	0.00657371	0.0101628	0	0	0	0	1	-1	-0.00144084	1.00268	-0.00321396	12	13	14	15	16	17	18	19	20	21	22	23
3680	0.0323271	0.00656041	0.0101685	0	0	0	0	1	-1	-0.00143127	1.00265	-0.00318981	12	13	14	15	16	17	18	19	20	21	22	23
3691	0.0322798	0.00652193	0.010169	0	0	0	0	1	-1	-0.0014385	1.00264	-0.00318974	12	13	14	15	16	17	18	19	20	21	22	23
3701	0.0322457	0.00650334	0.010208	0	0	0	0	1	-1	-0.0014443	1.00264	-0.00318756	12	13	14	15	16	17	18	19	20	21	22	23
3711	0.0322424	0.00651202	0.0102806	0	0	0	0	1	-1	-0.00144273	1.00262	-0.00317371	12	13	14	15	16	17	18	19	20	21	22	23
3721	0.0321899	0.00656738	0.0102731	0	0	0	0	1	-1	-0.00146364	1.00264	-0.00320208	12	13	14	15	16	17	18	19	20	21	22	23
3731	0.0321579	0.00658228	0.0102482	0	0	0	0	1	-1	-0.00145539	1.00262	-0.00317901	12	13	14	15	16	17	18	19	20	21	22	23
3741	0.0320972	0.00659595	0.0102647	0	0	0	0	1	-1	-0.0014607	1.0026	-0.00317303	12	13	14	15	16	17	18	19	20	21	22	23
3751	0.0320149	0.00662122	0.0102703	0	0	0	0	1	-1	-0.00146453	1.00259	-0.00316529	12	13	14	15	16	17	18	19	20	21	22	23
3761	0.0319974	0.00661622	0.0103323	0	0	0	0	1	-1	-0.0014855	1.00261	-0.0031928	12	13	14	15	16	17	18	19	20	21	22	23
3771	0.0307252	0.00660788	0.0103293	0	0	0	0	1	-1	-0.00147755	1.00259	-0.00316933	12	13	14	15	16	17	18	19	20	21	22	23
3781	0.0306687	0.00654086	0.0103126	0	0	0	0	1	-1	-0.00148335	1.00257	-0.00316205	12	13	14	15	16	17	18	19	20	21	22	23
3791	0.0306575	0.00653887	0.0102915	0	0	0	0	1	-1	-0.00148794	1.00255	-0.0031532	12	13	14	15	16	17	18	19	20	21	22	23
3801	0.0306164	0.00657027	0.0103456	0	0	0	0	1	-1	-0.00148842	1.00253	-0.0031395	12	13	14	15	16	17	18	19	20	21	22	23
3811	0.0305634	0.00654063	0.0103839	0	0	0	0	1	-1	-0.00150988	1.00256	-0.00316597	12	13	14	15	16	17	18	19	20	21	22	23
3821	0.0305269	0.00657316	0.0104399	0	0	0	0	1	-1	-0.00150802	1.00253	-0.0031479	12	13	14	15	16	17	18	19	20	21	22	23
3831	0.0304646	0.00658395	0.0104231	0	0	0	0	1	-1	-0.00150962	1.00251	-0.00313237	12	13	14	15	16	17	18	19	20	21	22	23
3842	0.0304348	0.00650342	0.0104927	0	0	0	0	1	-1	-0.00150728	1.00248	-0.00311238	12	13	14	15	16	17	18	19	20	21	22	23
3852	0.0304257	0.00649742	0.010525	0	0	0	0	1	-1	-0.00150628	1.00246	-0.00309426	12	13	14	15	16	17	18	19	20	21	22	23
3862	0.0304062	0.00644731	0.0105395	0	0	0	0	1	-1	-0.00152805	1.00248	-0.00311944	12	13	14	15	16	17	18	19	20	21	22	23
3872	0.0303772	0.00650567	0.0105229	0	0	0	0	1	-1	-0.00152512	1.00245	-0.0030973	12	13	14	15	16	17	18	19	20	21	22	23
3882	0.0302832	0.0065235	0.010525	0	0	0	0	1	-1	-0.00152328	1.00242	-0.00307708	12	13	14	15	16	17	18	19	20	21	22	23
3892	0.03028	0.0065104	0.0105279	0	0	0	0	1	-1	-0.00152797	1.0024	-0.00306499	12	13	14	15	16	17	18	19	20	21	22	23
3902	0.0302694	0.00654721	0.0105294	0	0	0	0	1	-1	-0.00152498	1.00237	-0.00304292	12	13	14	15	16	17	18	19	20	21	22	23
3912	0.0302299	0.0065659	0.0105312	0	0	0	0	1	-1	-0.00154666	1.00238	-0.00306702	12	13	14	15	16	17	18	19	20	21	22	23
3922	0.0301662	0.00660138	0.0105404	0	0	0	0	1	-1	-0.00154504	1.00236	-0.00304643	12	13	14	15	16	17	18	19	20	21	22	23
3932	0.0301458	0.00659749	0.0105547	0	0	0	0	1	-1	-0.00154463	1.00233	-0.00302759	12	13	14	15	16	17	18	19	20	21	22	23
3942	0.0301235	0.00654456	0.0105278	0	0	0	0	1	-1	-0.00154748	1.0023	-0.00301044	12	13	14	15	16	17	18	19	20	21	22	23
3952	0.0300719	0.00658974	0.0105326	0	0	0	0	1	-1	-0.0015462	1.00227	-0.00298931	12	13	14	15	16	17	18	19	20	21	22	23
3962	0.0300769	0.00653051	0.0105519	0	0	0	0	1	-1	-0.0015428	1.00224	-0.00296461	12	13	14	15	16	17	18	19	20	21	22	23
3972	0.0300088	0.00651897	0.0104972	0	0	0	0	1	-1	-0.00156469	1.00225	-0.00298691	12	13	14	15	16	17	18	19	20	21	22	23
3983	0.0299834	0.00656852	0.0105472	0	0	0	0	1	-1	-0.00156788	1.00223	-0.00296938	12	13	14	15	16	17	18	19	20	21	22	23
3993	0.0299791	0.00654139	0.0105855	0	0	0	0	1	-1	-0.00156665	1.0022	-0.00294831	12	13	14	15	16	17	18	19	20	21	22	23
4003	0.0299605	0.00656193	0.0105816	0	0	0	0	1	-1	-0.001563	1.00216	-0.0029235	12	13	14	15	16	17	18	19	20	21	22	23
4013	0.0299163	0.00664092	0.0106071	0	0	0	0	1	-1	-0.00158469	1.00218	-0.0029449	12	13	14	15	16	17	18	19	20	21	22	23
4023	0.029948	0.00666973	0.0106574	0	0	0	0	1	-1	-0.00158791	1.00215	-0.00292675	12	13	14	15	16	17	18	19	20	21	22	23
4033	0.0298391	0.00658553	0.0106595	0	0	0	0	1	-1	-0.00159513	1.00212	-0.00291284	12	13	14	15	16	17	18	19	20	21	22	23
4043	0.0297857	0.00661967	0.0106925	0	0	0	0	1	-1	-0.00158363	1.00208	-0.00287964	12	13	14	15	16	17	18	19	20	21	22	23
4053	0.02976	0.00664743	0.0107022	0	0	0	0	1	-1	-0.00157288	1.00204	-0.00284579	12	13	14	15	16	17	18	19	20	21	22	23
4063	0.0297533	0.00664073	0.0106708	0	0	0	0	1	-1	-0.00160019	1.00206	-0.00287064	12	13	14	15	16	17	18	19	20	21	22	23
4073	0.0296675	0.00664675	0.0107172	0	0	0	0	1	-1	-0.00160167	1.00202	-0.00284831	12	13	14	15	16	17	18	19	20	21	22	23
4083	0.0296934	0.00665861	0.0106893	0	0	0	0	1	-1	-0.00160728	1.00199	-0.00283008	12	13	14	15	16	17	18	19	20	21	22	23
4093	0.0296355	0.00663488	0.0106831	0	0	0	0	1	-1	-0.00159426	1.00195	-0.00279409	12	13	14	15	16	17	18	19	20	21	22	23
4103	0.0296419	0.00663257	0.0107565	0	0	0	0	1	-1	-0.00159074	1.00191	-0.00276718	12	13	14	15	16	17	18	19	20	21	22	23
4113	0.0296003	0.00658917	0.0107597	0	0	0	0	1	-1	-0.00158844	1.00188	-0.00274207	12	13	14	15	16	17	18	19	20	21	22	23
4124	0.0296244	0.0065766	0.0107538	0	0	0	0	1	-1	-0.00161559	1.00189	-0.00276472	12	13	14	15	16	17	18	19	20	21	22	23
4134	0.029603	0.00652673	0.0108065	0	0	0	0	1	-1	-0.00161892	1.00186	-0.00274245	12	13	14	15	16	17	18	19	20	21	22	23
4144	0.0296014	0.00653845	0.0108426	0	0	0	0	1	-1	-0.00161568	1.00182	-0.00271527	12	13	14	15	16	17	18	19	20	21	22	23
4154	0.0296182	0.00657857	0.0108112	0	0	0	0	1	-1	-0.00160567	1.00179	-0.0026835	12	13	14	15	16	17	18	19	20	21	22	23
4164	0.0296341	0.00662887	0.0109154	0	0	0	0	1	-1	-0.00160169	1.00175	-0.00265483	12	13	14	15	16	17	18	19	20	21	22	23
4174	0.0296181	0.00658974	0.0110101	0	0	0	0	1	-1	-0.00160726	1.00172	-0.00263424	12	13	14	15	16	17	18	19	20	21	22	23
4184	0.0296267	0.0066338	0.0110019	0	0	0	0	1	-1	-0.00162662	1.00172	-0.00264875	12	13	14	15	16	17	18	19	20	21	22	23
4194	0.0295541	0.00664077	0.0109458	0	0	0	0	1	-1	-0.00162993	1.00169	-0.00262454	12	13	14	15	16	17	18	19	20	21	22	23
4204	0.0295249	0.00662935	0.0109439	0	0	0	0	1	-1	-0.0016179	1.00165	-0.00259	12	13	14	15	16	17	18	19	20	21	22	23
4214	0.0295166	0.00662169	0.0109575	0	0	0	0	1	-1	-0.00161542	1.00161	-0.00256334	12	13	14	15	16	17	18	19	20	21	22	23
4224	0.029547	0.00660408	0.0109811	0	0	0	0	1	-1	-0.00164291	1.00162	-0.00258272	12	13	14	15	16	17	18	19	20	21	22	23
4234	0.0294933	0.00657341	0.0109424	0	0	0	0	1	-1	-0.00163793	1.00158	-0.00255231	12	13	14	15	16	17	18	19	20	21	22	23
4244	0.0294412	0.00655612	0.0109723	0	0	0	0	1	-1	-0.00164821	1.00155	-0.002533	12	13	14	15	16	17	18	19	20	21	22	23
4254	0.0293979	0.00653897	0.0110159	0	0	0	0	1	-1	-0.00164051	1.00151	-0.00250243	12	13	14	15	16	17	18	19	20	21	22	23
4264	0.0293875	0.00652137	0.0110173	0	0	0	0	1	-1	-0.00162765	1.00147	-0.00246709	12	13	14	15	16	17	18	19	20	21	22	23
4275	0.0293178	0.00653056	0.0110199	0	0	0	0	1	-1	-0.00165529	1.00148	-0.0024849	12	13	14	15	16	17	18	19	20	21	22	23
4285	0.0292999	0.00655676	0.0110369	0	0	0	0	1	-1	-0.00165214	1.00144	-0.00245651	12	13	14	15	16	17	18	19	20	21	22	23
4295	0.0293772	0.00658904	0.0111006	0	0	0	0	1	-1	-0.00166069	1.0014	-0.00243364	12	13	14	15	16	17	18	19	20	21	22	23
4305	0.0293649	0.00658298	0.0111156	0	0	0	0	1	-1	-0.00165109	1.00137	-0.00240046	12	13	14	15	16	17	18	19	20	21	22	23
4315	0.0293424	0.00658563	0.0111592	0	0	0	0	1	-1	-0.00164854	1.00133	-0.00237242	12	13	14	15	16	17	18	19	20	21	22	23
4325	0.0293221	0.00665958	0.0111611	0	0	0	0	1	-1	-0.00166815	1.00133	-0.00238375	12	13	14	15	16	17	18	19	20	21	22	23
4335	0.029248	0.00665448	0.0111875	0	0	0	0	1	-1	-0.0016631	1.00129	-0.00235242	12	13	14	15	16	17	18	19	20	21	22	23
4345	0.0292377	0.00662856	0.0111867	0	0	0	0	1	-1	-0.00165928	1.00126	-0.00232296	12	13	14	15	16	17	18	19	20	21	22	23
4355	0.0292891	0.006644	0.0111726	0	0	0	0	1	-1	-0.00165688	1.00122	-0.00229516	12	13	14	15	16	17	18	19	20	21	22	23
4365	0.0292348	0.00669728	0.0111774	0	0	0	0	1	-1	-0.00166579	1.00118	-0.00227163	12	13	14	15	16	17	18	19	20	21	22	23
4375	0.0292104	0.00671052	0.0111978	0	0	0	0	1	-1	-0.0016566	1.00115	-0.00223966	12	13	14	15	16	17	18	19	20	21	22	23
4385	0.0291639	0.00672188	0.0112787	0	0	0	0	1	-1	-0.00167873	1.00115	-0.00225104	12	13	14	15	16	17	18	19	20	21	22	23
4395	0.0291279	0.00677578	0.0113444	0	0	0	0	1	-1	-0.00167651	1.00111	-0.00222338	12	13	14	15	16	17	18	19	20	21	22	23
4406	0.0291252	0.00677386	0.0113747	0	0	0	0	1	-1	-0.00167155	1.00107	-0.00219277	12	13	14	15	16	17	18	19	20	21	22	23
4416	0.0290656	0.00683919	0.0113653	0	0	0	0	1	-1	-0.00167325	1.00104	-0.00216655	12	13	14	15	16	17	18	19	20	21	22	23
4426	0.0290363	0.00684188	0.0113978	0	0	0	0	1	-1	-0.00167064	1.001	-0.00213922	12	13	14	15	16	17	18	19	20	21	22	23
4436	0.0290641	0.00680838	0.0114414	0	0	0	0	1	-1	-0.00169243	1.001	-0.00214949	12	13	14	15	16	17	18	19	20	21	22	23
4446	0.0290396	0.00677915	0.0114933	0	0	0	0	1	-1	-0.00168713	1.00096	-0.00211894	12	13	14	15	16	17	18	19	20	21	22	23
4456	0.0290616	0.00673172	0.0115643	0	0	0	0	1	-1	-0.00168332	1.00093	-0.00209006	12	13	14	15	16	17	18	19	20	21	22	23
4466	0.0291684	0.00671005	0.0116384	0	0	0	0	1	-1	-0.00169082	1.00089	-0.00206414	12	13	14	15	16	17	18	19	20	21	22	23
4476	0.0291587	0.00670467	0.0116105	0	0	0	0	1	-1	-0.00167778	1.00085	-0.0020305	12	13	14	15	16	17	18	19	20	21	22	23
4486	0.0291888	0.00672114	0.0116544	0	0	0	0	1	-1	-0.00169992	1.00085	-0.00203936	12	13	14	15	16	17	18	19	20	21	22	23
4496	0.0292568	0.00672193	0.0116464	0	0	0	0	1	-1	-0.001677	1.00078	-0.00197354	12	13	14	15	16	17	18	19	20	21	22	23
4506	0.0292165	0.00677459	0.0116483	0	0	0	0	1	-1	-0.00170461	1.00077	-0.00198386	12	13	14	15	16	17	18	19	20	21	22	23
4516	0.0292208	0.00675592	0.0116666	0	0	0	0	1	-1	-0.00169181	1.00074	-0.00195066	12	13	14	15	16	17	18	19	20	21	22	23
4526	0.029207	0.00673793	0.0116854	0	0	0	0	1	-1	-0.00168318	1.00071	-0.0019201	12	13	14	15	16	17	18	19	20	21	22	23
4536	0.0291853	0.00671586	0.011742	0	0	0	0	1	-1	-0.00171087	1.0007	-0.00192966	12	13	14	15	16	17	18	19	20	21	22	23
4547	0.0291931	0.00677525	0.0117199	0	0	0	0	1	-1	-0.00171075	1.00066	-0.0019	12	13	14	15	16	17	18	19	20	21	22	23
4557	0.029215	0.00687083	0.0116639	0	0	0	0	1	-1	-0.00170284	1.00062	-0.00186614	12	13	14	15	16	17	18	19	20	21	22	23
4567	0.0291852	0.00691528	0.0116816	0	0	0	0	1	-1	-0.00170484	1.00058	-0.00183657	12	13	14	15	16	17	18	19	20	21	22	23
4577	0.0292018	0.00689358	0.0116866	0	0	0	0	1	-1	-0.00169161	1.00055	-0.00180334	12	13	14	15	16	17	18	19	20	21	22	23
4587	0.0292597	0.00689843	0.0116666	0	0	0	0	1	-1	-0.00171395	1.00054	-0.0018098	12	13	14	15	16	17	18	19	20	21	22	23
4597	0.0292905	0.00690058	0.0116471	0	0	0	0	1	-1	-0.00171218	1.00051	-0.00177818	12	13	14	15	16	17	18	19	20	21	22	23
4607	0.0293164	0.0068529	0.0116278	0	0	0	0	1	-1	-0.0017147	1.00047	-0.00174873	12	13	14	15	16	17	18	19	20	21	22	23
4617	0.0292837	0.00695994	0.0116423	0	0	0	0	1	-1	-0.00171032	1.00043	-0.00171859	12	13	14	15	16	17	18	19	20	21	22	23
4627	0.0293243	0.00695557	0.0117174	0	0	0	0	1	-1	-0.00170334	1.0004	-0.00168614	12	13	14	15	16	17	18	19	20	21	22	23
4637	0.0293329	0.0069227	0.0117253	0	0	0	0	1	-1	-0.00168958	1.00036	-0.00165337	12	13	14	15	16	17	18	19	20	21	22	23
4647	0.0293779	0.00690813	0.0117447	0	0	0	0	1	-1	-0.00171193	1.00036	-0.00165868	12	13	14	15	16	17	18	19	20	21	22	23
4657	0.0294178	0.00696054	0.01178	0	0	0	0	1	-1	-0.00171352	1.00032	-0.00163057	12	13	14	15	16	17	18	19	20	21	22	23
4667	0.029445	0.00700707	0.0117572	0	0	0	0	1	-1	-0.00171527	1.00028	-0.00160079	12	13	14	15	16	17	18	19	20	21	22	23
4678	0.0295151	0.00697486	0.0117181	0	0	0	0	1	-1	-0.00170171	1.00025	-0.00156886	12	13	14	15	16	17	18	19	20	21	22	23
4688	0.0295377	0.00696961	0.0117456	0	0	0	0	1	-1	-0.00169412	1.00022	-0.00153679	12	13	14	15	16	17	18	19	20	21	22	23
4698	0.029611	0.0069291	0.0117526	0	0	0	0	1	-1	-0.00172188	1.0002	-0.00154218	12	13	14	15	16	17	18	19	20	21	22	23
4708	0.0296383	0.00690906	0.0117161	0	0	0	0	1	-1	-0.00171566	1.00017	-0.00151106	12	13	14	15	16	17	18	19	20	21	22	23
4718	0.029688	0.00697653	0.0116886	0	0	0	0	1	-1	-0.00171084	1.00014	-0.00148138	12	13	14	15	16	17	18	19	20	21	22	23
4728	0.0296881	0.00699586	0.0117315	0	0	0	0	1	-1	-0.00171183	1.0001	-0.00145109	12	13	14	15	16	17	18	19	20	21	22	23
4738	0.0296879	0.00702265	0.0117227	0	0	0	0	1	-1	-0.0017059	1.00007	-0.00142103	12	13	14	15	16	17	18	19	20	21	22	23
4748	0.0297896	0.00706301	0.0117584	0	0	0	0	1	-1	-0.00170134	1.00003	-0.00139237	12	13	14	15	16	17	18	19	20	21	22	23
4758	0.0298326	0.00708278	0.0117482	0	0	0	0	1	-1	-0.00172072	1.00002	-0.00139509	12	13	14	15	16	17	18	19	20	21	22	23
4768	0.0298379	0.00714754	0.0118309	0	0	0	0	1	-1	-0.00171383	0.99999	-0.00136425	12	13	14	15	16	17	18	19	20	21	22	23
4778	0.0299042	0.00718169	0.0118822	0	0	0	0	1	-1	-0.00170843	0.999957	-0.00133469	12	13	14	15	16	17	18	19	20	21	22	23
4788	0.029896	0.00710635	0.0119094	0	0	0	0	1	-1	-0.00171852	0.999918	-0.00130781	12	13	14	15	16	17	18	19	20	21	22	23
4798	0.0299479	0.00707994	0.0119237	0	0	0	0	1	-1	-0.00170642	0.99989	-0.00127697	12	13	14	15	16	17	18	19	20	21	22	23
4808	0.0299027	0.00701198	0.01196	0	0	0	0	1	-1	-0.00173449	0.999873	-0.00127945	12	13	14	15	16	17	18	19	20	21	22	23
4819	0.0299616	0.00700382	0.0119147	0	0	0	0	1	-1	-0.00172107	0.999847	-0.00124966	12	13	14	15	16	17	18	19	20	21	22	23
4829	0.0299865	0.00701937	0.0119273	0	0	0	0	1	-1	-0.00171348	0.999816	-0.00121879	12	13	14	15	16	17	18	19	20	21	22	23
4839	0.0299904	0.00695781	0.011991	0	0	0	0	1	-1	-0.00170743	0.999786	-0.00118936	12	13	14	15	16	17	18	19	20	21	22	23
4849	0.0299795	0.00695071	0.0120598	0	0	0	0	1	-1	-0.00171123	0.999751	-0.00116169	12	13	14	15	16	17	18	19	20	21	22	23
4859	0.0300241	0.00694718	0.0121586	0	0	0	0	1	-1	-0.00170958	0.999717	-0.00113198	12	13	14	15	16	17	18	19	20	21	22	23
4869	0.0300423	0.00698032	0.012158	0	0	0	0	1	-1	-0.00173187	0.999702	-0.00113276	12	13	14	15	16	17	18	19	20	21	22	23
4879	0.0301028	0.00695305	0.0121663	0	0	0	0	1	-1	-0.00172601	0.999673	-0.00110372	12	13	14	15	16	17	18	19	20	21	22	23
4889	0.0301226	0.00700474	0.0122242	0	0	0	0	1	-1	-0.00170947	0.999649	-0.00107297	12	13	14	15	16	17	18	19	20	21	22	23
4899	0.030112	0.00702616	0.0122862	0	0	0	0	1	-1	-0.00173754	0.99963	-0.00107326	12	13	14	15	16	17	18	19	20	21	22	23
4909	0.0301504	0.00707148	0.0123225	0	0	0	0	1	-1	-0.00173944	0.999594	-0.0010435	12	13	14	15	16	17	18	19	20	21	22	23
4919	0.0302261	0.00706344	0.0124188	0	0	0	0	1	-1	-0.00173049	0.999565	-0.00101221	12	13	14	15	16	17	18	19	20	21	22	23
4929	0.0302949	0.00706921	0.0124826	0	0	0	0	1	-1	-0.0017287	0.999532	-0.000982004	12	13	14	15	16	17	18	19	20	21	22	23
4939	0.0303674	0.00711217	0.0124981	0	0	0	0	1	-1	-0.00172276	0.999504	-0.000953195	12	13	14	15	16	17	18	19	20	21	22	23
4950	0.0304454	0.00711884	0.0124916	0	0	0	0	1	-1	-0.00170871	0.99948	-0.000923262	12	13	14	15	16	17	18	19	20	21	22	23
4960	0.0305157	0.00714497	0.0124664	0	0	0	0	1	-1	-0.00173646	0.999459	-0.000921849	12	13	14	15	16	17	18	19	20	21	22	23
4970	0.0305055	0.00716745	0.0124903	0	0	0	0	1	-1	-0.00172109	0.999437	-0.000893217	12	13	14	15	16	17	18	19	20	21	22	23
4980	0.0305409	0.00710423	0.0124293	0	0	0	0	1	-1	-0.00172383	0.999403	-0.000864643	12	13	14	15	16	17	18	19	20	21	22	23
4990	0.0305566	0.00704708	0.0124602	0	0	0	0	1	-1	-0.00172125	0.999372	-0.000834752	12	13	14	15	16	17	18	19	20	21	22	23
5000	0.0306358	0.00700369	0.0124527	0	0	0	0	1	-1	-0.00171461	0.999345	-0.000806504	12	13	14	15	16	17	18	19	20	21	22	23
5010	0.0307416	0.00704239	0.0124641	0	0	0	0	1	-1	-0.00170953	0.999319	-0.000779514	12	13	14	15	16	17	18	19	20	21	22	23
5020	0.0308133	0.00704656	0.0124838	0	0	0	0	1	-1	-0.00173171	0.999301	-0.000777386	12	13	14	15	16	17	18	19	20	21	22	23
5030	0.030821	0.00703763	0.0124838	0	0	0	0	1	-1	-0.00172402	0.999276	-0.000748852	12	13	14	15	16	17	18	19	20	21	22	23
