Time	Roll	Pitch	Yaw	Des_Roll	Des_Pitch	Des_Yaw	Des_Pos_X	Des_Pos_Y	Des_Pos_Z	Pos_X	Pos_Y	Pos_Z	ForceX	ForceY	ForceZ	TorqueRoll	TorquePitch	TorqueYaw	PWM0	PWM1	PWM2	PWM3	PWM4	PWM5	
61	0	1	2	3	4	5	6	7	8	9	10	11	12	13	14	15	16	17	18	19	20	21	22	23
61	0	1	0	3	4	5	6	7	8	9	10	11	12	13	14	15	16	17	18	19	20	21	22	23
61	0	1	0	3	0	5	6	7	8	9	10	11	12	13	14	15	16	17	18	19	20	21	22	23
61	0	1	0	3	0	5	0	7	8	9	10	11	12	13	14	15	16	17	18	19	20	21	22	23
61	0	1	0	3	0	5	0	7	-1	9	10	11	12	13	14	15	16	17	18	19	20	21	22	23
61	0	1	0	3	0	5	0	7	-1	9	0	11	12	13	14	15	16	17	18	19	20	21	22	23
71	0.0683731	1	0	3	0	5	0	7	-1	9	0	11	12	13	14	15	16	17	18	19	20	21	22	23
71	0.0683731	1	0.0252199	3	0	5	0	7	-1	9	0	11	12	13	14	15	16	17	18	19	20	21	22	23
71	0.0683731	1	0.0252199	3	0	5	0	7	-1	9	0	11	12	13	14	15	16	17	18	19	20	21	22	23
71	0.0683731	1	0.0252199	3	0	5	0	7	-1	9	0	11	12	13	14	15	16	17	18	19	20	21	22	23
71	0.0683731	1	0.0252199	3	0	5	0	7	-1	9	0	11	12	13	14	15	16	17	18	19	20	21	22	23
71	0.0683731	1	0.0252199	3	0	5	0	7	-1	9	1.00329	11	12	13	14	15	16	17	18	19	20	21	22	23
81	0.0684023	1	0.0252199	3	0	5	0	7	-1	9	1.00329	11	12	13	14	15	16	17	18	19	20	21	22	23
81	0.0684023	1	0.0252379	3	0	5	0	7	-1	9	1.00329	11	12	13	14	15	16	17	18	19	20	21	22	23
81	0.0684023	1	0.0252379	3	0	5	0	7	-1	9	1.00329	11	12	13	14	15	16	17	18	19	20	21	22	23
81	0.0684023	1	0.0252379	3	0	5	0	7	-1	9	1.00329	11	12	13	14	15	16	17	18	19	20	21	22	23
81	0.0684023	1	0.0252379	3	0	5	0	7	-1	9	1.00329	11	12	13	14	15	16	17	18	19	20	21	22	23
81	0.0684023	1	0.0252379	3	0	5	0	7	-1	9	1.00327	11	12	13	14	15	16	17	18	19	20	21	22	23
91	0.06844	1	0.0252379	3	0	5	0	7	-1	9	1.00327	11	12	13	14	15	16	17	18	19	20	21	22	23
91	0.06844	1	0.0253061	3	0	5	0	7	-1	9	1.00327	11	12	13	14	15	16	17	18	19	20	21	22	23
91	0.06844	1	0.0253061	3	0	5	0	7	-1	9	1.00327	11	12	13	14	15	16	17	18	19	20	21	22	23
91	0.06844	1	0.0253061	3	0	5	0	7	-1	9	1.00327	11	12	13	14	15	16	17	18	19	20	21	22	23
91	0.06844	1	0.0253061	3	0	5	0	7	-1	9	1.00327	11	12	13	14	15	16	17	18	19	20	21	22	23
91	0.06844	1	0.0253061	3	0	5	0	7	-1	9	1.00323	11	12	13	14	15	16	17	18	19	20	21	22	23
101	0.0684582	0.0175486	0.0253513	0	0	0	0	1	-1	-0.00273995	1.00318	-0.00186028	12	13	14	15	16	17	18	19	20	21	22	23
111	0.0684818	0.017602	0.0253324	0	0	0	0	1	-1	-0.00275269	1.00317	-0.0018503	12	13	14	15	16	17	18	19	20	21	22	23
121	0.068508	0.0175957	0.0253565	0	0	0	0	1	-1	-0.00274495	1.00314	-0.00183172	12	13	14	15	16	17	18	19	20	21	22	23
131	0.0685011	0.0176021	0.0253654	0	0	0	0	1	-1	-0.00276803	1.00317	-0.00184188	12	13	14	15	16	17	18	19	20	21	22	23
141	0.068511	0.0176494	0.0254157	0	0	0	0	1	-1	-0.00275698	1.00313	-0.00182095	12	13	14	15	16	17	18	19	20	21	22	23
151	0.0685208	0.0177064	0.0254793	0	0	0	0	1	-1	-0.00276622	1.00312	-0.00180786	12	13	14	15	16	17	18	19	20	21	22	23
162	0.0685765	0.0177108	0.0255517	0	0	0	0	1	-1	-0.00275499	1.00309	-0.00178664	12	13	14	15	16	17	18	19	20	21	22	23
172	0.0686007	0.0177166	0.0256015	0	0	0	0	1	-1	-0.00279215	1.00313	-0.00180238	12	13	14	15	16	17	18	19	20	21	22	23
182	0.0685961	0.0177832	0.0256538	0	0	0	0	1	-1	-0.0027836	1.0031	-0.00178289	12	13	14	15	16	17	18	19	20	21	22	23
192	0.0685814	0.017838	0.0256263	0	0	0	0	1	-1	-0.0027719	1.00306	-0.00176123	12	13	14	15	16	17	18	19	20	21	22	23
202	0.0685339	0.0178406	0.0255801	0	0	0	0	1	-1	-0.00277234	1.00304	-0.00174527	12	13	14	15	16	17	18	19	20	21	22	23
212	0.0685572	0.0178659	0.0255717	0	0	0	0	1	-1	-0.0027567	1.00301	-0.0017234	12	13	14	15	16	17	18	19	20	21	22	23
222	0.0685755	0.0179419	0.025593	0	0	0	0	1	-1	-0.0027565	1.00299	-0.0017069	12	13	14	15	16	17	18	19	20	21	22	23
232	0.0685516	0.0179967	0.0256227	0	0	0	0	1	-1	-0.00280347	1.00303	-0.00172552	12	13	14	15	16	17	18	19	20	21	22	23
242	0.0685722	0.0180508	0.0256541	0	0	0	0	1	-1	-0.00278693	1.003	-0.0017029	12	13	14	15	16	17	18	19	20	21	22	23
252	0.0686145	0.0180764	0.0257505	0	0	0	0	1	-1	-0.00276242	1.00295	-0.0016765	12	13	14	15	16	17	18	19	20	21	22	23
262	0.0686527	0.0181032	0.0257508	0	0	0	0	1	-1	-0.00280945	1.003	-0.0016947	12	13	14	15	16	17	18	19	20	21	22	23
272	0.0687378	0.0181137	0.0258641	0	0	0	0	1	-1	-0.00277292	1.00292	-0.00164882	12	13	14	15	16	17	18	19	20	21	22	23
282	0.0687603	0.0181226	0.0259221	0	0	0	0	1	-1	-0.0028107	1.00296	-0.00166312	12	13	14	15	16	17	18	19	20	21	22	23
293	0.0688256	0.0181392	0.025899	0	0	0	0	1	-1	-0.00281152	1.00294	-0.00164673	12	13	14	15	16	17	18	19	20	21	22	23
303	0.0687843	0.0180895	0.0259644	0	0	0	0	1	-1	-0.00280534	1.00291	-0.00162854	12	13	14	15	16	17	18	19	20	21	22	23
313	0.0688248	0.0181418	0.0260066	0	0	0	0	1	-1	-0.00280168	1.00289	-0.00161191	12	13	14	15	16	17	18	19	20	21	22	23
323	0.0688289	0.0181882	0.0260585	0	0	0	0	1	-1	-0.0027943	1.00286	-0.00159308	12	13	14	15	16	17	18	19	20	21	22	23
333	0.0688432	0.0182088	0.0260513	0	0	0	0	1	-1	-0.00284192	1.00291	-0.00161024	12	13	14	15	16	17	18	19	20	21	22	23
343	0.0688352	0.0182241	0.0261346	0	0	0	0	1	-1	-0.00283731	1.00288	-0.00159291	12	13	14	15	16	17	18	19	20	21	22	23
353	0.0688795	0.0182428	0.0261804	0	0	0	0	1	-1	-0.00282567	1.00285	-0.00157382	12	13	14	15	16	17	18	19	20	21	22	23
363	0.0689729	0.0182751	0.0261979	0	0	0	0	1	-1	-0.00284396	1.00285	-0.00156405	12	13	14	15	16	17	18	19	20	21	22	23
373	0.0689729	0.0182408	0.0262408	0	0	0	0	1	-1	-0.00284086	1.00283	-0.00154746	12	13	14	15	16	17	18	19	20	21	22	23
383	0.0689867	0.0182471	0.0262253	0	0	0	0	1	-1	-0.00286506	1.00285	-0.00155553	12	13	14	15	16	17	18	19	20	21	22	23
394	0.0690372	0.0182504	0.0263124	0	0	0	0	1	-1	-0.00286432	1.00283	-0.00154017	12	13	14	15	16	17	18	19	20	21	22	23
404	0.0689963	0.0182495	0.0264108	0	0	0	0	1	-1	-0.00287381	1.00282	-0.00152692	12	13	14	15	16	17	18	19	20	21	22	23
414	0.0689974	0.0182537	0.0264579	0	0	0	0	1	-1	-0.00287134	1.0028	-0.00151029	12	13	14	15	16	17	18	19	20	21	22	23
424	0.0690467	0.0182897	0.0264665	0	0	0	0	1	-1	-0.00285683	1.00277	-0.00149075	12	13	14	15	16	17	18	19	20	21	22	23
434	0.069119	0.0183539	0.0265128	0	0	0	0	1	-1	-0.00290533	1.00281	-0.00150591	12	13	14	15	16	17	18	19	20	21	22	23
444	0.0691576	0.0183752	0.026583	0	0	0	0	1	-1	-0.00290085	1.00278	-0.00148842	12	13	14	15	16	17	18	19	20	21	22	23
454	0.0691616	0.0183884	0.0266653	0	0	0	0	1	-1	-0.00289895	1.00277	-0.00147261	12	13	14	15	16	17	18	19	20	21	22	23
464	0.0691908	0.018332	0.026736	0	0	0	0	1	-1	-0.0029238	1.00277	-0.00146574	12	13	14	15	16	17	18	19	20	21	22	23
474	0.0691954	0.0183606	0.0267434	0	0	0	0	1	-1	-0.00291	1.00274	-0.0014459	12	13	14	15	16	17	18	19	20	21	22	23
484	0.0692283	0.0183836	0.0267694	0	0	0	0	1	-1	-0.00294426	1.00277	-0.00145609	12	13	14	15	16	17	18	19	20	21	22	23
494	0.0692876	0.0184029	0.026811	0	0	0	0	1	-1	-0.00295742	1.00276	-0.00144473	12	13	14	15	16	17	18	19	20	21	22	23
504	0.0693608	0.0184448	0.0268438	0	0	0	0	1	-1	-0.00296128	1.00275	-0.00142937	12	13	14	15	16	17	18	19	20	21	22	23
514	0.069348	0.0184506	0.0268704	0	0	0	0	1	-1	-0.00295786	1.00272	-0.00141247	12	13	14	15	16	17	18	19	20	21	22	23
524	0.0693182	0.0184486	0.0268703	0	0	0	0	1	-1	-0.00293243	1.00269	-0.00139028	12	13	14	15	16	17	18	19	20	21	22	23
534	0.0693888	0.0185507	0.026895	0	0	0	0	1	-1	-0.00298149	1.00273	-0.0014038	12	13	14	15	16	17	18	19	20	21	22	23
545	0.0694276	0.018518	0.0269421	0	0	0	0	1	-1	-0.00294844	1.00266	-0.00136276	12	13	14	15	16	17	18	19	20	21	22	23
555	0.0694163	0.0185353	0.0269708	0	0	0	0	1	-1	-0.00297302	1.00268	-0.00136919	12	13	14	15	16	17	18	19	20	21	22	23
565	0.0695395	0.0185532	0.0270472	0	0	0	0	1	-1	-0.0029874	1.00268	-0.00135773	12	13	14	15	16	17	18	19	20	21	22	23
575	0.0695603	0.0185619	0.0271768	0	0	0	0	1	-1	-0.00299218	1.00266	-0.00134256	12	13	14	15	16	17	18	19	20	21	22	23
585	0.0695464	0.0185135	0.027188	0	0	0	0	1	-1	-0.00297972	1.00264	-0.00132368	12	13	14	15	16	17	18	19	20	21	22	23
595	0.0695629	0.0185215	0.0271884	0	0	0	0	1	-1	-0.00301445	1.00266	-0.00133233	12	13	14	15	16	17	18	19	20	21	22	23
605	0.069535	0.0185335	0.0272026	0	0	0	0	1	-1	-0.00302248	1.00265	-0.00131731	12	13	14	15	16	17	18	19	20	21	22	23
615	0.0695352	0.0186152	0.0272424	0	0	0	0	1	-1	-0.00302831	1.00264	-0.00130229	12	13	14	15	16	17	18	19	20	21	22	23
625	0.0695339	0.0186136	0.0272409	0	0	0	0	1	-1	-0.00301673	1.00261	-0.00128383	12	13	14	15	16	17	18	19	20	21	22	23
635	0.0695547	0.0185691	0.0272497	0	0	0	0	1	-1	-0.00305182	1.00264	-0.00129196	12	13	14	15	16	17	18	19	20	21	22	23
645	0.0695936	0.0185832	0.0272349	0	0	0	0	1	-1	-0.00301682	1.00257	-0.00125065	12	13	14	15	16	17	18	19	20	21	22	23
655	0.0696507	0.0185879	0.0271864	0	0	0	0	1	-1	-0.00305697	1.0026	-0.00125964	12	13	14	15	16	17	18	19	20	21	22	23
665	0.0696428	0.0185452	0.027245	0	0	0	0	1	-1	-0.00304881	1.00258	-0.00124035	12	13	14	15	16	17	18	19	20	21	22	23
675	0.069665	0.0185755	0.0272614	0	0	0	0	1	-1	-0.00302842	1.00255	-0.00121926	12	13	14	15	16	17	18	19	20	21	22	23
685	0.0697014	0.0186627	0.0273531	0	0	0	0	1	-1	-0.00304379	1.00254	-0.0012047	12	13	14	15	16	17	18	19	20	21	22	23
696	0.069724	0.0187178	0.0273371	0	0	0	0	1	-1	-0.00303677	1.00251	-0.00118621	12	13	14	15	16	17	18	19	20	21	22	23
706	0.069774	0.0187581	0.0274047	0	0	0	0	1	-1	-0.00308702	1.00255	-0.00119672	12	13	14	15	16	17	18	19	20	21	22	23
716	0.0698317	0.0187731	0.0274193	0	0	0	0	1	-1	-0.00307231	1.00252	-0.00117721	12	13	14	15	16	17	18	19	20	21	22	23
726	0.0698093	0.0187985	0.027464	0	0	0	0	1	-1	-0.00307336	1.0025	-0.00115972	12	13	14	15	16	17	18	19	20	21	22	23
736	0.0697661	0.0188245	0.0274857	0	0	0	0	1	-1	-0.00306707	1.00248	-0.00114152	12	13	14	15	16	17	18	19	20	21	22	23
746	0.0697905	0.0188174	0.0275075	0	0	0	0	1	-1	-0.00305652	1.00246	-0.00112149	12	13	14	15	16	17	18	19	20	21	22	23
756	0.0698127	0.0188141	0.0275853	0	0	0	0	1	-1	-0.0031069	1.00249	-0.00113109	12	13	14	15	16	17	18	19	20	21	22	23
766	0.0698643	0.0188523	0.0276184	0	0	0	0	1	-1	-0.00308876	1.00246	-0.00111044	12	13	14	15	16	17	18	19	20	21	22	23
776	0.0699349	0.0188218	0.0277045	0	0	0	0	1	-1	-0.00307661	1.00243	-0.00108993	12	13	14	15	16	17	18	19	20	21	22	23
786	0.0698729	0.0187725	0.0277521	0	0	0	0	1	-1	-0.0031119	1.00246	-0.00109651	12	13	14	15	16	17	18	19	20	21	22	23
796	0.0698973	0.0187979	0.0278189	0	0	0	0	1	-1	-0.00307037	1.00239	-0.00105501	12	13	14	15	16	17	18	19	20	21	22	23
806	0.06993	0.0187783	0.0278356	0	0	0	0	1	-1	-0.00312059	1.00243	-0.00106417	12	13	14	15	16	17	18	19	20	21	22	23
816	0.0699609	0.0188026	0.0279454	0	0	0	0	1	-1	-0.00310918	1.0024	-0.00104468	12	13	14	15	16	17	18	19	20	21	22	23
826	0.0699499	0.0187963	0.0279442	0	0	0	0	1	-1	-0.00309064	1.00237	-0.00102491	12	13	14	15	16	17	18	19	20	21	22	23
837	0.0699672	0.0187941	0.0279718	0	0	0	0	1	-1	-0.00308479	1.00235	-0.00100831	12	13	14	15	16	17	18	19	20	21	22	23
847	0.070036	0.0187677	0.0280343	0	0	0	0	1	-1	-0.00313504	1.00239	-0.0010173	12	13	14	15	16	17	18	19	20	21	22	23
857	0.0700811	0.0188182	0.0280631	0	0	0	0	1	-1	-0.00309185	1.00233	-0.00097719	12	13	14	15	16	17	18	19	20	21	22	23
867	0.0701499	0.0188415	0.0280779	0	0	0	0	1	-1	-0.00314224	1.00236	-0.000985988	12	13	14	15	16	17	18	19	20	21	22	23
877	0.0702048	0.0188799	0.028082	0	0	0	0	1	-1	-0.00312213	1.00233	-0.000967417	12	13	14	15	16	17	18	19	20	21	22	23
887	0.07025	0.0189161	0.0281207	0	0	0	0	1	-1	-0.00310241	1.0023	-0.000947908	12	13	14	15	16	17	18	19	20	21	22	23
897	0.0690769	0.0188959	0.0280968	0	0	0	0	1	-1	-0.00310565	1.00229	-0.00093317	12	13	14	15	16	17	18	19	20	21	22	23
907	0.0690348	0.0188979	0.0281677	0	0	0	0	1	-1	-0.00315628	1.00232	-0.000941456	12	13	14	15	16	17	18	19	20	21	22	23
917	0.069077	0.0189769	0.0282145	0	0	0	0	1	-1	-0.00316032	1.00231	-0.00092576	12	13	14	15	16	17	18	19	20	21	22	23
927	0.0690997	0.0189667	0.0282125	0	0	0	0	1	-1	-0.00313662	1.00228	-0.000906392	12	13	14	15	16	17	18	19	20	21	22	23
937	0.0691131	0.0190015	0.0282483	0	0	0	0	1	-1	-0.00312071	1.00225	-0.000889082	12	13	14	15	16	17	18	19	20	21	22	23
947	0.069169	0.0190703	0.0282168	0	0	0	0	1	-1	-0.00312041	1.00224	-0.00087318	12	13	14	15	16	17	18	19	20	21	22	23
957	0.0692649	0.0190936	0.0282278	0	0	0	0	1	-1	-0.00312782	1.00222	-0.000859338	12	13	14	15	16	17	18	19	20	21	22	23
968	0.0692625	0.0190819	0.0282418	0	0	0	0	1	-1	-0.00316338	1.00225	-0.000864739	12	13	14	15	16	17	18	19	20	21	22	23
978	0.0693015	0.0190618	0.0282672	0	0	0	0	1	-1	-0.00315851	1.00223	-0.000849622	12	13	14	15	16	17	18	19	20	21	22	23
988	0.0693069	0.0191247	0.0283253	0	0	0	0	1	-1	-0.0031489	1.00221	-0.000832744	12	13	14	15	16	17	18	19	20	21	22	23
998	0.0692722	0.0191422	0.0283783	0	0	0	0	1	-1	-0.00318986	1.00223	-0.000838593	12	13	14	15	16	17	18	19	20	21	22	23
1008	0.0693819	0.0191746	0.0283843	0	0	0	0	1	-1	-0.0031934	1.00222	-0.000824191	12	13	14	15	16	17	18	19	20	21	22	23
1018	0.0694214	0.0192911	0.0284014	0	0	0	0	1	-1	-0.00318946	1.00221	-0.000809573	12	13	14	15	16	17	18	19	20	21	22	23
1028	0.0694972	0.0192916	0.0285524	0	0	0	0	1	-1	-0.00319601	1.00219	-0.000795541	12	13	14	15	16	17	18	19	20	21	22	23
1038	0.0695213	0.0192844	0.0286541	0	0	0	0	1	-1	-0.00317438	1.00217	-0.000778391	12	13	14	15	16	17	18	19	20	21	22	23
1048	0.0695839	0.0193382	0.0287104	0	0	0	0	1	-1	-0.00316347	1.00214	-0.000761643	12	13	14	15	16	17	18	19	20	21	22	23
1058	0.0696039	0.019288	0.0287096	0	0	0	0	1	-1	-0.00320461	1.00217	-0.000766935	12	13	14	15	16	17	18	19	20	21	22	23
1068	0.0696962	0.0192783	0.0287682	0	0	0	0	1	-1	-0.00322233	1.00216	-0.000754178	12	13	14	15	16	17	18	19	20	21	22	23
1078	0.0697513	0.0193063	0.0288187	0	0	0	0	1	-1	-0.00321708	1.00215	-0.000739463	12	13	14	15	16	17	18	19	20	21	22	23
1088	0.0697703	0.0193345	0.0288035	0	0	0	0	1	-1	-0.0031914	1.00212	-0.00072125	12	13	14	15	16	17	18	19	20	21	22	23
1099	0.0698063	0.0193413	0.0288724	0	0	0	0	1	-1	-0.00318414	1.0021	-0.000706159	12	13	14	15	16	17	18	19	20	21	22	23
1109	0.0698524	0.0193886	0.029004	0	0	0	0	1	-1	-0.0031954	1.00209	-0.000694052	12	13	14	15	16	17	18	19	20	21	22	23
1119	0.0698982	0.0194758	0.0290375	0	0	0	0	1	-1	-0.00323708	1.00212	-0.000698788	12	13	14	15	16	17	18	19	20	21	22	23
1129	0.0699493	0.0195008	0.0291198	0	0	0	0	1	-1	-0.00323843	1.0021	-0.000684179	12	13	14	15	16	17	18	19	20	21	22	23
1139	0.0699313	0.0194514	0.0291354	0	0	0	0	1	-1	-0.00323211	1.00208	-0.00066943	12	13	14	15	16	17	18	19	20	21	22	23
1149	0.0700325	0.0194712	0.0291735	0	0	0	0	1	-1	-0.00322855	1.00207	-0.000655709	12	13	14	15	16	17	18	19	20	21	22	23
1159	0.0701206	0.0195041	0.0291979	0	0	0	0	1	-1	-0.00320936	1.00204	-0.000639322	12	13	14	15	16	17	18	19	20	21	22	23
1169	0.0701553	0.0195015	0.0291863	0	0	0	0	1	-1	-0.00326174	1.00207	-0.000644533	12	13	14	15	16	17	18	19	20	21	22	23
1179	0.0701136	0.0195715	0.0292565	0	0	0	0	1	-1	-0.00325582	1.00206	-0.000630005	12	13	14	15	16	17	18	19	20	21	22	23
1189	0.0701565	0.0196078	0.0292965	0	0	0	0	1	-1	-0.00326293	1.00205	-0.000617383	12	13	14	15	16	17	18	19	20	21	22	23
1199	0.0701828	0.0196107	0.0293073	0	0	0	0	1	-1	-0.00325444	1.00203	-0.000601988	12	13	14	15	16	17	18	19	20	21	22	23
1209	0.070226	0.0195988	0.0293881	0	0	0	0	1	-1	-0.00324881	1.00201	-0.000587532	12	13	14	15	16	17	18	19	20	21	22	23
1219	0.0702758	0.0196175	0.0293832	0	0	0	0	1	-1	-0.0032383	1.00199	-0.000571594	12	13	14	15	16	17	18	19	20	21	22	23
1230	0.070338	0.0196433	0.0294319	0	0	0	0	1	-1	-0.00328044	1.00201	-0.000574857	12	13	14	15	16	17	18	19	20	21	22	23
1240	0.0703255	0.0196525	0.0294485	0	0	0	0	1	-1	-0.00327288	1.002	-0.000559674	12	13	14	15	16	17	18	19	20	21	22	23
1250	0.0703275	0.0196529	0.0295456	0	0	0	0	1	-1	-0.00326836	1.00198	-0.000545498	12	13	14	15	16	17	18	19	20	21	22	23
1260	0.0703935	0.0196727	0.0296179	0	0	0	0	1	-1	-0.00325874	1.00196	-0.000529743	12	13	14	15	16	17	18	19	20	21	22	23
1270	0.0704196	0.0197529	0.0296392	0	0	0	0	1	-1	-0.00326274	1.00195	-0.000515558	12	13	14	15	16	17	18	19	20	21	22	23
1280	0.0704031	0.0197436	0.0296556	0	0	0	0	1	-1	-0.00331621	1.00198	-0.000518741	12	13	14	15	16	17	18	19	20	21	22	23
1290	0.0704701	0.01979	0.0297555	0	0	0	0	1	-1	-0.0033124	1.00197	-0.000504714	12	13	14	15	16	17	18	19	20	21	22	23
1300	0.0704999	0.0197655	0.0297906	0	0	0	0	1	-1	-0.00330335	1.00195	-0.00048922	12	13	14	15	16	17	18	19	20	21	22	23
1310	0.0704933	0.0198098	0.0298321	0	0	0	0	1	-1	-0.00327905	1.00192	-0.000471828	12	13	14	15	16	17	18	19	20	21	22	23
1320	0.070505	0.0197959	0.0298689	0	0	0	0	1	-1	-0.0033329	1.00195	-0.000474482	12	13	14	15	16	17	18	19	20	21	22	23
1330	0.0705841	0.0197678	0.0298978	0	0	0	0	1	-1	-0.00333315	1.00194	-0.000459003	12	13	14	15	16	17	18	19	20	21	22	23
1340	0.0706283	0.0197756	0.0299747	0	0	0	0	1	-1	-0.00334163	1.00193	-0.000444534	12	13	14	15	16	17	18	19	20	21	22	23
1350	0.0705891	0.0197887	0.0299315	0	0	0	0	1	-1	-0.00331296	1.0019	-0.00042746	12	13	14	15	16	17	18	19	20	21	22	23
1360	0.0706194	0.019804	0.0299536	0	0	0	0	1	-1	-0.00330336	1.00188	-0.000412032	12	13	14	15	16	17	18	19	20	21	22	23
1371	0.0706267	0.0198012	0.0299997	0	0	0	0	1	-1	-0.00334648	1.0019	-0.000413616	12	13	14	15	16	17	18	19	20	21	22	23
1381	0.0706776	0.0199237	0.030092	0	0	0	0	1	-1	-0.00335052	1.0019	-0.000399488	12	13	14	15	16	17	18	19	20	21	22	23
1391	0.0707592	0.0199104	0.0301458	0	0	0	0	1	-1	-0.00333864	1.00188	-0.000383635	12	13	14	15	16	17	18	19	20	21	22	23
1401	0.0707284	0.0198763	0.0301215	0	0	0	0	1	-1	-0.00332976	1.00186	-0.000368777	12	13	14	15	16	17	18	19	20	21	22	23
1411	0.0708024	0.0198541	0.030138	0	0	0	0	1	-1	-0.00331286	1.00184	-0.000354477	12	13	14	15	16	17	18	19	20	21	22	23
1421	0.0708729	0.0198602	0.0301377	0	0	0	0	1	-1	-0.0033666	1.00187	-0.000355879	12	13	14	15	16	17	18	19	20	21	22	23
1431	0.0709134	0.0199002	0.030134	0	0	0	0	1	-1	-0.00336622	1.00186	-0.000340645	12	13	14	15	16	17	18	19	20	21	22	23
1441	0.0709399	0.0199156	0.0301573	0	0	0	0	1	-1	-0.0033743	1.00185	-0.000326348	12	13	14	15	16	17	18	19	20	21	22	23
1451	0.0710362	0.019922	0.0301207	0	0	0	0	1	-1	-0.00336908	1.00184	-0.00031251	12	13	14	15	16	17	18	19	20	21	22	23
1461	0.0710452	0.0198924	0.0301183	0	0	0	0	1	-1	-0.0033423	1.00181	-0.000297241	12	13	14	15	16	17	18	19	20	21	22	23
1471	0.0710962	0.0199638	0.0301081	0	0	0	0	1	-1	-0.00335092	1.00181	-0.000283233	12	13	14	15	16	17	18	19	20	21	22	23
1481	0.0711633	0.0199441	0.0300924	0	0	0	0	1	-1	-0.00338889	1.00183	-0.00028352	12	13	14	15	16	17	18	19	20	21	22	23
1491	0.0711396	0.0199994	0.0301723	0	0	0	0	1	-1	-0.00338408	1.00182	-0.000269862	12	13	14	15	16	17	18	19	20	21	22	23
1501	0.0712132	0.0200122	0.0301963	0	0	0	0	1	-1	-0.0033738	1.0018	-0.000254993	12	13	14	15	16	17	18	19	20	21	22	23
1512	0.0712463	0.0200214	0.0302548	0	0	0	0	1	-1	-0.00335559	1.00178	-0.000241071	12	13	14	15	16	17	18	19	20	21	22	23
1522	0.0713358	0.0200378	0.0302242	0	0	0	0	1	-1	-0.00337016	1.00178	-0.000226159	12	13	14	15	16	17	18	19	20	21	22	23
1532	0.0713516	0.0200664	0.030288	0	0	0	0	1	-1	-0.00336068	1.00177	-0.000212067	12	13	14	15	16	17	18	19	20	21	22	23
1542	0.0713935	0.020067	0.0302757	0	0	0	0	1	-1	-0.00341508	1.0018	-0.000211955	12	13	14	15	16	17	18	19	20	21	22	23
1552	0.0713873	0.0200791	0.0302916	0	0	0	0	1	-1	-0.00338452	1.00177	-0.000196867	12	13	14	15	16	17	18	19	20	21	22	23
1562	0.0714303	0.0200663	0.0302816	0	0	0	0	1	-1	-0.00337332	1.00176	-0.000182624	12	13	14	15	16	17	18	19	20	21	22	23
1572	0.0715563	0.0200833	0.0303121	0	0	0	0	1	-1	-0.00338147	1.00175	-0.000169219	12	13	14	15	16	17	18	19	20	21	22	23
1582	0.0716093	0.0201161	0.030351	0	0	0	0	1	-1	-0.00341957	1.00177	-0.000169025	12	13	14	15	16	17	18	19	20	21	22	23
1592	0.0716164	0.0201915	0.0303626	0	0	0	0	1	-1	-0.00340617	1.00175	-0.000154516	12	13	14	15	16	17	18	19	20	21	22	23
1602	0.0716719	0.0201732	0.0303991	0	0	0	0	1	-1	-0.0034122	1.00175	-0.000140641	12	13	14	15	16	17	18	19	20	21	22	23
1612	0.071708	0.0202113	0.0304108	0	0	0	0	1	-1	-0.00338854	1.00173	-0.000127836	12	13	14	15	16	17	18	19	20	21	22	23
1622	0.0717492	0.0202387	0.0304165	0	0	0	0	1	-1	-0.00337613	1.00171	-0.000113916	12	13	14	15	16	17	18	19	20	21	22	23
1632	0.0718624	0.0203134	0.0304824	0	0	0	0	1	-1	-0.00337539	1.0017	-9.85716e-05	12	13	14	15	16	17	18	19	20	21	22	23
1642	0.0718399	0.0203265	0.0305709	0	0	0	0	1	-1	-0.00337229	1.00169	-8.41171e-05	12	13	14	15	16	17	18	19	20	21	22	23
1653	0.0718706	0.020291	0.0305887	0	0	0	0	1	-1	-0.00341584	1.00172	-8.30916e-05	12	13	14	15	16	17	18	19	20	21	22	23
1663	0.0718334	0.0203036	0.0306163	0	0	0	0	1	-1	-0.00339755	1.0017	-6.81383e-05	12	13	14	15	16	17	18	19	20	21	22	23
1673	0.071859	0.0203337	0.0306214	0	0	0	0	1	-1	-0.00336625	1.00167	-5.44129e-05	12	13	14	15	16	17	18	19	20	21	22	23
1683	0.0719283	0.0202825	0.0306221	0	0	0	0	1	-1	-0.0034207	1.0017	-5.28615e-05	12	13	14	15	16	17	18	19	20	21	22	23
1693	0.0719912	0.0203117	0.0306447	0	0	0	0	1	-1	-0.00340872	1.00169	-3.92781e-05	12	13	14	15	16	17	18	19	20	21	22	23
1703	0.0720732	0.0203043	0.0306205	0	0	0	0	1	-1	-0.00341968	1.00168	-2.41174e-05	12	13	14	15	16	17	18	19	20	21	22	23
1713	0.0721152	0.020288	0.0306478	0	0	0	0	1	-1	-0.0033955	1.00166	-1.08813e-05	12	13	14	15	16	17	18	19	20	21	22	23
1723	0.0721273	0.0203152	0.0306313	0	0	0	0	1	-1	-0.00337816	1.00164	3.37069e-06	12	13	14	15	16	17	18	19	20	21	22	23
1733	0.0721407	0.0203249	0.0306638	0	0	0	0	1	-1	-0.00336398	1.00163	1.68241e-05	12	13	14	15	16	17	18	19	20	21	22	23
1743	0.072169	0.0203267	0.0307101	0	0	0	0	1	-1	-0.00341876	1.00166	1.8893e-05	12	13	14	15	16	17	18	19	20	21	22	23
1753	0.0721856	0.020335	0.0307132	0	0	0	0	1	-1	-0.00339101	1.00164	3.10421e-05	12	13	14	15	16	17	18	19	20	21	22	23
1763	0.0723042	0.0203887	0.0307251	0	0	0	0	1	-1	-0.00339174	1.00163	4.51374e-05	12	13	14	15	16	17	18	19	20	21	22	23
1773	0.0723133	0.0203549	0.0307835	0	0	0	0	1	-1	-0.00337937	1.00162	5.78784e-05	12	13	14	15	16	17	18	19	20	21	22	23
1783	0.0722908	0.0203344	0.0308215	0	0	0	0	1	-1	-0.00338089	1.00161	7.0496e-05	12	13	14	15	16	17	18	19	20	21	22	23
1794	0.0722743	0.0203377	0.0308704	0	0	0	0	1	-1	-0.0034249	1.00163	7.25575e-05	12	13	14	15	16	17	18	19	20	21	22	23
1804	0.0722962	0.0203959	0.0309143	0	0	0	0	1	-1	-0.00342163	1.00163	8.60623e-05	12	13	14	15	16	17	18	19	20	21	22	23
1814	0.0723325	0.0204052	0.0308805	0	0	0	0	1	-1	-0.00341043	1.00162	9.82536e-05	0	0	0.551497	-0.0169409	0.00107566	-0.003529	1486	1486	1486	1487	1487	1487
1824	0.0724164	0.0204158	0.0309606	0	0	0	0	1	-1	-0.00340234	1.00161	0.000109736	0	0	0.552008	-0.0152983	-2.86287e-05	-0.00417349	1487	1487	1487	1487	1487	1487
1834	0.0724743	0.0204392	0.0310043	0	0	0	0	1	-1	-0.00337826	1.00159	0.00012137	0	0	0.552519	-0.0164198	-0.00114374	-0.00481297	1487	1487	1487	1488	1488	1487
1844	0.0724642	0.0204588	0.0310549	0	0	0	0	1	-1	-0.00343342	1.00162	0.00012436	0	0	0.55303	-0.0175239	-0.00226969	-0.00545118	1488	1487	1488	1488	1488	1488
1854	0.0724823	0.0204924	0.0311191	0	0	0	0	1	-1	-0.00344	1.00162	0.000137071	0	0	0.553541	-0.0186382	-0.00339527	-0.00609042	1488	1488	1488	1488	1489	1488
1864	0.0724861	0.0205103	0.0311712	0	0	0	0	1	-1	-0.00343299	1.00161	0.000148224	0	0	0.554052	-0.0197513	-0.00451743	-0.00673131	1489	1488	1489	1489	1489	1489
1874	0.072493	0.0205329	0.0312153	0	0	0	0	1	-1	-0.00342073	1.0016	0.00016004	0	0	0.554564	-0.0208652	-0.00564016	-0.00736936	1489	1489	1489	1489	1490	1489
1884	0.0725461	0.0205283	0.0312444	0	0	0	0	1	-1	-0.00341162	1.00159	0.000171368	0	0	0.555075	-0.0219991	-0.00675167	-0.00800736	1489	1489	1490	1490	1490	1490
1894	0.0725801	0.0204868	0.0312697	0	0	0	0	1	-1	-0.00345032	1.00161	0.000173872	0	0	0.555585	-0.0231267	-0.00785602	-0.00864868	1490	1489	1490	1490	1491	1490
1904	0.0726792	0.0205729	0.0313331	0	0	0	0	1	-1	-0.00346083	1.00161	0.000185621	0	0	0.556095	-0.0242699	-0.00899246	-0.00928829	1490	1490	1491	1491	1491	1490
1914	0.0726713	0.0205919	0.0313694	0	0	0	0	1	-1	-0.00343276	1.00159	0.000195816	0	0	0.556606	-0.0253835	-0.0101241	-0.00992782	1491	1490	1491	1491	1492	1491
1924	0.0726381	0.0206206	0.031389	0	0	0	0	1	-1	-0.00341667	1.00158	0.000207542	0	0	0.557116	-0.0264895	-0.0112594	-0.010565	1491	1491	1492	1492	1492	1491
1935	0.0726795	0.0206209	0.0314193	0	0	0	0	1	-1	-0.00340385	1.00157	0.000218507	0	0	0.557627	-0.0276212	-0.012378	-0.0112058	1492	1491	1492	1492	1493	1492
1945	0.072682	0.0206613	0.0314448	0	0	0	0	1	-1	-0.00345928	1.0016	0.00022207	0	0	0.558137	-0.0287452	-0.0135102	-0.0118445	1492	1492	1493	1493	1493	1492
1955	0.0726707	0.0206718	0.0314809	0	0	0	0	1	-1	-0.0034495	1.00159	0.000232568	0	0	0.558648	-0.0298635	-0.0146385	-0.0124856	1492	1492	1493	1493	1494	1492
1965	0.0727497	0.0206969	0.0315445	0	0	0	0	1	-1	-0.00346288	1.00159	0.00024532	0	0	0.559159	-0.0310072	-0.0157615	-0.013132	1493	1492	1494	1494	1494	1493
1975	0.0727757	0.0206884	0.0315676	0	0	0	0	1	-1	-0.00345138	1.00158	0.000255623	0	0	0.559669	-0.0321347	-0.0168816	-0.0137742	1493	1493	1494	1494	1495	1493
1985	0.0727839	0.0207462	0.0315548	0	0	0	0	1	-1	-0.00343188	1.00157	0.000264505	0	0	0.560179	-0.033261	-0.018024	-0.0144061	1494	1493	1495	1495	1495	1494
1995	0.0727643	0.0207468	0.0315708	0	0	0	0	1	-1	-0.00347071	1.00159	0.000267042	0	0	0.56069	-0.0343833	-0.0191537	-0.015046	1494	1494	1495	1495	1496	1494
2005	0.0728059	0.0207541	0.0316376	0	0	0	0	1	-1	-0.00345708	1.00158	0.000277189	0	0	0.561201	-0.0355187	-0.0202789	-0.0156958	1495	1494	1495	1496	1496	1495
2015	0.0728473	0.020815	0.0316826	0	0	0	0	1	-1	-0.00346344	1.00158	0.000287912	0	0	0.561712	-0.0366522	-0.0214204	-0.0163388	1495	1494	1496	1496	1497	1495
2025	0.0729184	0.0207397	0.0317448	0	0	0	0	1	-1	-0.00346715	1.00158	0.000297807	0	0	0.562223	-0.037796	-0.0225186	-0.0169926	1495	1495	1496	1497	1497	1495
2035	0.072956	0.0207815	0.0317533	0	0	0	0	1	-1	-0.00344342	1.00157	0.000306547	0	0	0.562733	-0.0389296	-0.0236546	-0.0176323	1496	1495	1497	1497	1497	1496
2045	0.0729592	0.020784	0.0317883	0	0	0	0	1	-1	-0.00348239	1.00159	0.00030927	0	0	0.563243	-0.0400597	-0.0247889	-0.0182768	1496	1496	1497	1497	1498	1496
2055	0.0729677	0.0208273	0.0318116	0	0	0	0	1	-1	-0.00347306	1.00158	0.000318301	0	0	0.563755	-0.0411873	-0.0259337	-0.0189179	1497	1496	1498	1498	1498	1497
2065	0.072986	0.0208223	0.0318577	0	0	0	0	1	-1	-0.00346684	1.00158	0.00032692	0	0	0.564266	-0.0423212	-0.0270625	-0.019566	1497	1497	1498	1498	1499	1497
2075	0.0730156	0.0207715	0.0318992	0	0	0	0	1	-1	-0.00345535	1.00157	0.000335999	0	0	0.564777	-0.0434563	-0.028174	-0.0202174	1498	1497	1499	1499	1499	1498
2086	0.0730486	0.0207793	0.0319333	0	0	0	0	1	-1	-0.00347489	1.00158	0.000346906	0	0	0.565288	-0.0445933	-0.0293074	-0.0208624	1498	1497	1499	1499	1500	1498
2096	0.0731134	0.0208032	0.0319387	0	0	0	0	1	-1	-0.00346123	1.00157	0.000356065	0	0	0.565799	-0.0457425	-0.0304418	-0.0215028	1498	1498	1500	1500	1500	1498
2106	0.0731249	0.020827	0.0319442	0	0	0	0	1	-1	-0.00345081	1.00156	0.000364658	0	0	0.566309	-0.0468777	-0.0315845	-0.0221448	1499	1498	1500	1500	1501	1499
2116	0.0731523	0.0208424	0.0319892	0	0	0	0	1	-1	-0.00349567	1.00159	0.000368176	0	0	0.56682	-0.0480177	-0.032722	-0.0227937	1499	1499	1501	1501	1501	1499
2126	0.0731661	0.0208611	0.0320214	0	0	0	0	1	-1	-0.00348832	1.00158	0.000376277	0	0	0.56733	-0.0491509	-0.0338587	-0.0234418	1500	1499	1501	1501	1502	1500
2136	0.0731877	0.0208787	0.032119	0	0	0	0	1	-1	-0.00348691	1.00158	0.000385497	0	0	0.567841	-0.0502872	-0.0349971	-0.0241	1500	1500	1502	1502	1502	1500
2146	0.0732284	0.0208507	0.0321575	0	0	0	0	1	-1	-0.00347737	1.00158	0.000393463	0	0	0.568351	-0.0514254	-0.0361216	-0.0247515	1501	1500	1502	1502	1503	1501
2156	0.0732357	0.0208466	0.0322078	0	0	0	0	1	-1	-0.00352226	1.0016	0.00039706	0	0	0.568862	-0.0525612	-0.0372567	-0.0254024	1501	1500	1503	1503	1503	1501
2166	0.0732978	0.0208513	0.0321955	0	0	0	0	1	-1	-0.00349873	1.00159	0.000403256	0	0	0.569372	-0.053711	-0.0383917	-0.0260447	1501	1501	1503	1503	1504	1501
2176	0.0733678	0.0209219	0.0322392	0	0	0	0	1	-1	-0.00351168	1.0016	0.000411807	0	0	0.569883	-0.0548705	-0.039544	-0.0266903	1502	1501	1504	1504	1504	1502
2186	0.0734244	0.020949	0.03231	0	0	0	0	1	-1	-0.00350204	1.00159	0.000419361	0	0	0.570395	-0.056021	-0.040687	-0.0273467	1502	1502	1504	1504	1505	1502
2196	0.0734793	0.0209946	0.032339	0	0	0	0	1	-1	-0.00350666	1.0016	0.000427443	0	0	0.570905	-0.0571679	-0.0418357	-0.0279958	1503	1502	1505	1505	1505	1503
2206	0.073493	0.0210192	0.0323376	0	0	0	0	1	-1	-0.00349451	1.00159	0.00043482	0	0	0.571416	-0.0583082	-0.0429835	-0.0286401	1503	1502	1505	1505	1506	1503
2216	0.0734982	0.0210403	0.0323488	0	0	0	0	1	-1	-0.00353941	1.00162	0.000438481	0	0	0.571925	-0.0594528	-0.0441314	-0.0292881	1504	1503	1505	1506	1506	1504
2226	0.0735428	0.0210593	0.0323669	0	0	0	0	1	-1	-0.00351345	1.0016	0.000443964	0	0	0.572436	-0.0606066	-0.0452757	-0.0299385	1504	1503	1506	1506	1507	1504
2237	0.0735267	0.021073	0.0324002	0	0	0	0	1	-1	-0.00352438	1.00161	0.00045185	0	0	0.572947	-0.0617435	-0.0464232	-0.0305911	1504	1504	1506	1506	1507	1504
2247	0.073561	0.0210973	0.0324699	0	0	0	0	1	-1	-0.00351271	1.00161	0.000458719	0	0	0.573457	-0.0628916	-0.0475705	-0.0312498	1505	1504	1507	1507	1508	1505
2257	0.073584	0.0210948	0.0325161	0	0	0	0	1	-1	-0.00351558	1.00161	0.000466116	0	0	0.573968	-0.0640383	-0.0487117	-0.0319062	1505	1505	1507	1507	1508	1505
2267	0.073609	0.0211194	0.0325844	0	0	0	0	1	-1	-0.00357223	1.00164	0.000470904	0	0	0.574478	-0.0651855	-0.0498623	-0.0325635	1506	1505	1508	1508	1509	1506
2277	0.0736367	0.0211456	0.0326753	0	0	0	0	1	-1	-0.0035669	1.00164	0.000476978	0	0	0.574989	-0.0663338	-0.0510139	-0.0332259	1506	1505	1508	1508	1509	1506
2287	0.0737103	0.0211544	0.0326932	0	0	0	0	1	-1	-0.00354446	1.00163	0.000482317	0	0	0.575499	-0.067493	-0.0521595	-0.0338789	1507	1506	1509	1509	1510	1507
2297	0.0737342	0.021197	0.0327082	0	0	0	0	1	-1	-0.0035842	1.00165	0.000485638	0	0	0.57601	-0.0686476	-0.053319	-0.0345282	1507	1506	1509	1509	1510	1507
2307	0.0737852	0.0212767	0.0327488	0	0	0	0	1	-1	-0.0035428	1.00163	0.000494864	0	0	0.576521	-0.0698094	-0.0544858	-0.0351805	1507	1507	1510	1510	1511	1507
2317	0.0738033	0.0213276	0.0327851	0	0	0	0	1	-1	-0.00359967	1.00166	0.000499693	0	0	0.577031	-0.0709604	-0.0556502	-0.0358359	1508	1507	1510	1510	1511	1508
2327	0.0738952	0.0213522	0.0328187	0	0	0	0	1	-1	-0.00358885	1.00166	0.000505576	0	0	0.577541	-0.0721344	-0.0567976	-0.0364943	1508	1507	1511	1511	1511	1508
2337	0.0739438	0.0213785	0.0328754	0	0	0	0	1	-1	-0.00356996	1.00165	0.000510095	0	0	0.578052	-0.0732994	-0.0579521	-0.0371563	1509	1508	1511	1511	1512	1509
2347	0.0741041	0.0213489	0.0329196	0	0	0	0	1	-1	-0.00355677	1.00164	0.000515517	0	0	0.578561	-0.074492	-0.059083	-0.0378196	1509	1508	1512	1512	1512	1509
2357	0.0742484	0.0213549	0.0329287	0	0	0	0	1	-1	-0.00361407	1.00168	0.000519952	0	0	0.579068	-0.0756828	-0.0602274	-0.0384766	1509	1509	1512	1512	1513	1509
2367	0.0752319	0.0213171	0.0329976	0	0	0	0	1	-1	-0.00356871	1.00166	0.000525557	0	0	0.579573	-0.0771218	-0.0612799	-0.0391509	1510	1509	1513	1513	1513	1510
2378	0.0760265	0.0213113	0.0330095	0	0	0	0	1	-1	-0.00360894	1.00169	0.00052713	0	0	0.580079	-0.0785057	-0.0623699	-0.0398212	1510	1510	1513	1513	1514	1510
2388	0.0777198	0.0213022	0.0330316	0	0	0	0	1	-1	-0.00359654	1.00169	0.0005285	0	0	0.580576	-0.0801432	-0.063389	-0.0405006	1511	1510	1514	1514	1514	1511
2398	0.079719	0.021303	0.0330828	0	0	0	0	1	-1	-0.00357573	1.00168	0.000527921	0	0	0.581082	-0.0818941	-0.0643925	-0.0411983	1511	1510	1514	1514	1515	1511
2408	0.0841054	0.0213191	0.0331261	0	0	0	0	1	-1	-0.00358108	1.0017	0.000523158	0	0	0.581569	-0.0842867	-0.0652088	-0.0419201	1512	1511	1514	1514	1515	1512
2418	0.0910706	0.021307	0.0331954	0	0	0	0	1	-1	-0.00358638	1.00173	0.000513262	0	0	0.582058	-0.0874022	-0.0658254	-0.0426858	1512	1511	1515	1515	1516	1512
2428	0.0957124	0.0213222	0.0332191	0	0	0	0	1	-1	-0.00362661	1.00177	0.000505875	0	0	0.582556	-0.0899513	-0.0667444	-0.043472	1512	1511	1515	1515	1516	1512
2438	0.103871	0.0213378	0.0333048	0	0	0	0	1	-1	-0.00361757	1.0018	0.000491304	0	0	0.583042	-0.0934417	-0.0674038	-0.0443128	1513	1512	1516	1516	1517	1513
2448	0.111675	0.0213641	0.0333494	0	0	0	0	1	-1	-0.00359145	1.00181	0.000476758	0	0	0.583532	-0.0969076	-0.0681797	-0.0451922	1513	1512	1516	1516	1517	1513
2458	0.125995	0.0214006	0.0333854	0	0	0	0	1	-1	-0.00359181	1.00186	0.000449141	0	0	0.58401	-0.102115	-0.068465	-0.046148	1514	1512	1517	1517	1518	1514
2468	0.140455	0.0213739	0.0333618	0	0	0	0	1	-1	-0.00364939	1.00194	0.000420566	0	0	0.584487	-0.107481	-0.0688634	-0.0471804	1514	1513	1517	1517	1519	1514
2478	0.162911	0.021388	0.033379	0	0	0	0	1	-1	-0.00365876	1.00203	0.000373858	0	0	0.58495	-0.114985	-0.0687281	-0.0483391	1514	1513	1517	1518	1519	1515
2488	0.176733	0.0214077	0.0334002	0	0	0	0	1	-1	-0.00362767	1.00206	0.000344532	0	0	0.585442	-0.120503	-0.0695758	-0.0495754	1515	1513	1518	1518	1520	1515
2498	0.19923	0.0214216	0.0334146	0	0	0	0	1	-1	-0.00361716	1.00213	0.000297173	0	0	0.58591	-0.128318	-0.0698082	-0.0509344	1515	1513	1518	1519	1520	1516
2509	0.224478	0.0214706	0.0334514	0	0	0	0	1	-1	-0.00360989	1.00222	0.000242567	0	0	0.586376	-0.137014	-0.0700342	-0.0524331	1515	1514	1519	1519	1521	1516
2519	0.262428	0.0215105	0.0334999	0	0	0	0	1	-1	-0.00361393	1.00235	0.000160039	0	0	0.586826	-0.149088	-0.0694164	-0.0541384	1515	1514	1519	1520	1522	1516
2529	0.295491	0.0215164	0.0335323	0	0	0	0	1	-1	-0.00367169	1.0025	8.87954e-05	0	0	0.587288	-0.160278	-0.0695827	-0.0560232	1516	1514	1519	1520	1522	1517
2539	0.320663	0.0215512	0.0335374	0	0	0	0	1	-1	-0.00364431	1.00257	3.246e-05	0	0	0.58776	-0.169807	-0.0707596	-0.0580373	1516	1514	1520	1521	1523	1517
2549	0.359961	0.0215954	0.033585	0	0	0	0	1	-1	-0.00363742	1.0027	-5.49673e-05	0	0	0.588217	-0.183055	-0.0709746	-0.0602688	1516	1514	1520	1521	1524	1518
2559	0.394209	0.021649	0.0336211	0	0	0	0	1	-1	-0.00368373	1.00284	-0.000129976	0	0	0.588679	-0.195408	-0.0720017	-0.0626824	1517	1514	1520	1522	1524	1518
2569	0.450387	0.0216807	0.033672	0	0	0	0	1	-1	-0.00368253	1.00304	-0.000255624	0	0	0.589118	-0.213454	-0.0714906	-0.0654007	1517	1514	1521	1523	1525	1519
2579	0.517851	0.0217264	0.0338667	0	0	0	0	1	-1	-0.00369043	1.00327	-0.00040724	0	0	0.589551	-0.234737	-0.0705762	-0.0685027	1517	1514	1521	1523	1526	1519
2589	0.575109	0.0216915	0.0339113	0	0	0	0	1	-1	-0.00367516	1.00346	-0.000536714	0	0	0.589995	-0.25414	-0.0711394	-0.0718882	1517	1514	1521	1524	1527	1520
2599	0.62414	0.0217057	0.0339592	0	0	0	0	1	-1	-0.00365184	1.00361	-0.000648422	0	0	0.590447	-0.272069	-0.0729624	-0.0755326	1517	1514	1522	1524	1528	1520
2609	0.669459	0.0217246	0.0339456	0	0	0	0	1	-1	-0.00362607	1.00375	-0.000752265	0	0	0.590908	-0.289531	-0.0755699	-0.0794081	1518	1514	1522	1525	1529	1521
2619	0.759748	0.0217357	0.034008	0	0	0	0	1	-1	-0.00362928	1.00406	-0.000956819	0	0	0.591323	-0.318328	-0.0748266	-0.0837733	1518	1514	1522	1526	1530	1521
2629	0.849903	0.0220709	0.0343962	0	0	0	0	1	-1	-0.00363004	1.00437	-0.0011631	0	0	0.59174	-0.347857	-0.0750627	-0.0886554	1518	1513	1522	1526	1531	1522
2639	0.931214	0.0220832	0.0344263	0	0	0	0	1	-1	-0.00368816	1.00469	-0.00134457	0	0	0.592173	-0.376092	-0.0767649	-0.0939251	1518	1513	1523	1527	1532	1522
2650	1.00043	0.0221466	0.0344781	0	0	0	0	1	-1	-0.00366871	1.00491	-0.00150233	0	0	0.592614	-0.402188	-0.0802582	-0.0995612	1518	1513	1523	1528	1533	1523
2660	1.09191	0.0221716	0.0345125	0	0	0	0	1	-1	-0.00365527	1.00521	-0.00170987	0	0	0.593039	-0.434315	-0.0825275	-0.105683	1518	1512	1523	1528	1534	1523
2670	1.15928	0.0221458	0.0345376	0	0	0	0	1	-1	-0.00369616	1.00547	-0.00185952	0	0	0.593486	-0.461418	-0.0876748	-0.112162	1518	1512	1524	1529	1535	1523
2680	1.31315	0.0221299	0.0345623	0	0	0	0	1	-1	-0.00364106	1.00595	-0.00221095	0	0	0.593868	-0.510008	-0.0862291	-0.119452	1518	1511	1524	1530	1537	1524
2690	1.42307	0.0221458	0.0345743	0	0	0	0	1	-1	-0.0036995	1.00636	-0.00245446	0	0	0.594282	-0.549375	-0.0899146	-0.127313	1518	1510	1524	1531	1538	1524
2700	1.53907	0.0221282	0.0345371	0	0	0	0	1	-1	-0.00368709	1.00674	-0.0027168	0	0	0.594697	-0.591211	-0.0941068	-0.135782	1518	1510	1524	1532	1539	1525
2710	1.59927	0.0221109	0.0345444	0	0	0	0	1	-1	-0.00364881	1.00692	-0.00285584	0	0	0.595149	-0.62066	-0.104036	-0.144571	1518	1509	1525	1532	1541	1525
2720	1.78871	0.0221365	0.0345941	0	0	0	0	1	-1	-0.00366339	1.00757	-0.00328238	0	0	0.595521	-0.681707	-0.103789	-0.154359	1517	1508	1525	1533	1542	1526
2730	1.92279	0.0221393	0.0345901	0	0	0	0	1	-1	-0.00365228	1.00801	-0.00358582	0	0	0.595928	-0.73117	-0.109901	-0.164841	1517	1507	1525	1534	1544	1526
2740	2.06371	0.0221632	0.0345818	0	0	0	0	1	-1	-0.00371122	1.00854	-0.00389632	0	0	0.596333	-0.783519	-0.116689	-0.176058	1517	1507	1525	1535	1546	1527
2750	2.21104	0.0221641	0.0345099	0	0	0	0	1	-1	-0.00370333	1.00903	-0.00422705	0	0	0.596741	-0.838701	-0.124245	-0.188038	1517	1505	1526	1536	1547	1527
2760	2.3334	0.0221282	0.0343814	0	0	0	0	1	-1	-0.00367786	1.00942	-0.00450384	0	0	0.597165	-0.889209	-0.135237	-0.200649	1516	1505	1526	1537	1549	1527
2770	2.52461	0.0218518	0.0340052	0	0	0	0	1	-1	-0.00367925	1.01007	-0.00493318	0	0	0.597502	-0.957296	-0.141601	-0.214235	1516	1503	1526	1538	1551	1528
2780	2.68684	0.0197038	0.030975	0	0	0	0	1	-1	-0.00367126	1.01065	-0.00531803	0	0	0.597882	-1.01999	-0.151646	-0.22833	1515	1502	1527	1539	1553	1528
2791	2.9032	0.0152648	0.0225031	0	0	0	0	1	-1	-0.00367652	1.01146	-0.00584559	0	0	0.598172	-1.09702	-0.158096	-0.242766	1515	1500	1527	1541	1555	1529
2801	3.01953	0.0105542	0.0141943	0	0	0	0	1	-1	-0.00371692	1.01197	-0.00614423	0	0	0.598496	-1.15262	-0.174587	-0.257772	1514	1499	1527	1542	1557	1529
2811	3.1798	-0.000504147	0.00114645	0	0	0	0	1	-1	-0.00371154	1.01267	-0.00661736	0	0	0.598734	-1.21897	-0.186767	-0.273133	1514	1498	1527	1543	1559	1529
2821	3.30599	-0.0137227	-0.0151169	0	0	0	0	1	-1	-0.00368243	1.01323	-0.00702975	0	0	0.599019	-1.27878	-0.202442	-0.28877	1513	1497	1528	1544	1560	1529
2831	3.45105	-0.0374956	-0.0409392	0	0	0	0	1	-1	-0.00373902	1.01411	-0.00758834	0	0	0.599066	-1.34318	-0.214609	-0.303921	1512	1495	1528	1545	1562	1529
2841	3.5954	-0.0820824	-0.0658197	0	0	0	0	1	-1	-0.0037562	1.01514	-0.00837747	0	0	0.599005	-1.40821	-0.2228	-0.321177	1512	1493	1528	1545	1564	1529
2851	3.70679	-0.144796	-0.0882965	0	0	0	0	1	-1	-0.00380175	1.01638	-0.00936818	0	0	0.598846	-1.46345	-0.230287	-0.340101	1511	1492	1528	1546	1565	1529
2861	3.74445	-0.180563	-0.0986394	0	0	0	0	1	-1	-0.00379518	1.01702	-0.00996605	0	0	0.599016	-1.5026	-0.250683	-0.35866	1511	1491	1528	1546	1566	1529
2871	3.76779	-0.222165	-0.109418	0	0	0	0	1	-1	-0.00380542	1.01782	-0.0106951	0	0	0.5991	-1.53663	-0.271175	-0.377152	1510	1490	1529	1547	1567	1528
2881	3.76261	-0.277408	-0.122361	0	0	0	0	1	-1	-0.0038653	1.01915	-0.0118642	0	0	0.599076	-1.56167	-0.291764	-0.395468	1510	1489	1529	1547	1568	1528
2891	3.7038	-0.32254	-0.132478	0	0	0	0	1	-1	-0.00393656	1.02069	-0.0132347	0	0	0.599093	-1.57305	-0.319356	-0.412717	1510	1488	1530	1547	1569	1527
2901	3.64996	-0.338899	-0.136534	0	0	0	0	1	-1	-0.00401451	1.02164	-0.0140022	0	0	0.599332	-1.58704	-0.350774	-0.428821	1509	1488	1531	1548	1569	1526
2911	3.55164	-0.347756	-0.140252	0	0	0	0	1	-1	-0.00405842	1.02292	-0.0151443	0	0	0.599523	-1.58836	-0.388071	-0.443798	1509	1488	1532	1549	1570	1525
2921	3.42689	-0.339123	-0.142668	0	0	0	0	1	-1	-0.00410422	1.02427	-0.0163207	0	0	0.599787	-1.58282	-0.430662	-0.457308	1509	1488	1534	1549	1570	1525
2932	3.28034	-0.312674	-0.140634	0	0	0	0	1	-1	-0.00415953	1.02564	-0.0175328	0	0	0.600005	-1.57133	-0.478238	-0.469863	1509	1489	1535	1550	1570	1523
2942	3.06734	-0.252809	-0.132234	0	0	0	0	1	-1	-0.00425899	1.02752	-0.019139	0	0	0.600186	-1.54271	-0.538653	-0.480807	1509	1489	1537	1550	1569	1522
2952	2.94275	-0.209246	-0.126781	0	0	0	0	1	-1	-0.00435307	1.02866	-0.0200079	0	0	0.60053	-1.5347	-0.584575	-0.491993	1508	1490	1538	1551	1570	1521
2962	2.70594	-0.107172	-0.116691	0	0	0	0	1	-1	-0.00446212	1.03068	-0.0216573	0	0	0.600817	-1.49985	-0.654018	-0.499832	1508	1491	1541	1552	1569	1520
2972	2.57559	-0.0440143	-0.109951	0	0	0	0	1	-1	-0.0045016	1.03173	-0.022569	0	0	0.601099	-1.48975	-0.702673	-0.509235	1508	1491	1542	1553	1569	1519
2982	2.39118	0.0531092	-0.0982164	0	0	0	0	1	-1	-0.00459529	1.03331	-0.023878	0	0	0.601423	-1.46705	-0.763206	-0.517253	1508	1492	1544	1554	1569	1517
2992	2.15863	0.188888	-0.0808495	0	0	0	0	1	-1	-0.00475489	1.03548	-0.0255811	0	0	0.601704	-1.43269	-0.835679	-0.523798	1507	1493	1546	1554	1568	1516
3002	1.98507	0.29335	-0.0661337	0	0	0	0	1	-1	-0.00494163	1.03729	-0.0268898	0	0	0.601946	-1.41102	-0.89442	-0.53148	1507	1494	1548	1555	1568	1514
3012	1.86836	0.362948	-0.0574656	0	0	0	0	1	-1	-0.00501744	1.03844	-0.0278466	0	0	0.602215	-1.4025	-0.93939	-0.539994	1507	1494	1549	1556	1568	1514
3022	1.70879	0.455201	-0.0458063	0	0	0	0	1	-1	-0.00515432	1.04017	-0.0292294	0	0	0.602425	-1.38469	-0.99199	-0.547515	1506	1495	1551	1557	1568	1512
3032	1.55686	0.535027	-0.0340303	0	0	0	0	1	-1	-0.00530875	1.04193	-0.0306518	0	0	0.602595	-1.36802	-1.03993	-0.555559	1506	1496	1552	1557	1568	1511
3042	1.36927	0.612602	-0.0194081	0	0	0	0	1	-1	-0.0055658	1.0443	-0.0325692	0	0	0.602491	-1.3426	-1.08845	-0.563888	1506	1496	1553	1557	1567	1510
3052	1.27077	0.639795	-0.0125093	0	0	0	0	1	-1	-0.0057496	1.04567	-0.0336303	0	0	0.6026	-1.33599	-1.11811	-0.573201	1505	1496	1554	1558	1567	1509
3062	1.13157	0.659948	-0.00657975	0	0	0	0	1	-1	-0.00595426	1.04751	-0.0352331	0	0	0.602614	-1.31994	-1.14768	-0.582261	1505	1496	1555	1558	1567	1508
3073	0.993923	0.659051	-0.00450063	0	0	0	0	1	-1	-0.0061783	1.04938	-0.0369031	0	0	0.602541	-1.30311	-1.17114	-0.591015	1505	1497	1556	1558	1566	1507
3083	0.852342	0.633876	-0.00572341	0	0	0	0	1	-1	-0.0064075	1.05129	-0.0386566	0	0	0.602443	-1.28407	-1.18785	-0.599678	1505	1497	1556	1558	1566	1507
3093	0.70536	0.58363	-0.010796	0	0	0	0	1	-1	-0.0067294	1.05333	-0.0404565	0	0	0.602332	-1.26198	-1.19742	-0.608058	1505	1497	1557	1557	1566	1506
3103	0.551366	0.511272	-0.0187445	0	0	0	0	1	-1	-0.00699197	1.05527	-0.0423732	0	0	0.602191	-1.23628	-1.20055	-0.615903	1506	1497	1557	1557	1565	1506
3113	0.300378	0.360493	-0.039329	0	0	0	0	1	-1	-0.00744464	1.05828	-0.0453901	0	0	0.601799	-1.18486	-1.18986	-0.623931	1506	1498	1557	1555	1564	1505
3123	0.155532	0.265716	-0.0538141	0	0	0	0	1	-1	-0.0076491	1.05986	-0.0470879	0	0	0.601807	-1.15609	-1.18194	-0.628121	1507	1499	1557	1555	1563	1505
3133	0.0222402	0.174273	-0.0697359	0	0	0	0	1	-1	-0.00782364	1.06124	-0.0486155	0	0	0.601817	-1.12698	-1.172	-0.630559	1508	1499	1557	1554	1563	1505
3143	-0.179359	0.033726	-0.0969515	0	0	0	0	1	-1	-0.00818582	1.06333	-0.0508076	0	0	0.60176	-1.0791	-1.15355	-0.631952	1509	1500	1557	1553	1562	1505
3153	-0.501115	-0.189884	-0.142252	0	0	0	0	1	-1	-0.00857843	1.06632	-0.0542773	0	0	0.60153	-1.0002	-1.12225	-0.63212	1510	1501	1557	1551	1560	1504
3163	-0.725939	-0.343133	-0.1766	0	0	0	0	1	-1	-0.0089405	1.0684	-0.0566014	0	0	0.601563	-0.941158	-1.09489	-0.627879	1511	1503	1557	1550	1559	1505
3173	-0.910322	-0.465633	-0.209387	0	0	0	0	1	-1	-0.00913292	1.07001	-0.058528	0	0	0.601702	-0.887079	-1.06792	-0.620359	1512	1504	1557	1549	1558	1505
3183	-1.07197	-0.573117	-0.239519	0	0	0	0	1	-1	-0.0092835	1.07143	-0.0602426	0	0	0.601863	-0.835502	-1.03958	-0.610808	1513	1505	1556	1548	1557	1505
3193	-1.36928	-0.768055	-0.29678	0	0	0	0	1	-1	-0.00962438	1.07408	-0.0634053	0	0	0.601975	-0.749536	-0.999218	-0.599364	1515	1507	1556	1547	1555	1506
3204	-1.63634	-0.939628	-0.355793	0	0	0	0	1	-1	-0.00991727	1.07648	-0.0663339	0	0	0.602215	-0.668864	-0.957105	-0.583907	1517	1509	1556	1546	1553	1507
3214	-1.84622	-1.07441	-0.405394	0	0	0	0	1	-1	-0.0102172	1.07847	-0.0687262	0	0	0.602501	-0.597804	-0.914535	-0.565884	1518	1511	1556	1545	1552	1507
3224	-2.00183	-1.1762	-0.444858	0	0	0	0	1	-1	-0.0103766	1.08003	-0.0706788	0	0	0.602842	-0.535304	-0.871648	-0.546143	1520	1513	1555	1544	1550	1508
3234	-2.1286	-1.26253	-0.479903	0	0	0	0	1	-1	-0.0105019	1.08138	-0.0723847	0	0	0.603159	-0.476136	-0.827232	-0.525038	1521	1515	1555	1543	1549	1510
3244	-2.29053	-1.38053	-0.529894	0	0	0	0	1	-1	-0.0107681	1.08327	-0.074729	0	0	0.603551	-0.407227	-0.775909	-0.502007	1523	1517	1554	1542	1548	1511
3254	-2.48514	-1.55027	-0.602702	0	0	0	0	1	-1	-0.0110039	1.08608	-0.0782985	0	0	0.603928	-0.331394	-0.711668	-0.476636	1525	1519	1553	1540	1546	1512
3264	-2.56294	-1.63814	-0.638529	0	0	0	0	1	-1	-0.0111855	1.08749	-0.0801208	0	0	0.604317	-0.279407	-0.653325	-0.451102	1527	1521	1552	1540	1545	1514
3274	-2.61384	-1.71421	-0.67007	0	0	0	0	1	-1	-0.0112732	1.08874	-0.08175	0	0	0.604724	-0.229663	-0.593545	-0.424794	1528	1523	1551	1539	1544	1516
3284	-2.65845	-1.82111	-0.712722	0	0	0	0	1	-1	-0.0114152	1.09049	-0.0840309	0	0	0.605114	-0.178735	-0.524978	-0.397703	1530	1524	1550	1538	1543	1517
3294	-2.6624	-1.9606	-0.760612	0	0	0	0	1	-1	-0.0115987	1.09266	-0.0869317	0	0	0.605495	-0.139891	-0.442776	-0.371092	1532	1526	1549	1537	1543	1520
3304	-2.61323	-2.09206	-0.799993	0	0	0	0	1	-1	-0.0117422	1.09458	-0.0895677	0	0	0.605875	-0.111913	-0.356452	-0.344733	1533	1527	1547	1536	1542	1522
3314	-2.53363	-2.20644	-0.822866	0	0	0	0	1	-1	-0.0118909	1.09606	-0.0916975	0	0	0.606214	-0.0884411	-0.27091	-0.319554	1535	1528	1545	1535	1542	1524
3324	-2.44694	-2.30228	-0.839822	0	0	0	0	1	-1	-0.0119505	1.09729	-0.0934446	0	0	0.606537	-0.063732	-0.189055	-0.294058	1536	1529	1544	1534	1541	1526
3334	-2.30961	-2.42773	-0.856937	0	0	0	0	1	-1	-0.0120177	1.09875	-0.0956044	0	0	0.606814	-0.0510549	-0.0955487	-0.270161	1538	1530	1542	1533	1541	1529
3345	-2.08665	-2.59711	-0.871114	0	0	0	0	1	-1	-0.0120833	1.10055	-0.0983768	0	0	0.607081	-0.0594761	0.0154913	-0.249386	1540	1530	1539	1531	1541	1532
3355	-1.94653	-2.69186	-0.87389	0	0	0	0	1	-1	-0.0121171	1.10144	-0.0998401	0	0	0.6074	-0.0461138	0.100451	-0.226242	1541	1530	1538	1531	1541	1534
3365	-1.72202	-2.83104	-0.872836	0	0	0	0	1	-1	-0.0121087	1.10278	-0.101978	0	0	0.60765	-0.0532513	0.202726	-0.206657	1543	1530	1535	1530	1542	1537
3375	-1.52545	-2.94168	-0.867688	0	0	0	0	1	-1	-0.0120791	1.10384	-0.103691	0	0	0.60799	-0.0531637	0.294341	-0.186455	1544	1531	1533	1529	1542	1539
3386	-1.12359	-3.1464	-0.845077	0	0	0	0	1	-1	-0.0120065	1.10565	-0.106844	0	0	0.608188	-0.103485	0.423851	-0.174906	1545	1530	1530	1528	1543	1543
3396	-0.833091	-3.27891	-0.82121	0	0	0	0	1	-1	-0.01192	1.10686	-0.108964	0	0	0.608424	-0.126094	0.524246	-0.160531	1547	1529	1528	1527	1544	1545
3406	-0.618487	-3.36911	-0.800964	0	0	0	0	1	-1	-0.0118462	1.1076	-0.110412	0	0	0.608685	-0.13195	0.606512	-0.144138	1548	1530	1526	1526	1544	1548
3416	-0.300915	-3.49017	-0.76535	0	0	0	0	1	-1	-0.0116973	1.10875	-0.112526	0	0	0.608968	-0.164959	0.702626	-0.132775	1549	1529	1524	1525	1545	1550
3426	0.129662	-3.62892	-0.7062	0	0	0	0	1	-1	-0.0114504	1.11017	-0.115247	0	0	0.609247	-0.223964	0.808969	-0.127038	1550	1528	1522	1525	1547	1553
3436	0.371258	-3.69362	-0.669348	0	0	0	0	1	-1	-0.0112978	1.11098	-0.116724	0	0	0.609521	-0.239439	0.87929	-0.115686	1551	1528	1520	1524	1548	1555
3446	0.724522	-3.77214	-0.608141	0	0	0	0	1	-1	-0.0110434	1.11207	-0.118808	0	0	0.609812	-0.285721	0.959239	-0.109972	1552	1527	1518	1524	1549	1557
3456	1.08617	-3.83279	-0.536362	0	0	0	0	1	-1	-0.0107449	1.11303	-0.120847	0	0	0.610117	-0.334669	1.03212	-0.106783	1553	1526	1517	1523	1551	1560
3466	1.57051	-3.88123	-0.4298	0	0	0	0	1	-1	-0.0103103	1.11439	-0.123529	0	0	0.610278	-0.414999	1.10748	-0.110244	1553	1524	1515	1523	1553	1562
3476	1.95489	-3.89254	-0.333989	0	0	0	0	1	-1	-0.00992941	1.11546	-0.125593	0	0	0.610584	-0.47346	1.16123	-0.112879	1554	1523	1514	1523	1555	1564
3486	2.22865	-3.8869	-0.261062	0	0	0	0	1	-1	-0.00964177	1.11624	-0.127045	0	0	0.610965	-0.511293	1.19832	-0.113597	1554	1522	1513	1524	1556	1565
3496	2.62745	-3.86055	-0.147948	0	0	0	0	1	-1	-0.00919862	1.11731	-0.129084	0	0	0.611243	-0.584258	1.23641	-0.121175	1554	1521	1512	1524	1558	1566
3506	3.032	-3.807	-0.0223803	0	0	0	0	1	-1	-0.00867321	1.11831	-0.131056	0	0	0.61165	-0.659563	1.26364	-0.132074	1554	1519	1511	1525	1560	1568
3517	3.44168	-3.73171	0.114564	0	0	0	0	1	-1	-0.00814124	1.11942	-0.133074	0	0	0.611835	-0.740385	1.2801	-0.146592	1554	1517	1511	1525	1562	1569
3527	4.0683	-3.57487	0.342357	0	0	0	0	1	-1	-0.00726183	1.12107	-0.136054	0	0	0.612105	-0.877074	1.28774	-0.173866	1553	1514	1510	1527	1566	1570
3537	4.40946	-3.47183	0.473966	0	0	0	0	1	-1	-0.00677751	1.12202	-0.137652	0	0	0.612395	-0.947388	1.27784	-0.194637	1553	1512	1511	1528	1568	1570
3547	4.70901	-3.37179	0.595283	0	0	0	0	1	-1	-0.00634693	1.12286	-0.13906	0	0	0.612608	-1.02227	1.26043	-0.217007	1552	1511	1511	1529	1570	1570
3557	5.13789	-3.2128	0.780251	0	0	0	0	1	-1	-0.00561734	1.12404	-0.141023	0	0	0.612755	-1.13316	1.23396	-0.248615	1551	1508	1511	1530	1573	1570
3567	5.56443	-3.03948	0.975319	0	0	0	0	1	-1	-0.00490601	1.12533	-0.143046	0	0	0.612889	-1.24417	1.19703	-0.284963	1549	1505	1512	1532	1576	1569
3577	6.19678	-2.76038	1.28277	0	0	0	0	1	-1	-0.00372572	1.1274	-0.146126	0	0	0.612763	-1.40909	1.14411	-0.336534	1547	1501	1513	1534	1580	1568
3587	6.6081	-2.56704	1.49492	0	0	0	0	1	-1	-0.00291121	1.12886	-0.14825	0	0	0.612699	-1.52304	1.08373	-0.384422	1545	1498	1514	1536	1584	1567
3597	6.92965	-2.40997	1.66819	0	0	0	0	1	-1	-0.00224423	1.1301	-0.149994	0	0	0.612684	-1.63204	1.01777	-0.432551	1544	1495	1515	1537	1586	1566
3607	7.31348	-2.21495	1.88849	0	0	0	0	1	-1	-0.00136167	1.13177	-0.152232	0	0	0.612442	-1.76423	0.942114	-0.488859	1541	1491	1517	1539	1590	1564
3617	7.67231	-2.02181	2.11017	0	0	0	0	1	-1	-0.000386586	1.13358	-0.154518	0	0	0.612229	-1.89248	0.857776	-0.549363	1539	1487	1518	1541	1593	1562
3627	7.90807	-1.88729	2.26536	0	0	0	0	1	-1	0.000264877	1.13487	-0.156214	0	0	0.612072	-1.99918	0.770531	-0.606874	1537	1484	1520	1543	1596	1560
3637	8.30172	-1.64217	2.5487	0	0	0	0	1	-1	0.00156092	1.13752	-0.159476	0	0	0.611465	-2.15069	0.664848	-0.679479	1534	1479	1522	1545	1600	1557
3647	8.60632	-1.41966	2.806	0	0	0	0	1	-1	0.00279637	1.14022	-0.162662	0	0	0.610834	-2.27719	0.548908	-0.75365	1531	1475	1524	1546	1603	1554
3658	8.81086	-1.23366	3.01392	0	0	0	0	1	-1	0.00385231	1.14258	-0.165446	0	0	0.610397	-2.38976	0.426529	-0.82624	1529	1471	1526	1548	1606	1551
3668	8.96701	-1.04652	3.21275	0	0	0	0	1	-1	0.00493558	1.14514	-0.168343	0	0	0.609996	-2.50011	0.294582	-0.899982	1526	1467	1529	1550	1609	1547
3678	9.05707	-0.892703	3.36518	0	0	0	0	1	-1	0.00584859	1.14741	-0.170706	0	0	0.609732	-2.6016	0.160573	-0.971315	1524	1464	1532	1552	1612	1544
3688	9.10924	-0.754671	3.49338	0	0	0	0	1	-1	0.00664666	1.14933	-0.172873	0	0	0.609477	-2.70227	0.023869	-1.04187	1521	1461	1535	1554	1614	1540
3698	9.13162	-0.494926	3.7159	0	0	0	0	1	-1	0.00816336	1.15332	-0.177009	0	0	0.608721	-2.79603	-0.148243	-1.11993	1518	1457	1539	1556	1617	1535
3708	9.06635	-0.249657	3.90101	0	0	0	0	1	-1	0.00957984	1.1573	-0.181007	0	0	0.608038	-2.86544	-0.327784	-1.19566	1514	1454	1542	1558	1618	1530
3718	8.97583	-0.0813619	4.01299	0	0	0	0	1	-1	0.0105416	1.16022	-0.183734	0	0	0.607705	-2.93819	-0.493108	-1.26712	1512	1452	1546	1561	1620	1526
3728	8.81233	0.135386	4.13271	0	0	0	0	1	-1	0.0117783	1.16386	-0.187289	0	0	0.607233	-3.00011	-0.677883	-1.33722	1509	1449	1550	1563	1622	1521
3738	8.66225	0.288804	4.20575	0	0	0	0	1	-1	0.0126525	1.16647	-0.189859	0	0	0.606928	-3.06835	-0.8468	-1.40515	1506	1447	1554	1565	1624	1517
3748	8.31322	0.572611	4.3167	0	0	0	0	1	-1	0.0142655	1.17177	-0.194752	0	0	0.605999	-3.08989	-1.06408	-1.47055	1502	1445	1559	1567	1624	1510
3758	7.91391	0.828889	4.38636	0	0	0	0	1	-1	0.0157947	1.1769	-0.199464	0	0	0.605258	-3.09801	-1.27758	-1.53169	1499	1444	1563	1569	1624	1504
3768	7.53034	1.03629	4.41225	0	0	0	0	1	-1	0.0171032	1.1814	-0.203525	0	0	0.604646	-3.11455	-1.47623	-1.58876	1496	1443	1568	1571	1624	1499
3778	7.1917	1.19779	4.4164	0	0	0	0	1	-1	0.0181051	1.18531	-0.206816	0	0	0.604215	-3.14542	-1.65824	-1.64467	1493	1441	1572	1573	1625	1494
3788	6.72683	1.3903	4.39345	0	0	0	0	1	-1	0.019397	1.19014	-0.211083	0	0	0.603635	-3.14543	-1.8558	-1.6934	1490	1440	1576	1575	1625	1489
3798	6.37858	1.51433	4.36066	0	0	0	0	1	-1	0.0203527	1.19351	-0.214155	0	0	0.603155	-3.17448	-2.02418	-1.74339	1487	1439	1580	1577	1625	1484
3809	5.56011	1.7469	4.23823	0	0	0	0	1	-1	0.0222845	1.20132	-0.220879	0	0	0.602032	-3.08698	-2.25218	-1.77138	1484	1440	1585	1578	1622	1478
3819	4.95804	1.86891	4.11588	0	0	0	0	1	-1	0.0236388	1.20664	-0.225569	0	0	0.601172	-3.05496	-2.42939	-1.80245	1482	1440	1588	1579	1621	1472
3829	4.312	1.96564	3.96045	0	0	0	0	1	-1	0.0248521	1.21235	-0.230341	0	0	0.600351	-3.0058	-2.59822	-1.82665	1479	1440	1592	1580	1619	1468
3839	3.76472	2.02225	3.81047	0	0	0	0	1	-1	0.025942	1.21675	-0.234322	0	0	0.599655	-2.97737	-2.74299	-1.85024	1477	1440	1595	1581	1618	1463
3849	3.0459	2.06456	3.58954	0	0	0	0	1	-1	0.0272818	1.22246	-0.239409	0	0	0.598818	-2.90101	-2.89155	-1.8602	1475	1442	1598	1582	1615	1459
3859	2.29037	2.07186	3.33522	0	0	0	0	1	-1	0.0286631	1.22827	-0.244657	0	0	0.597929	-2.81476	-3.02559	-1.8624	1473	1443	1600	1582	1612	1455
3869	1.33616	2.03121	2.98835	0	0	0	0	1	-1	0.0302753	1.2354	-0.251136	0	0	0.596833	-2.67459	-3.15417	-1.84792	1471	1446	1603	1582	1607	1450
3879	0.503963	1.95885	2.66384	0	0	0	0	1	-1	0.0314978	1.24159	-0.256607	0	0	0.596027	-2.56001	-3.25345	-1.83159	1470	1448	1605	1581	1604	1447
3889	-0.183614	1.87282	2.38287	0	0	0	0	1	-1	0.0326316	1.24635	-0.261131	0	0	0.595356	-2.46662	-3.32663	-1.81623	1469	1450	1606	1581	1600	1444
3899	-1.24869	1.69793	1.92121	0	0	0	0	1	-1	0.0343067	1.25365	-0.268037	0	0	0.594405	-2.26934	-3.39841	-1.77257	1469	1454	1607	1579	1594	1441
3909	-2.43458	1.4497	1.37664	0	0	0	0	1	-1	0.0361178	1.26156	-0.275649	0	0	0.593579	-2.04548	-3.44656	-1.71149	1470	1460	1608	1578	1588	1439
3919	-3.08506	1.28971	1.06331	0	0	0	0	1	-1	0.0371948	1.26573	-0.279835	0	0	0.593086	-1.93855	-3.45552	-1.67042	1470	1462	1608	1577	1584	1438
3929	-3.83699	1.08705	0.693124	0	0	0	0	1	-1	0.0382379	1.27065	-0.284605	0	0	0.592621	-1.77558	-3.45201	-1.61722	1471	1466	1608	1575	1579	1438
3939	-4.7766	0.805518	0.210552	0	0	0	0	1	-1	0.0397803	1.27664	-0.290678	0	0	0.592123	-1.56192	-3.43268	-1.54463	1472	1472	1607	1573	1573	1437
3950	-6.17413	0.328208	-0.544859	0	0	0	0	1	-1	0.0420738	1.28557	-0.299815	0	0	0.591567	-1.23734	-3.38755	-1.43306	1475	1480	1606	1569	1564	1437
3960	-6.81893	0.0833823	-0.910497	0	0	0	0	1	-1	0.0433005	1.28964	-0.304135	0	0	0.591336	-1.09055	-3.31395	-1.35396	1476	1484	1604	1567	1559	1439
3970	-7.54515	-0.212052	-1.33514	0	0	0	0	1	-1	0.0444517	1.29424	-0.308997	0	0	0.591134	-0.877464	-3.22347	-1.26239	1479	1490	1602	1564	1553	1440
3980	-8.59432	-0.683587	-1.98822	0	0	0	0	1	-1	0.0464356	1.30092	-0.31634	0	0	0.590963	-0.583136	-3.1036	-1.13902	1482	1498	1600	1560	1545	1443
3990	-9.65949	-1.2232	-2.7099	0	0	0	0	1	-1	0.048653	1.30797	-0.324203	0	0	0.591098	-0.289347	-2.94902	-0.998577	1486	1506	1597	1557	1537	1446
4000	-10.1996	-1.52855	-3.1015	0	0	0	0	1	-1	0.0499798	1.31167	-0.328417	0	0	0.591222	-0.101502	-2.78746	-0.882807	1489	1512	1593	1554	1531	1450
4010	-10.7871	-1.88607	-3.55067	0	0	0	0	1	-1	0.0514742	1.31577	-0.333167	0	0	0.591649	0.137973	-2.60596	-0.755402	1494	1519	1589	1550	1525	1455
4020	-11.4555	-2.34374	-4.10992	0	0	0	0	1	-1	0.0530984	1.32065	-0.338865	0	0	0.592305	0.399528	-2.39382	-0.610599	1499	1527	1585	1546	1518	1460
4030	-12.3223	-3.04619	-4.94026	0	0	0	0	1	-1	0.0560715	1.32791	-0.347285	0	0	0.593024	0.709861	-2.12493	-0.432134	1505	1537	1579	1541	1509	1467
4040	-12.664	-3.37984	-5.32252	0	0	0	0	1	-1	0.0572608	1.33096	-0.351014	0	0	0.593539	0.899222	-1.88065	-0.286913	1509	1544	1574	1538	1504	1474
4050	-13.0799	-3.8629	-5.8587	0	0	0	0	1	-1	0.0592108	1.33529	-0.356264	0	0	0.594243	1.15186	-1.5966	-0.122888	1515	1552	1568	1533	1497	1481
4060	-13.3453	-4.24965	-6.27662	0	0	0	0	1	-1	0.06083	1.33874	-0.360345	0	0	0.594979	1.36974	-1.31117	0.0360769	1521	1559	1561	1529	1491	1488
4070	-13.6689	-4.97143	-7.02979	0	0	0	0	1	-1	0.0636755	1.34452	-0.367549	0	0	0.59639	1.6114	-0.939502	0.228297	1528	1568	1553	1524	1485	1499
4080	-13.7552	-5.44506	-7.51202	0	0	0	0	1	-1	0.0656671	1.34816	-0.372091	0	0	0.597446	1.7888	-0.593714	0.404078	1534	1574	1546	1520	1480	1508
4090	-13.7349	-5.91098	-7.96828	0	0	0	0	1	-1	0.0676562	1.35167	-0.376402	0	0	0.598544	1.97381	-0.232238	0.580838	1540	1581	1538	1516	1475	1519
4101	-13.6845	-6.13925	-8.18821	0	0	0	0	1	-1	0.0685563	1.35314	-0.378428	0	0	0.599144	2.16869	0.081285	0.741989	1545	1588	1530	1512	1469	1527
4111	-13.3743	-6.79853	-8.80465	0	0	0	0	1	-1	0.0714227	1.35752	-0.384213	0	0	0.601037	2.31249	0.524037	0.933961	1553	1595	1521	1508	1465	1540
4121	-13.0202	-7.20627	-9.18275	0	0	0	0	1	-1	0.0733583	1.36038	-0.387764	0	0	0.602314	2.42554	0.916198	1.11094	1559	1601	1512	1504	1462	1551
4131	-12.6532	-7.52	-9.46642	0	0	0	0	1	-1	0.0749409	1.36258	-0.390445	0	0	0.603167	2.56217	1.28997	1.28196	1565	1606	1503	1500	1458	1561
4141	-12.2711	-7.77734	-9.68653	0	0	0	0	1	-1	0.0761414	1.36391	-0.392585	0	0	0.604318	2.70634	1.65294	1.44767	1571	1612	1495	1496	1454	1572
4151	-11.2662	-8.27057	-10.0983	0	0	0	0	1	-1	0.0787632	1.36679	-0.396784	0	0	0.606338	2.69815	2.12374	1.62169	1577	1615	1484	1493	1454	1586
4161	-10.4482	-8.55036	-10.322	0	0	0	0	1	-1	0.0804612	1.36863	-0.39927	0	0	0.608006	2.72387	2.5247	1.78203	1583	1619	1474	1490	1454	1598
4171	-9.51762	-8.79244	-10.4977	0	0	0	0	1	-1	0.0820877	1.37018	-0.401483	0	0	0.609308	2.73509	2.92194	1.93475	1588	1622	1465	1487	1453	1610
4181	-8.69543	-8.95695	-10.6029	0	0	0	0	1	-1	0.0833905	1.37134	-0.403095	0	0	0.61034	2.77422	3.28589	2.07963	1593	1625	1456	1484	1452	1621
4191	-7.57954	-9.12286	-10.6818	0	0	0	0	1	-1	0.0847827	1.37184	-0.404778	0	0	0.61178	2.74228	3.66803	2.21504	1598	1627	1447	1482	1452	1632
4201	-6.37603	-9.24305	-10.7097	0	0	0	0	1	-1	0.0862259	1.37272	-0.406299	0	0	0.613178	2.6853	4.03658	2.34038	1602	1628	1438	1480	1454	1644
4211	-4.81125	-9.3131	-10.6647	0	0	0	0	1	-1	0.0878941	1.37331	-0.407835	0	0	0.614634	2.53604	4.41056	2.44994	1605	1627	1429	1479	1457	1656
4221	-3.40727	-9.31727	-10.5588	0	0	0	0	1	-1	0.0892554	1.37362	-0.408887	0	0	0.615827	2.41881	4.74034	2.54741	1609	1626	1420	1478	1460	1666
4231	-2.66832	-9.29785	-10.4772	0	0	0	0	1	-1	0.0898683	1.37338	-0.409286	0	0	0.616665	2.45424	4.99702	2.64617	1612	1629	1414	1476	1459	1674
4242	-0.359731	-9.17089	-10.121	0	0	0	0	1	-1	0.0917266	1.37353	-0.410422	0	0	0.617996	2.09847	5.34499	2.69609	1614	1622	1405	1477	1468	1686
4252	1.26494	-9.01692	-9.78354	0	0	0	0	1	-1	0.0928736	1.37252	-0.410957	0	0	0.618592	1.91243	5.60367	2.74036	1615	1619	1398	1476	1473	1694
4262	2.95169	-8.81646	-9.36983	0	0	0	0	1	-1	0.0940461	1.37189	-0.411431	0	0	0.619343	1.6889	5.8358	2.76529	1616	1615	1392	1476	1478	1701
4272	4.69452	-8.57005	-8.86699	0	0	0	0	1	-1	0.095157	1.37103	-0.411804	0	0	0.619705	1.4377	6.03943	2.76783	1617	1609	1386	1477	1485	1707
4282	6.47308	-8.28013	-8.28077	0	0	0	0	1	-1	0.0962416	1.36995	-0.412124	0	0	0.620873	1.16448	6.21201	2.74793	1617	1603	1382	1478	1492	1714
4292	7.92683	-8.02065	-7.74484	0	0	0	0	1	-1	0.0971587	1.36854	-0.412262	0	0	0.621308	0.952083	6.34059	2.72171	1618	1598	1378	1479	1498	1718
4302	9.76345	-7.66517	-6.98791	0	0	0	0	1	-1	0.0982667	1.36714	-0.412432	0	0	0.621892	0.623881	6.45487	2.65586	1617	1590	1375	1480	1507	1722
4312	11.6188	-7.28725	-6.13405	0	0	0	0	1	-1	0.0994184	1.36561	-0.412605	0	0	0.621686	0.285867	6.53757	2.56245	1615	1581	1372	1482	1516	1725
4322	13.4797	-6.88169	-5.18923	0	0	0	0	1	-1	0.100586	1.36388	-0.412799	0	0	0.621913	-0.0719343	6.58484	2.44236	1614	1571	1371	1484	1526	1726
4332	15.7113	-6.36892	-3.93393	0	0	0	0	1	-1	0.102122	1.36166	-0.413088	0	0	0.62176	-0.536694	6.60489	2.26707	1611	1558	1370	1486	1539	1727
4342	17.5556	-5.92938	-2.78827	0	0	0	0	1	-1	0.103477	1.35985	-0.413424	0	0	0.621526	-0.91743	6.57504	2.08502	1608	1546	1371	1488	1551	1726
4352	19.9256	-5.34174	-1.17225	0	0	0	0	1	-1	0.105388	1.35728	-0.41398	0	0	0.621201	-1.46153	6.51825	1.82652	1605	1530	1372	1492	1566	1724
4362	21.1808	-5.02412	-0.245227	0	0	0	0	1	-1	0.106566	1.35586	-0.414352	0	0	0.620983	-1.74388	6.39822	1.6307	1602	1520	1376	1494	1575	1720
4372	22.5895	-4.65757	0.860991	0	0	0	0	1	-1	0.107859	1.3545	-0.41485	0	0	0.621336	-2.14736	6.25508	1.39964	1599	1508	1380	1497	1588	1716
4383	24.6283	-4.12552	2.60619	0	0	0	0	1	-1	0.110063	1.35263	-0.415671	0	0	0.62042	-2.70373	6.09354	1.073	1594	1490	1384	1501	1605	1711
4393	26.724	-3.5698	4.60159	0	0	0	0	1	-1	0.112659	1.3508	-0.416811	0	0	0.619698	-3.25039	5.89126	0.691903	1589	1471	1390	1504	1622	1703
4403	27.8079	-3.2714	5.71269	0	0	0	0	1	-1	0.114249	1.35008	-0.417463	0	0	0.619935	-3.58505	5.63145	0.398944	1586	1460	1398	1508	1634	1695
4413	29.2786	-2.86315	7.33985	0	0	0	0	1	-1	0.116528	1.34935	-0.418442	0	0	0.620406	-4.10978	5.35182	0.0281376	1582	1443	1407	1513	1652	1688
