Time 	ROLL_ID 	PITCH_ID 	YAW_ID 	DES_ROLL_ID 	DES_PITCH_ID 	DES_YAW_ID 	POS_X_ID 	POS_Y_ID 	POS_Z_ID 	DES_POS_X_ID 	DES_POS_Y_ID 	DES_POS_Z_ID 	FORCE_X_DES_ID 	FORCE_Y_DES_ID 	FORCE_Z_DES_ID 	TORQUE_ROLL_DES_ID 	TORQUE_PITCH_DES_ID 	TORQUE_YAW_DES_ID 	PWM1_ID 	PWM2_ID 	PWM3_ID 	PWM4_ID 	PWM5_ID 	PWM6_ID 	PWM7_ID 	PWM8_ID 	PWM9_ID 	PWM10_ID 	PWM11_ID 	PWM12_ID 		0	0.0	2	3	4	5	6	7	8	9	10	11	12	13	14	15	16	17	18	19	20	21	22	23	24	25	26	27	28	29
	74	0.062308527529239655	0.0	0.0	0.0	0.0	0.0	0.0	0.0	0.0	0.0	1.0	-1.0	13	14	15	16	17	18	19	20	21	22	23	24	25	26	27	28	29
	84	0.062351517379283905	0.01641862839460373	0.023492803797125816	0.0	0.0	0.0	-0.0026937187649309635	1.0032726526260376	-0.0013461851049214602	0.0	1.0	-1.0	13	14	15	16	17	18	19	20	21	22	23	24	25	26	27	28	29
	94	0.06240988150238991	0.016431652009487152	0.023524411022663116	0.0	0.0	0.0	-0.002691315021365881	1.003243088722229	-0.0013246936723589897	0.0	1.0	-1.0	13	14	15	16	17	18	19	20	21	22	23	24	25	26	27	28	29
	104	0.0624595582485199	0.016465039923787117	0.023498503491282463	0.0	0.0	0.0	-0.0027275551110506058	1.0032778978347778	-0.0013302298029884696	0.0	1.0	-1.0	13	14	15	16	17	18	19	20	21	22	23	24	25	26	27	28	29
	114	0.06243637204170227	0.01648426055908203	0.023601656779646873	0.0	0.0	0.0	-0.002730012172833085	1.003251314163208	-0.0013082282384857535	0.0	1.0	-1.0	13	14	15	16	17	18	19	20	21	22	23	24	25	26	27	28	29
	124	0.0625072717666626	0.016515731811523438	0.02360602840781212	0.0	0.0	0.0	-0.0027259537018835545	1.003219723701477	-0.0012860031565651298	0.0	1.0	-1.0	13	14	15	16	17	18	19	20	21	22	23	24	25	26	27	28	29
	134	0.06258103996515274	0.01662231981754303	0.023621845990419388	0.0	0.0	0.0	-0.0027242845389992	1.003191590309143	-0.0012649022974073887	0.0	1.0	-1.0	13	14	15	16	17	18	19	20	21	22	23	24	25	26	27	28	29
	144	0.06254733353853226	0.016651183366775513	0.023643163964152336	0.0	0.0	0.0	-0.00271837180480361	1.0031580924987793	-0.0012424224987626076	0.0	1.0	-1.0	13	14	15	16	17	18	19	20	21	22	23	24	25	26	27	28	29
	154	0.06260661035776138	0.016741599887609482	0.023605065420269966	0.0	0.0	0.0	-0.002764367498457432	1.0032005310058594	-0.0012487134663388133	0.0	1.0	-1.0	13	14	15	16	17	18	19	20	21	22	23	24	25	26	27	28	29
	164	0.06266114115715027	0.0167543925344944	0.023618580773472786	0.0	0.0	0.0	-0.0027609921526163816	1.003170132637024	-0.001227185595780611	0.0	1.0	-1.0	13	14	15	16	17	18	19	20	21	22	23	24	25	26	27	28	29
	174	0.06274140626192093	0.0167803056538105	0.023675482720136642	0.0	0.0	0.0	-0.0027507860213518143	1.0031349658966064	-0.001205514301545918	0.0	1.0	-1.0	13	14	15	16	17	18	19	20	21	22	23	24	25	26	27	28	29
	184	0.06282757222652435	0.016771094873547554	0.023720163851976395	0.0	0.0	0.0	-0.002754294779151678	1.0031111240386963	-0.0011846458073705435	0.0	1.0	-1.0	13	14	15	16	17	18	19	20	21	22	23	24	25	26	27	28	29
	194	0.06280633807182312	0.016759611666202545	0.02370700053870678	0.0	0.0	0.0	-0.0027445978485047817	1.003074049949646	-0.0011613331735134125	0.0	1.0	-1.0	13	14	15	16	17	18	19	20	21	22	23	24	25	26	27	28	29
	204	0.06280782073736191	0.016772370785474777	0.023696323856711388	0.0	0.0	0.0	-0.0027512770611792803	1.0030529499053955	-0.001140575623139739	0.0	1.0	-1.0	13	14	15	16	17	18	19	20	21	22	23	24	25	26	27	28	29
	215	0.06285877525806427	0.01679864525794983	0.02372085116803646	0.0	0.0	0.0	-0.002783610485494137	1.0030817985534668	-0.001144160283729434	0.0	1.0	-1.0	13	14	15	16	17	18	19	20	21	22	23	24	25	26	27	28	29
	225	0.060338132083415985	0.01682184636592865	0.023777363821864128	0.0	0.0	0.0	-0.0027790009044110775	1.0030514001846313	-0.001122784917242825	0.0	1.0	-1.0	13	14	15	16	17	18	19	20	21	22	23	24	25	26	27	28	29
	235	0.060333434492349625	0.01687319576740265	0.0237960796803236	0.0	0.0	0.0	-0.002769974758848548	1.0029910802841187	-0.0010822095209732652	0.0	1.0	-1.0	13	14	15	16	17	18	19	20	21	22	23	24	25	26	27	28	29
	245	0.0603344701230526	0.016903754323720932	0.023807678371667862	0.0	0.0	0.0	-0.002763357711955905	1.0029176473617554	-0.00103077944368124	0.0	1.0	-1.0	13	14	15	16	17	18	19	20	21	22	23	24	25	26	27	28	29
	255	0.06033877655863762	0.016930600628256798	0.023851146921515465	0.0	0.0	0.0	-0.0028000264428555965	1.002916693687439	-0.0010105590336024761	0.0	1.0	-1.0	13	14	15	16	17	18	19	20	21	22	23	24	25	26	27	28	29
	265	0.06028928607702255	0.016916610300540924	0.02391529083251953	0.0	0.0	0.0	-0.002805042080581188	1.002846121788025	-0.0009547893423587084	0.0	1.0	-1.0	13	14	15	16	17	18	19	20	21	22	23	24	25	26	27	28	29
	275	0.06024523824453354	0.016946202144026756	0.02394855208694935	0.0	0.0	0.0	-0.002796658081933856	1.0027709007263184	-0.0009027900523506105	0.0	1.0	-1.0	13	14	15	16	17	18	19	20	21	22	23	24	25	26	27	28	29
	285	0.06031792610883713	0.01699436455965042	0.023970557376742363	0.0	0.0	0.0	-0.002790830796584487	1.0026990175247192	-0.0008519009570591152	0.0	1.0	-1.0	13	14	15	16	17	18	19	20	21	22	23	24	25	26	27	28	29
	295	0.060384396463632584	0.016971353441476822	0.023925531655550003	0.0	0.0	0.0	-0.0028014383278787136	1.002627968788147	-0.0007927973638288677	0.0	1.0	-1.0	13	14	15	16	17	18	19	20	21	22	23	24	25	26	27	28	29
	305	0.06042773649096489	0.016999687999486923	0.023924076929688454	0.0	0.0	0.0	-0.0027937134727835655	1.0025516748428345	-0.0007394872372969985	0.0	1.0	-1.0	13	14	15	16	17	18	19	20	21	22	23	24	25	26	27	28	29
	315	0.06052056699991226	0.016977712512016296	0.023931948468089104	0.0	0.0	0.0	-0.0028263316489756107	1.0025502443313599	-0.0007210608455352485	0.0	1.0	-1.0	13	14	15	16	17	18	19	20	21	22	23	24	25	26	27	28	29
	325	0.06055353581905365	0.017026495188474655	0.024022618308663368	0.0	0.0	0.0	-0.0028214307967573404	1.0024774074554443	-0.000668826571200043	0.0	1.0	-1.0	13	14	15	16	17	18	19	20	21	22	23	24	25	26	27	28	29
	335	0.06059819087386131	0.017030833289027214	0.024053305387496948	0.0	0.0	0.0	-0.0028189504519104958	1.0024080276489258	-0.0006177261820994318	0.0	1.0	-1.0	13	14	15	16	17	18	19	20	21	22	23	24	25	26	27	28	29
	345	0.06062261760234833	0.017033467069268227	0.02412603050470352	0.0	0.0	0.0	-0.0028119185008108616	1.0023345947265625	-0.0005660306196659803	0.0	1.0	-1.0	13	14	15	16	17	18	19	20	21	22	23	24	25	26	27	28	29
	356	0.06060773879289627	0.017027368769049644	0.024117397144436836	0.0	0.0	0.0	-0.002821429865434766	1.0022634267807007	-0.000507273362018168	0.0	1.0	-1.0	13	14	15	16	17	18	19	20	21	22	23	24	25	26	27	28	29
	366	0.06066153943538666	0.01704351231455803	0.024135155603289604	0.0	0.0	0.0	-0.0028543940279632807	1.0022615194320679	-0.0004885084345005453	0.0	1.0	-1.0	13	14	15	16	17	18	19	20	21	22	23	24	25	26	27	28	29
	376	0.060632817447185516	0.01704309694468975	0.02414076216518879	0.0	0.0	0.0	-0.0028524226509034634	1.0021944046020508	-0.00043879085569642484	0.0	1.0	-1.0	13	14	15	16	17	18	19	20	21	22	23	24	25	26	27	28	29
	386	0.06063555181026459	0.017057934775948524	0.024196196347475052	0.0	0.0	0.0	-0.0028599919751286507	1.0021225214004517	-0.0003804576408583671	0.0	1.0	-1.0	13	14	15	16	17	18	19	20	21	22	23	24	25	26	27	28	29
	396	0.060585230588912964	0.017106132581830025	0.02423068881034851	0.0	0.0	0.0	-0.0028559232596307993	1.0020549297332764	-0.00033119283034466207	0.0	1.0	-1.0	13	14	15	16	17	18	19	20	21	22	23	24	25	26	27	28	29
	406	0.0605793371796608	0.017067350447177887	0.02429974637925625	0.0	0.0	0.0	-0.0028474386781454086	1.001983642578125	-0.00028157178894616663	0.0	1.0	-1.0	13	14	15	16	17	18	19	20	21	22	23	24	25	26	27	28	29
	416	0.060615673661231995	0.017023034393787384	0.02432321384549141	0.0	0.0	0.0	-0.0028806827031075954	1.0019813776016235	-0.0002625112538225949	0.0	1.0	-1.0	13	14	15	16	17	18	19	20	21	22	23	24	25	26	27	28	29
	426	0.060644377022981644	0.017052551731467247	0.024411305785179138	0.0	0.0	0.0	-0.0028890231624245644	1.0019121170043945	-0.00020563391444738954	0.0	1.0	-1.0	13	14	15	16	17	18	19	20	21	22	23	24	25	26	27	28	29
	436	0.06065509468317032	0.01704041101038456	0.024523071944713593	0.0	0.0	0.0	-0.0028854147531092167	1.0018470287322998	-0.00015777620137669146	0.0	1.0	-1.0	13	14	15	16	17	18	19	20	21	22	23	24	25	26	27	28	29
	446	0.06065422669053078	0.01710483245551586	0.024554066359996796	0.0	0.0	0.0	-0.002863060450181365	1.0017797946929932	-0.00011810174328275025	0.0	1.0	-1.0	13	14	15	16	17	18	19	20	21	22	23	24	25	26	27	28	29
	456	0.06069428101181984	0.017116427421569824	0.024603551253676414	0.0	0.0	0.0	-0.002910605166107416	1.001775860786438	-9.031195804709569e-05	0.0	1.0	-1.0	13	14	15	16	17	18	19	20	21	22	23	24	25	26	27	28	29
	466	0.060721367597579956	0.017174622043967247	0.02464485727250576	0.0	0.0	0.0	-0.0029048656579107046	1.001710295677185	-4.301881563151255e-05	0.0	1.0	-1.0	13	14	15	16	17	18	19	20	21	22	23	24	25	26	27	28	29
	476	0.060769375413656235	0.017205093055963516	0.024732202291488647	0.0	0.0	0.0	-0.002925601089373231	1.0016456842422485	1.7432857930543832e-05	0.0	1.0	-1.0	13	14	15	16	17	18	19	20	21	22	23	24	25	26	27	28	29
	486	0.060820601880550385	0.017200367525219917	0.02484438382089138	0.0	0.0	0.0	-0.0029081774409860373	1.0015809535980225	5.8223587984684855e-05	0.0	1.0	-1.0	13	14	15	16	17	18	19	20	21	22	23	24	25	26	27	28	29
	496	0.06080614775419235	0.01720386929810047	0.024865878745913506	0.0	0.0	0.0	-0.0028887197840958834	1.001520037651062	9.526993380859494e-05	0.0	1.0	-1.0	13	14	15	16	17	18	19	20	21	22	23	24	25	26	27	28	29
	507	0.06083466857671738	0.01723182387650013	0.024897219613194466	0.0	0.0	0.0	-0.0029365955851972103	1.00151526927948	0.0001236106618307531	0.0	1.0	-1.0	13	14	15	16	17	18	19	20	21	22	23	24	25	26	27	28	29
	517	0.06084945425391197	0.017284439876675606	0.024952908977866173	0.0	0.0	0.0	-0.0029023142997175455	1.001395583152771	0.00019887089729309082	0.0	1.0	-1.0	13	14	15	16	17	18	19	20	21	22	23	24	25	26	27	28	29
	527	0.06088618189096451	0.017298655584454536	0.024964777752757072	0.0	0.0	0.0	-0.0029262248426675797	1.0013929605484009	0.00021324839326553047	0.0	1.0	-1.0	13	14	15	16	17	18	19	20	21	22	23	24	25	26	27	28	29
	537	0.06101902946829796	0.017273742705583572	0.024968739598989487	0.0	0.0	0.0	-0.0029211854562163353	1.0013333559036255	0.00025719121913425624	0.0	1.0	-1.0	13	14	15	16	17	18	19	20	21	22	23	24	25	26	27	28	29
	547	0.06105294078588486	0.017291326075792313	0.024956678971648216	0.0	0.0	0.0	-0.0029356342274695635	1.0012688636779785	0.000315085198963061	0.0	1.0	-1.0	13	14	15	16	17	18	19	20	21	22	23	24	25	26	27	28	29
	557	0.06106896698474884	0.017312340438365936	0.024961790069937706	0.0	0.0	0.0	-0.0029190771747380495	1.0012109279632568	0.0003520432801451534	0.0	1.0	-1.0	13	14	15	16	17	18	19	20	21	22	23	24	25	26	27	28	29
	567	0.0610906258225441	0.017353646457195282	0.024968069046735764	0.0	0.0	0.0	-0.002952753799036145	1.0012071132659912	0.0003723076079040766	0.0	1.0	-1.0	13	14	15	16	17	18	19	20	21	22	23	24	25	26	27	28	29
	577	0.06118185445666313	0.017371922731399536	0.02503545582294464	0.0	0.0	0.0	-0.0029413998126983643	1.0011460781097412	0.00041433863225392997	0.0	1.0	-1.0	13	14	15	16	17	18	19	20	21	22	23	24	25	26	27	28	29
	587	0.06118205189704895	0.01740504615008831	0.02507827989757061	0.0	0.0	0.0	-0.0029468671418726444	1.0010863542556763	0.00046449110959656537	0.0	1.0	-1.0	13	14	15	16	17	18	19	20	21	22	23	24	25	26	27	28	29
	597	0.06125137582421303	0.01738905720412731	0.025081727653741837	0.0	0.0	0.0	-0.002950124442577362	1.0010302066802979	0.0005110538331791759	0.0	1.0	-1.0	13	14	15	16	17	18	19	20	21	22	23	24	25	26	27	28	29
	607	0.06129322201013565	0.01737108826637268	0.025129416957497597	0.0	0.0	0.0	-0.0029297240544110537	1.0009742975234985	0.0005453150952234864	0.0	1.0	-1.0	13	14	15	16	17	18	19	20	21	22	23	24	25	26	27	28	29
	617	0.061370883136987686	0.017335856333374977	0.0251334048807621	0.0	0.0	0.0	-0.002963312668725848	1.000970721244812	0.0005657687433995306	0.0	1.0	-1.0	13	14	15	16	17	18	19	20	21	22	23	24	25	26	27	28	29
	627	0.06145670637488365	0.017323723062872887	0.025153979659080505	0.0	0.0	0.0	-0.0029552660416811705	1.0009167194366455	0.0006053493707440794	0.0	1.0	-1.0	13	14	15	16	17	18	19	20	21	22	23	24	25	26	27	28	29
	637	0.06155269593000412	0.017395319417119026	0.02509860321879387	0.0	0.0	0.0	-0.0029668891802430153	1.0008585453033447	0.0006588626420125365	0.0	1.0	-1.0	13	14	15	16	17	18	19	20	21	22	23	24	25	26	27	28	29
	648	0.061639342457056046	0.017427746206521988	0.025100579485297203	0.0	0.0	0.0	-0.0029475349001586437	1.0008066892623901	0.0006912446115165949	0.0	1.0	-1.0	13	14	15	16	17	18	19	20	21	22	23	24	25	26	27	28	29
	658	0.061672393232584	0.017420463263988495	0.025119423866271973	0.0	0.0	0.0	-0.0029335638973861933	1.000752568244934	0.0007286134641617537	0.0	1.0	-1.0	13	14	15	16	17	18	19	20	21	22	23	24	25	26	27	28	29
	668	0.061647314578294754	0.01737639307975769	0.02509964630007744	0.0	0.0	0.0	-0.002981432480737567	1.0007472038269043	0.0007582346443086863	0.0	1.0	-1.0	13	14	15	16	17	18	19	20	21	22	23	24	25	26	27	28	29
	678	0.06168530508875847	0.01737052947282791	0.02509879879653454	0.0	0.0	0.0	-0.002970091300085187	1.0006955862045288	0.0007950779981911182	0.0	1.0	-1.0	13	14	15	16	17	18	19	20	21	22	23	24	25	26	27	28	29
	688	0.06173691898584366	0.01735612004995346	0.025189494714140892	0.0	0.0	0.0	-0.0029709262307733297	1.0006455183029175	0.0008374627213925123	0.0	1.0	-1.0	13	14	15	16	17	18	19	20	21	22	23	24	25	26	27	28	29
	698	0.06182447820901871	0.01735321246087551	0.025221383199095726	0.0	0.0	0.0	-0.002957961056381464	1.000595211982727	0.0008727972162887454	0.0	1.0	-1.0	13	14	15	16	17	18	19	20	21	22	23	24	25	26	27	28	29
	708	0.06183743104338646	0.01737133041024208	0.02515385113656521	0.0	0.0	0.0	-0.002947660395875573	1.0005474090576172	0.0009076411952264607	0.0	1.0	-1.0	13	14	15	16	17	18	19	20	21	22	23	24	25	26	27	28	29
	718	0.061862532049417496	0.017419951036572456	0.025207307189702988	0.0	0.0	0.0	-0.0029400598723441362	1.0005022287368774	0.0009420622372999787	0.0	1.0	-1.0	13	14	15	16	17	18	19	20	21	22	23	24	25	26	27	28	29
	728	0.06189507246017456	0.017511889338493347	0.025218263268470764	0.0	0.0	0.0	-0.002987898187711835	1.000496745109558	0.0009717563516460359	0.0	1.0	-1.0	13	14	15	16	17	18	19	20	21	22	23	24	25	26	27	28	29
	738	0.06200849264860153	0.017502903938293457	0.025208748877048492	0.0	0.0	0.0	-0.0029662244487553835	1.0004513263702393	0.0009989741956815124	0.0	1.0	-1.0	13	14	15	16	17	18	19	20	21	22	23	24	25	26	27	28	29
	748	0.06218164786696434	0.017474522814154625	0.02524765394628048	0.0	0.0	0.0	-0.002942614955827594	1.0004091262817383	0.0010228127939626575	0.0	1.0	-1.0	13	14	15	16	17	18	19	20	21	22	23	24	25	26	27	28	29
	758	0.06220603361725807	0.01750052720308304	0.025280047208070755	0.0	0.0	0.0	-0.002959796227514744	1.0003647804260254	0.0010700712446123362	0.0	1.0	-1.0	13	14	15	16	17	18	19	20	21	22	23	24	25	26	27	28	29
	768	0.0623391829431057	0.01755739562213421	0.025297611951828003	0.0	0.0	0.0	-0.0029981001280248165	1.0003604888916016	0.0010938344057649374	0.0	1.0	-1.0	13	14	15	16	17	18	19	20	21	22	23	24	25	26	27	28	29
	778	0.06240895390510559	0.017590131610631943	0.02539496310055256	0.0	0.0	0.0	-0.0029867319390177727	1.000317931175232	0.0011251068208366632	0.0	1.0	-1.0	13	14	15	16	17	18	19	20	21	22	23	24	25	26	27	28	29
	789	0.062481191009283066	0.01763485185801983	0.025452198460698128	0.0	0.0	0.0	-0.00297830649651587	1.000278115272522	0.001156146521680057	0.0	1.0	-1.0	13	14	15	16	17	18	19	20	21	22	23	24	25	26	27	28	29
	799	0.06255070865154266	0.017636384814977646	0.025499828159809113	0.0	0.0	0.0	-0.0029655632097274065	1.0002374649047852	0.0011857865611091256	0.0	1.0	-1.0	13	14	15	16	17	18	19	20	21	22	23	24	25	26	27	28	29
	809	0.062632717192173	0.017581021413207054	0.025593653321266174	0.0	0.0	0.0	-0.002979479031637311	1.0001968145370483	0.0012303278781473637	0.0	1.0	-1.0	13	14	15	16	17	18	19	20	21	22	23	24	25	26	27	28	29
	819	0.06273110955953598	0.017591387033462524	0.02562902309000492	0.0	0.0	0.0	-0.0029557941015809774	1.0001587867736816	0.0012523663463070989	0.0	1.0	-1.0	13	14	15	16	17	18	19	20	21	22	23	24	25	26	27	28	29
	829	0.06284686923027039	0.017635248601436615	0.02559625171124935	0.0	0.0	0.0	-0.0029894227627664804	1.0001555681228638	0.0012733828043565154	0.0	1.0	-1.0	13	14	15	16	17	18	19	20	21	22	23	24	25	26	27	28	29
	839	0.06297795474529266	0.017620066180825233	0.025650735944509506	0.0	0.0	0.0	-0.0029780275654047728	1.0001188516616821	0.001301347161643207	0.0	1.0	-1.0	13	14	15	16	17	18	19	20	21	22	23	24	25	26	27	28	29
	849	0.06308592110872269	0.01768275909125805	0.025640420615673065	0.0	0.0	0.0	-0.00296274246647954	1.0000816583633423	0.0013279691338539124	0.0	1.0	-1.0	13	14	15	16	17	18	19	20	21	22	23	24	25	26	27	28	29
	859	0.06315203756093979	0.017710832878947258	0.025654690340161324	0.0	0.0	0.0	-0.0029644188471138477	1.0000450611114502	0.0013636680087074637	0.0	1.0	-1.0	13	14	15	16	17	18	19	20	21	22	23	24	25	26	27	28	29
	869	0.06323979794979095	0.01771830953657627	0.025679295882582664	0.0	0.0	0.0	-0.0029480645898729563	1.000009536743164	0.001388997188769281	0.0	1.0	-1.0	13	14	15	16	17	18	19	20	21	22	23	24	25	26	27	28	29
	879	0.06331653147935867	0.01766221784055233	0.025693312287330627	0.0	0.0	0.0	-0.002934517338871956	0.9999760985374451	0.00141444755718112	0.0	1.0	-1.0	13	14	15	16	17	18	19	20	21	22	23	24	25	26	27	28	29
	889	0.06340163946151733	0.017641514539718628	0.025717606768012047	0.0	0.0	0.0	-0.0029679539147764444	0.9999731183052063	0.0014358863700181246	0.0	1.0	-1.0	13	14	15	16	17	18	19	20	21	22	23	24	25	26	27	28	29
	899	0.06344956904649734	0.017634103074669838	0.025766370818018913	0.0	0.0	0.0	-0.002957255346700549	0.9999420046806335	0.0014612168306484818	0.0	1.0	-1.0	13	14	15	16	17	18	19	20	21	22	23	24	25	26	27	28	29
	909	0.06360061466693878	0.01764531433582306	0.025775182992219925	0.0	0.0	0.0	-0.0029426170513033867	0.9999103546142578	0.0014849514700472355	0.0	1.0	-1.0	13	14	15	16	17	18	19	20	21	22	23	24	25	26	27	28	29
	920	0.06367483735084534	0.017613636329770088	0.02576432377099991	0.0	0.0	0.0	-0.002945065265521407	0.9998796582221985	0.0015178662724792957	0.0	1.0	-1.0	13	14	15	16	17	18	19	20	21	22	23	24	25	26	27	28	29
	930	0.06373569369316101	0.017635643482208252	0.02574574388563633	0.0	0.0	0.0	-0.0029454869218170643	0.9998514652252197	0.0015478249406442046	0.0	1.0	-1.0	13	14	15	16	17	18	19	20	21	22	23	24	25	26	27	28	29
	940	0.06382042914628983	0.017699724063277245	0.025733767077326775	0.0	0.0	0.0	-0.002932323608547449	0.9998236894607544	0.0015700310468673706	0.0	1.0	-1.0	13	14	15	16	17	18	19	20	21	22	23	24	25	26	27	28	29
	950	0.06386539340019226	0.0177061278373003	0.025751395151019096	0.0	0.0	0.0	-0.0029707131907343864	0.9998210072517395	0.0015944646438583732	0.0	1.0	-1.0	13	14	15	16	17	18	19	20	21	22	23	24	25	26	27	28	29
	960	0.06388473510742188	0.01772180199623108	0.02576594613492489	0.0	0.0	0.0	-0.002945826854556799	0.9997961521148682	0.0016075394814833999	0.0	1.0	-1.0	13	14	15	16	17	18	19	20	21	22	23	24	25	26	27	28	29
	970	0.06401558965444565	0.01775292493402958	0.025800025090575218	0.0	0.0	0.0	-0.002938118064776063	0.999772310256958	0.001629844424314797	0.0	1.0	-1.0	13	14	15	16	17	18	19	20	21	22	23	24	25	26	27	28	29
	980	0.06406127661466599	0.017810167744755745	0.025810692459344864	0.0	0.0	0.0	-0.0029861864168196917	0.999769389629364	0.0016602620016783476	0.0	1.0	-1.0	13	14	15	16	17	18	19	20	21	22	23	24	25	26	27	28	29
	990	0.06407370418310165	0.017791446298360825	0.025875266641378403	0.0	0.0	0.0	-0.00298846117220819	0.9997444152832031	0.0016897915629670024	0.0	1.0	-1.0	13	14	15	16	17	18	19	20	21	22	23	24	25	26	27	28	29
	1000	0.06418159604072571	0.017792245373129845	0.025907116010785103	0.0	0.0	0.0	-0.0029790361877530813	0.9997223019599915	0.0017102392157539725	0.0	1.0	-1.0	13	14	15	16	17	18	19	20	21	22	23	24	25	26	27	28	29
	1010	0.06425172835588455	0.01779933273792267	0.02599197067320347	0.0	0.0	0.0	-0.0029720868915319443	0.9997019171714783	0.001730654970742762	0.0	1.0	-1.0	13	14	15	16	17	18	19	20	21	22	23	24	25	26	27	28	29
	1020	0.06425853818655014	0.01785743422806263	0.02606220543384552	0.0	0.0	0.0	-0.0029608735349029303	0.999681293964386	0.0017492878250777721	0.0	1.0	-1.0	13	14	15	16	17	18	19	20	21	22	23	24	25	26	27	28	29
	1030	0.06432204693555832	0.017779706045985222	0.026131799444556236	0.0	0.0	0.0	-0.0029620020650327206	0.9996620416641235	0.001774210948497057	0.0	1.0	-1.0	13	14	15	16	17	18	19	20	21	22	23	24	25	26	27	28	29
	1040	0.06440625339746475	0.01781376823782921	0.02615988440811634	0.0	0.0	0.0	-0.0030005848966538906	0.9996606707572937	0.0017982989083975554	0.0	1.0	-1.0	13	14	15	16	17	18	19	20	21	22	23	24	25	26	27	28	29
	1050	0.06443007290363312	0.0178462453186512	0.026111122220754623	0.0	0.0	0.0	-0.0029802233912050724	0.9996440410614014	0.0018082208698615432	0.0	1.0	-1.0	13	14	15	16	17	18	19	20	21	22	23	24	25	26	27	28	29
	1061	0.06441714614629745	0.01784052886068821	0.026145489886403084	0.0	0.0	0.0	-0.002984265796840191	0.9996259808540344	0.0018344551790505648	0.0	1.0	-1.0	13	14	15	16	17	18	19	20	21	22	23	24	25	26	27	28	29
	1071	0.06449617445468903	0.017878711223602295	0.026276104152202606	0.0	0.0	0.0	-0.002976536052301526	0.9996100664138794	0.0018518305150792003	0.0	1.0	-1.0	13	14	15	16	17	18	19	20	21	22	23	24	25	26	27	28	29
	1081	0.06454620510339737	0.01791328936815262	0.02631327696144581	0.0	0.0	0.0	-0.002980925142765045	0.9995954632759094	0.0018754363991320133	0.0	1.0	-1.0	13	14	15	16	17	18	19	20	21	22	23	24	25	26	27	28	29
	1091	0.06463980674743652	0.017938820645213127	0.026351915672421455	0.0	0.0	0.0	-0.0029710442759096622	0.9995808601379395	0.0018908684141933918	0.0	1.0	-1.0	13	14	15	16	17	18	19	20	21	22	23	24	25	26	27	28	29
	1101	0.06473730504512787	0.017892301082611084	0.026387734338641167	0.0	0.0	0.0	-0.003019477240741253	0.9995805621147156	0.001920893439091742	0.0	1.0	-1.0	13	14	15	16	17	18	19	20	21	22	23	24	25	26	27	28	29
	1111	0.0648253858089447	0.01790090650320053	0.026442740112543106	0.0	0.0	0.0	-0.0030120916198939085	0.9995677471160889	0.0019366518827155232	0.0	1.0	-1.0	13	14	15	16	17	18	19	20	21	22	23	24	25	26	27	28	29
	1121	0.06495209038257599	0.017926977947354317	0.026499293744564056	0.0	0.0	0.0	-0.0029905352275818586	0.9995545744895935	0.0019444965291768312	0.0	1.0	-1.0	13	14	15	16	17	18	19	20	21	22	23	24	25	26	27	28	29
	1131	0.06493983417749405	0.017978454008698463	0.026504112407565117	0.0	0.0	0.0	-0.0029813144356012344	0.9995430707931519	0.0019587939605116844	0.0	1.0	-1.0	13	14	15	16	17	18	19	20	21	22	23	24	25	26	27	28	29
	1141	0.06504718959331512	0.017969682812690735	0.026538029313087463	0.0	0.0	0.0	-0.003029637038707733	0.9995436668395996	0.001988920383155346	0.0	1.0	-1.0	13	14	15	16	17	18	19	20	21	22	23	24	25	26	27	28	29
	1151	0.06510850042104721	0.01796993613243103	0.02646472491323948	0.0	0.0	0.0	-0.003032516222447157	0.9995341300964355	0.0020095070358365774	0.0	1.0	-1.0	13	14	15	16	17	18	19	20	21	22	23	24	25	26	27	28	29
	1161	0.06519772112369537	0.01800883188843727	0.026477675884962082	0.0	0.0	0.0	-0.003020929405465722	0.9995239973068237	0.002021901309490204	0.0	1.0	-1.0	13	14	15	16	17	18	19	20	21	22	23	24	25	26	27	28	29
	1171	0.0653151422739029	0.018040284514427185	0.026487862691283226	0.0	0.0	0.0	-0.003012140281498432	0.9995153546333313	0.0020346518140286207	0.0	1.0	-1.0	13	14	15	16	17	18	19	20	21	22	23	24	25	26	27	28	29
	1181	0.06538328528404236	0.01798277162015438	0.0265108160674572	0.0	0.0	0.0	-0.0029963692650198936	0.9995079636573792	0.002041861182078719	0.0	1.0	-1.0	13	14	15	16	17	18	19	20	21	22	23	24	25	26	27	28	29
	1192	0.06548123806715012	0.017995210364460945	0.026558950543403625	0.0	0.0	0.0	-0.003044641576707363	0.9995096325874329	0.0020717184524983168	0.0	1.0	-1.0	13	14	15	16	17	18	19	20	21	22	23	24	25	26	27	28	29
	1202	0.0656176432967186	0.018042033538222313	0.026595434173941612	0.0	0.0	0.0	-0.0030433470383286476	0.9995027780532837	0.0020886282436549664	0.0	1.0	-1.0	13	14	15	16	17	18	19	20	21	22	23	24	25	26	27	28	29
	1212	0.06565947085618973	0.018100200220942497	0.02659149467945099	0.0	0.0	0.0	-0.003035117406398058	0.9994968175888062	0.0020999808330088854	0.0	1.0	-1.0	13	14	15	16	17	18	19	20	21	22	23	24	25	26	27	28	29
	1222	0.06568851321935654	0.01806752383708954	0.026594581082463264	0.0	0.0	0.0	-0.0030054713133722544	0.9994910955429077	0.00209686323069036	0.0	1.0	-1.0	13	14	15	16	17	18	19	20	21	22	23	24	25	26	27	28	29
	1232	0.06584836542606354	0.018051113933324814	0.026596445590257645	0.0	0.0	0.0	-0.003029600018635392	0.9994924068450928	0.00211153831332922	0.0	1.0	-1.0	13	14	15	16	17	18	19	20	21	22	23	24	25	26	27	28	29
	1242	0.06588151305913925	0.018045952543616295	0.026620374992489815	0.0	0.0	0.0	-0.0030432851053774357	0.9994890093803406	0.002135535702109337	0.0	1.0	-1.0	13	14	15	16	17	18	19	20	21	22	23	24	25	26	27	28	29
	1252	0.06601186096668243	0.01812089793384075	0.026646770536899567	0.0	0.0	0.0	-0.0030599001329392195	0.9994872808456421	0.0021599535830318928	0.0	1.0	-1.0	13	14	15	16	17	18	19	20	21	22	23	24	25	26	27	28	29
	1262	0.06615913659334183	0.01816653087735176	0.026651689782738686	0.0	0.0	0.0	-0.0030550151132047176	0.9994853734970093	0.0021702211815863848	0.0	1.0	-1.0	13	14	15	16	17	18	19	20	21	22	23	24	25	26	27	28	29
	1272	0.06630793958902359	0.018156372010707855	0.026713525876402855	0.0	0.0	0.0	-0.003059948328882456	0.9994843006134033	0.0021869447082281113	0.0	1.0	-1.0	13	14	15	16	17	18	19	20	21	22	23	24	25	26	27	28	29
	1282	0.06636244803667068	0.018176227807998657	0.02671421319246292	0.0	0.0	0.0	-0.003052829997614026	0.9994833469390869	0.0021954611875116825	0.0	1.0	-1.0	13	14	15	16	17	18	19	20	21	22	23	24	25	26	27	28	29
	1292	0.06647385656833649	0.01813414692878723	0.026714162901043892	0.0	0.0	0.0	-0.003033704124391079	0.9994823336601257	0.0021957072895020247	0.0	1.0	-1.0	13	14	15	16	17	18	19	20	21	22	23	24	25	26	27	28	29
	1302	0.06656204164028168	0.018152212724089622	0.02674545720219612	0.0	0.0	0.0	-0.0030826523434370756	0.9994872212409973	0.0022247214801609516	0.0	1.0	-1.0	13	14	15	16	17	18	19	20	21	22	23	24	25	26	27	28	29
	1312	0.0665907934308052	0.01818246580660343	0.026712195947766304	0.0	0.0	0.0	-0.003063105046749115	0.9994859099388123	0.0022254399955272675	0.0	1.0	-1.0	13	14	15	16	17	18	19	20	21	22	23	24	25	26	27	28	29
	1323	0.06671763211488724	0.01817285269498825	0.02669975720345974	0.0	0.0	0.0	-0.003056136891245842	0.9994872212409973	0.002232481725513935	0.0	1.0	-1.0	13	14	15	16	17	18	19	20	21	22	23	24	25	26	27	28	29
	1333	0.06683117896318436	0.01819886639714241	0.02677347883582115	0.0	0.0	0.0	-0.003044190350919962	0.9994877576828003	0.0022371546365320683	0.0	1.0	-1.0	13	14	15	16	17	18	19	20	21	22	23	24	25	26	27	28	29
	1343	0.06690089404582977	0.018248967826366425	0.02683970145881176	0.0	0.0	0.0	-0.00304482807405293	0.9994909167289734	0.0022480434272438288	0.0	1.0	-1.0	13	14	15	16	17	18	19	20	21	22	23	24	25	26	27	28	29
	1353	0.06706496328115463	0.01826702430844307	0.026889029890298843	0.0	0.0	0.0	-0.0030936971306800842	0.9994973540306091	0.002276424551382661	0.0	1.0	-1.0	13	14	15	16	17	18	19	20	21	22	23	24	25	26	27	28	29
	1363	0.06463925540447235	0.018334519118070602	0.02685697004199028	0.0	0.0	0.0	-0.00310201826505363	0.999502956867218	0.0022905690129846334	0.0	1.0	-1.0	13	14	15	16	17	18	19	20	21	22	23	24	25	26	27	28	29
	1373	0.064695343375206	0.018288159742951393	0.0268818661570549	0.0	0.0	0.0	-0.0030757240019738674	0.9994891881942749	0.002295649377629161	0.0	1.0	-1.0	13	14	15	16	17	18	19	20	21	22	23	24	25	26	27	28	29
	1383	0.06475237011909485	0.01828375831246376	0.026913749054074287	0.0	0.0	0.0	-0.0030666773673146963	0.9994516968727112	0.0023291471879929304	0.0	1.0	-1.0	13	14	15	16	17	18	19	20	21	22	23	24	25	26	27	28	29
	1393	0.06485078483819962	0.01831352896988392	0.026928098872303963	0.0	0.0	0.0	-0.003105673473328352	0.9994244575500488	0.002375273732468486	0.0	1.0	-1.0	13	14	15	16	17	18	19	20	21	22	23	24	25	26	27	28	29
	1403	0.06495268642902374	0.01837581768631935	0.02693110704421997	0.0	0.0	0.0	-0.0030994070693850517	0.9993882775306702	0.0024094816762953997	0.0	1.0	-1.0	13	14	15	16	17	18	19	20	21	22	23	24	25	26	27	28	29
	1413	0.06508317589759827	0.01841684989631176	0.026994040235877037	0.0	0.0	0.0	-0.003087961580604315	0.9993512630462646	0.0024414346553385258	0.0	1.0	-1.0	13	14	15	16	17	18	19	20	21	22	23	24	25	26	27	28	29
	1423	0.06522909551858902	0.01846660114824772	0.027003441005945206	0.0	0.0	0.0	-0.0030890419147908688	0.9993088245391846	0.002485630800947547	0.0	1.0	-1.0	13	14	15	16	17	18	19	20	21	22	23	24	25	26	27	28	29
	1433	0.06529461592435837	0.018444955348968506	0.027110138908028603	0.0	0.0	0.0	-0.003097855718806386	0.9992644786834717	0.0025361310690641403	0.0	1.0	-1.0	13	14	15	16	17	18	19	20	21	22	23	24	25	26	27	28	29
	1443	0.06543872505426407	0.018466630950570107	0.027106668800115585	0.0	0.0	0.0	-0.0030721689108759165	0.9992400407791138	0.0025491483975201845	0.0	1.0	-1.0	13	14	15	16	17	18	19	20	21	22	23	24	25	26	27	28	29
	1453	0.06558306515216827	0.018419362604618073	0.027169473469257355	0.0	0.0	0.0	-0.0031210260931402445	0.9992074370384216	0.0026061555836349726	0.0	1.0	-1.0	13	14	15	16	17	18	19	20	21	22	23	24	25	26	27	28	29
	1464	0.06569522619247437	0.01844889670610428	0.02723514661192894	0.0	0.0	0.0	-0.003112497739493847	0.9991746544837952	0.0026370787527412176	0.0	1.0	-1.0	13	14	15	16	17	18	19	20	21	22	23	24	25	26	27	28	29
	1474	0.0658092051744461	0.018441829830408096	0.02728188782930374	0.0	0.0	0.0	-0.0031066664960235357	0.9991428852081299	0.0026686929631978273	0.0	1.0	-1.0	13	14	15	16	17	18	19	20	21	22	23	24	25	26	27	28	29
	1484	0.06596945226192474	0.018490424379706383	0.02735506370663643	0.0	0.0	0.0	-0.0030956468544900417	0.9991106986999512	0.0026977076195180416	0.0	1.0	-1.0	13	14	15	16	17	18	19	20	21	22	23	24	25	26	27	28	29
	1494	0.06603724509477615	0.01849212870001793	0.027363929897546768	0.0	0.0	0.0	-0.0031021893955767155	0.9990703463554382	0.0027443435974419117	0.0	1.0	-1.0	13	14	15	16	17	18	19	20	21	22	23	24	25	26	27	28	29
	1504	0.06608947366476059	0.01854979433119297	0.027384493499994278	0.0	0.0	0.0	-0.003089234931394458	0.9990390539169312	0.002771422266960144	0.0	1.0	-1.0	13	14	15	16	17	18	19	20	21	22	23	24	25	26	27	28	29
	1514	0.06620761752128601	0.01849260926246643	0.027387075126171112	0.0	0.0	0.0	-0.003138621337711811	0.9990084767341614	0.002827783115208149	0.0	1.0	-1.0	13	14	15	16	17	18	19	20	21	22	23	24	25	26	27	28	29
	1524	0.0662507638335228	0.018514834344387054	0.027397137135267258	0.0	0.0	0.0	-0.0031284806318581104	0.9989785552024841	0.0028555733151733875	0.0	1.0	-1.0	13	14	15	16	17	18	19	20	21	22	23	24	25	26	27	28	29
	1534	0.06635170429944992	0.018532902002334595	0.027363937348127365	0.0	0.0	0.0	-0.0031062266789376736	0.9989585876464844	0.002867308212444186	0.0	1.0	-1.0	13	14	15	16	17	18	19	20	21	22	23	24	25	26	27	28	29
	1544	0.06648530066013336	0.01857193373143673	0.027357155457139015	0.0	0.0	0.0	-0.0030937716364860535	0.9989296793937683	0.0028929701074957848	0.0	1.0	-1.0	13	14	15	16	17	18	19	20	21	22	23	24	25	26	27	28	29
	1554	0.06657785922288895	0.018588455393910408	0.027376167476177216	0.0	0.0	0.0	-0.003143144305795431	0.9989000558853149	0.0029488580767065287	0.0	1.0	-1.0	13	14	15	16	17	18	19	20	21	22	23	24	25	26	27	28	29
	1564	0.06668203324079514	0.01865607313811779	0.027447469532489777	0.0	0.0	0.0	-0.003148414893075824	0.998863935470581	0.0029918933287262917	0.0	1.0	-1.0	13	14	15	16	17	18	19	20	21	22	23	24	25	26	27	28	29
	1574	0.06674239784479141	0.018713155761361122	0.027408452704548836	0.0	0.0	0.0	-0.0031414979603141546	0.9988376498222351	0.00301906350068748	0.0	1.0	-1.0	13	14	15	16	17	18	19	20	21	22	23	24	25	26	27	28	29
	1584	0.06682078540325165	0.01871339976787567	0.02747298777103424	0.0	0.0	0.0	-0.0031293437350541353	0.9988115429878235	0.003042977536097169	0.0	1.0	-1.0	13	14	15	16	17	18	19	20	21	22	23	24	25	26	27	28	29
	1594	0.0668797492980957	0.018756425008177757	0.027439188212156296	0.0	0.0	0.0	-0.003105232957750559	0.9987950325012207	0.0030512844678014517	0.0	1.0	-1.0	13	14	15	16	17	18	19	20	21	22	23	24	25	26	27	28	29
	1604	0.06694838404655457	0.018708158284425735	0.02746541053056717	0.0	0.0	0.0	-0.0031546095851808786	0.998767077922821	0.003106622723862529	0.0	1.0	-1.0	13	14	15	16	17	18	19	20	21	22	23	24	25	26	27	28	29
	1615	0.0670052319765091	0.01876695826649666	0.027484863996505737	0.0	0.0	0.0	-0.0031478884629905224	0.9987432360649109	0.0031323926523327827	0.0	1.0	-1.0	13	14	15	16	17	18	19	20	21	22	23	24	25	26	27	28	29
	1625	0.0671280026435852	0.018756648525595665	0.027478745207190514	0.0	0.0	0.0	-0.003151251468807459	0.9987121820449829	0.0031712946947664022	0.0	1.0	-1.0	13	14	15	16	17	18	19	20	21	22	23	24	25	26	27	28	29
	1635	0.06719555705785751	0.018680047243833542	0.027509614825248718	0.0	0.0	0.0	-0.003142821602523327	0.9986902475357056	0.0031947260722517967	0.0	1.0	-1.0	13	14	15	16	17	18	19	20	21	22	23	24	25	26	27	28	29
	1645	0.06730592995882034	0.018693270161747932	0.027597231790423393	0.0	0.0	0.0	-0.0031221196986734867	0.998677134513855	0.003202566411346197	0.0	1.0	-1.0	13	14	15	16	17	18	19	20	21	22	23	24	25	26	27	28	29
	1655	0.06743510812520981	0.018707560375332832	0.027560075744986534	0.0	0.0	0.0	-0.003111153142526746	0.9986568689346313	0.003223326988518238	0.0	1.0	-1.0	13	14	15	16	17	18	19	20	21	22	23	24	25	26	27	28	29
	1665	0.06756245344877243	0.01874789223074913	0.027533413842320442	0.0	0.0	0.0	-0.0031610510777682066	0.9986312389373779	0.0032779506873339415	0.0	1.0	-1.0	13	14	15	16	17	18	19	20	21	22	23	24	25	26	27	28	29
	1675	0.06769830733537674	0.01878201961517334	0.02762741409242153	0.0	0.0	0.0	-0.0031676918733865023	0.9986047148704529	0.003315630368888378	0.0	1.0	-1.0	13	14	15	16	17	18	19	20	21	22	23	24	25	26	27	28	29
	1685	0.0677880346775055	0.018853673711419106	0.02770223096013069	0.0	0.0	0.0	-0.00317215034738183	0.9985818266868591	0.003348736558109522	0.0	1.0	-1.0	13	14	15	16	17	18	19	20	21	22	23	24	25	26	27	28	29
	1695	0.06787428259849548	0.018881045281887054	0.027738990262150764	0.0	0.0	0.0	-0.003151167882606387	0.9985694885253906	0.003356351051479578	0.0	1.0	-1.0	13	14	15	16	17	18	19	20	21	22	23	24	25	26	27	28	29
	1705	0.06796695291996002	0.01891254633665085	0.02784610539674759	0.0	0.0	0.0	-0.003142907517030835	0.9985532164573669	0.003375614993274212	0.0	1.0	-1.0	13	14	15	16	17	18	19	20	21	22	23	24	25	26	27	28	29
	1715	0.06811739504337311	0.01895138993859291	0.0279085710644722	0.0	0.0	0.0	-0.003177759237587452	0.9985365867614746	0.0034130120184272528	0.0	1.0	-1.0	13	14	15	16	17	18	19	20	21	22	23	24	25	26	27	28	29
	1725	0.06820765882730484	0.019004972651600838	0.02802586369216442	0.0	0.0	0.0	-0.003136374754831195	0.9985183477401733	0.0034231008030474186	0.0	1.0	-1.0	13	14	15	16	17	18	19	20	21	22	23	24	25	26	27	28	29
	1735	0.06829126924276352	0.019005129113793373	0.02801954373717308	0.0	0.0	0.0	-0.0031865963246673346	0.99849534034729	0.0034762374125421047	0.0	1.0	-1.0	13	14	15	16	17	18	19	20	21	22	23	24	25	26	27	28	29
	1746	0.06845453381538391	0.019069397822022438	0.02806934528052807	0.0	0.0	0.0	-0.0031685943249613047	0.998486340045929	0.0034829473588615656	0.0	1.0	-1.0	13	14	15	16	17	18	19	20	21	22	23	24	25	26	27	28	29
	1756	0.06850272417068481	0.01911461539566517	0.028026433661580086	0.0	0.0	0.0	-0.0031634867191314697	0.9984736442565918	0.0035012748558074236	0.0	1.0	-1.0	13	14	15	16	17	18	19	20	21	22	23	24	25	26	27	28	29
	1766	0.06860163062810898	0.019119568169116974	0.028070300817489624	0.0	0.0	0.0	-0.0031528694089502096	0.9984619617462158	0.0035153592471033335	0.0	1.0	-1.0	13	14	15	16	17	18	19	20	21	22	23	24	25	26	27	28	29
	1776	0.068727508187294	0.019112763926386833	0.02811337634921074	0.0	0.0	0.0	-0.003188120201230049	0.9984468817710876	0.0035519632510840893	0.0	1.0	-1.0	13	14	15	16	17	18	19	20	21	22	23	24	25	26	27	28	29
	1786	0.06877351552248001	0.01912015490233898	0.02812105230987072	0.0	0.0	0.0	-0.003205621847882867	0.9984256625175476	0.0035931961610913277	0.0	1.0	-1.0	13	14	15	16	17	18	19	20	21	22	23	24	25	26	27	28	29
	1796	0.0689314603805542	0.019139094278216362	0.028090616688132286	0.0	0.0	0.0	-0.00319260498508811	0.9984163045883179	0.003604327794164419	0.0	1.0	-1.0	13	14	15	16	17	18	19	20	21	22	23	24	25	26	27	28	29
	1806	0.0690298080444336	0.019175903871655464	0.028087735176086426	0.0	0.0	0.0	-0.003182452404871583	0.9984077215194702	0.0036166824866086245	0.0	1.0	-1.0	13	14	15	16	17	18	19	20	21	22	23	24	25	26	27	28	29
	1816	0.06916612386703491	0.019200418144464493	0.028082186356186867	0.0	0.0	0.0	-0.003164982423186302	0.9984037280082703	0.0036198797170072794	0.0	1.0	-1.0	13	14	15	16	17	18	19	20	21	22	23	24	25	26	27	28	29
	1826	0.06928189843893051	0.019261162728071213	0.028112241998314857	0.0	0.0	0.0	-0.0032156393863260746	0.9983841776847839	0.0036713515873998404	0.0	1.0	-1.0	13	14	15	16	17	18	19	20	21	22	23	24	25	26	27	28	29
	1836	0.06940135359764099	0.019350802525877953	0.028106577694416046	0.0	0.0	0.0	-0.003213355550542474	0.9983742237091064	0.00369075546041131	0.0	1.0	-1.0	13	14	15	16	17	18	19	20	21	22	23	24	25	26	27	28	29
	1846	0.06949066370725632	0.019345048815011978	0.028063980862498283	0.0	0.0	0.0	-0.0032036048360168934	0.9983687400817871	0.0037011613603681326	0.0	1.0	-1.0	13	14	15	16	17	18	19	20	21	22	23	24	25	26	27	28	29
	1856	0.06951554119586945	0.019342834129929543	0.028099365532398224	0.0	0.0	0.0	-0.003196712350472808	0.9983640313148499	0.0037128329277038574	0.0	1.0	-1.0	13	14	15	16	17	18	19	20	21	22	23	24	25	26	27	28	29
	1866	0.0696178525686264	0.01933620497584343	0.0281718447804451	0.0	0.0	0.0	-0.003174423472955823	0.9983640313148499	0.003710141172632575	0.0	1.0	-1.0	13	14	15	16	17	18	19	20	21	22	23	24	25	26	27	28	29
	1876	0.06970245391130447	0.01936924271285534	0.02817516401410103	0.0	0.0	0.0	-0.0032100758980959654	0.9983518123626709	0.00374559941701591	0.0	1.0	-1.0	13	14	15	16	17	18	19	20	21	22	23	24	25	26	27	28	29
	1886	0.06980414688587189	0.019385186955332756	0.02827276475727558	0.0	0.0	0.0	-0.003216217504814267	0.9983441829681396	0.003769396338611841	0.0	1.0	-1.0	13	14	15	16	17	18	19	20	21	22	23	24	25	26	27	28	29
	1897	0.06986843794584274	0.019375178962945938	0.028258362784981728	0.0	0.0	0.0	-0.003220049198716879	0.9983389973640442	0.0037892023101449013	0.0	1.0	-1.0	13	14	15	16	17	18	19	20	21	22	23	24	25	26	27	28	29
	1907	0.07003562897443771	0.019399216398596764	0.0282871276140213	0.0	0.0	0.0	-0.0032081485260277987	0.998338520526886	0.003794505028054118	0.0	1.0	-1.0	13	14	15	16	17	18	19	20	21	22	23	24	25	26	27	28	29
	1917	0.07014580816030502	0.019340813159942627	0.028334446251392365	0.0	0.0	0.0	-0.003199073951691389	0.9983387589454651	0.003801185404881835	0.0	1.0	-1.0	13	14	15	16	17	18	19	20	21	22	23	24	25	26	27	28	29
	1927	0.07019412517547607	0.019325660541653633	0.028358029201626778	0.0	0.0	0.0	-0.0032400318887084723	0.9983266592025757	0.0038408522959798574	0.0	1.0	-1.0	13	14	15	16	17	18	19	20	21	22	23	24	25	26	27	28	29
	1937	0.07029043138027191	0.019383249804377556	0.028413159772753716	0.0	0.0	0.0	-0.0032339198514819145	0.9983277320861816	0.0038487068377435207	0.0	1.0	-1.0	13	14	15	16	17	18	19	20	21	22	23	24	25	26	27	28	29
	1947	0.07040946930646896	0.019382845610380173	0.028410151600837708	0.0	0.0	0.0	-0.0032222981099039316	0.9983302354812622	0.003852118505164981	0.0	1.0	-1.0	13	14	15	16	17	18	19	20	21	22	23	24	25	26	27	28	29
	1957	0.07050281018018723	0.019385788589715958	0.028458597138524055	0.0	0.0	0.0	-0.0032239623833447695	0.9983305931091309	0.003866896964609623	0.0	1.0	-1.0	13	14	15	16	17	18	19	20	21	22	23	24	25	26	27	28	29
	1967	0.07070143520832062	0.01939503662288189	0.02851707674562931	0.0	0.0	0.0	-0.0032078446820378304	0.9983368515968323	0.0038635381497442722	0.0	1.0	-1.0	13	14	15	16	17	18	19	20	21	22	23	24	25	26	27	28	29
	1977	0.07078064978122711	0.019392693415284157	0.02854657545685768	0.0	0.0	0.0	-0.0032068376895040274	0.9983394145965576	0.0038752516265958548	0.0	1.0	-1.0	13	14	15	16	17	18	19	20	21	22	23	24	25	26	27	28	29
	1987	0.07080379873514175	0.01939450390636921	0.02859480120241642	0.0	0.0	0.0	-0.003258483950048685	0.9983270764350891	0.003924011252820492	0.0	1.0	-1.0	13	14	15	16	17	18	19	20	21	22	23	24	25	26	27	28	29
	1997	0.07090442627668381	0.019424980506300926	0.028654074296355247	0.0	0.0	0.0	-0.0032501122914254665	0.9983329772949219	0.00392705574631691	0.0	1.0	-1.0	13	14	15	16	17	18	19	20	21	22	23	24	25	26	27	28	29
	2007	0.07091418653726578	0.019469894468784332	0.02869052067399025	0.0	0.0	0.0	-0.0032343349885195494	0.9983416795730591	0.003921877592802048	0.0	1.0	-1.0	13	14	15	16	17	18	19	20	21	22	23	24	25	26	27	28	29
	2017	0.0710538774728775	0.01950259879231453	0.028689125552773476	0.0	0.0	0.0	-0.003223247127607465	0.9983494281768799	0.003921867813915014	0.0	1.0	-1.0	13	14	15	16	17	18	19	20	21	22	23	24	25	26	27	28	29
	2027	0.0711778923869133	0.019509347155690193	0.02873886190354824	0.0	0.0	0.0	-0.003275144612416625	0.9983389973640442	0.003969927318394184	0.0	1.0	-1.0	13	14	15	16	17	18	19	20	21	22	23	24	25	26	27	28	29
	2038	0.07139264047145844	0.01949729584157467	0.028777925297617912	0.0	0.0	0.0	-0.003277420299127698	0.9983456134796143	0.00398082984611392	0.0	1.0	-1.0	13	14	15	16	17	18	19	20	21	22	23	24	25	26	27	28	29
	2048	0.07147598266601562	0.01949734054505825	0.028833437711000443	0.0	0.0	0.0	-0.003287804778665304	0.9983522295951843	0.00399788236245513	0.0	1.0	-1.0	13	14	15	16	17	18	19	20	21	22	23	24	25	26	27	28	29
	2058	0.07159477472305298	0.019503086805343628	0.028809024021029472	0.0	0.0	0.0	-0.0032612348441034555	0.9983654022216797	0.003981585148721933	0.0	1.0	-1.0	13	14	15	16	17	18	19	20	21	22	23	24	25	26	27	28	29
	2068	0.07167213410139084	0.01958274096250534	0.02875136397778988	0.0	0.0	0.0	-0.0032533893827348948	0.9983762502670288	0.0039811329916119576	0.0	1.0	-1.0	13	14	15	16	17	18	19	20	21	22	23	24	25	26	27	28	29
	2078	0.07179298996925354	0.019591376185417175	0.028747418895363808	0.0	0.0	0.0	-0.003295519622042775	0.9983697533607483	0.004018658772110939	0.0	1.0	-1.0	13	14	15	16	17	18	19	20	21	22	23	24	25	26	27	28	29
	2088	0.0719028115272522	0.01965497061610222	0.028803113847970963	0.0	0.0	0.0	-0.0032982805278152227	0.9983799457550049	0.004027253482490778	0.0	1.0	-1.0	13	14	15	16	17	18	19	20	21	22	23	24	25	26	27	28	29
	2098	0.07202275842428207	0.019675375893712044	0.028825582936406136	0.0	0.0	0.0	-0.0032882564701139927	0.9983928799629211	0.0040234909392893314	0.0	1.0	-1.0	13	14	15	16	17	18	19	20	21	22	23	24	25	26	27	28	29
	2108	0.07224217802286148	0.019698061048984528	0.028805729001760483	0.0	0.0	0.0	-0.003265185747295618	0.9984081387519836	0.00400748522952199	0.0	1.0	-1.0	13	14	15	16	17	18	19	20	21	22	23	24	25	26	27	28	29
	2118	0.07230102270841599	0.019753798842430115	0.02883019484579563	0.0	0.0	0.0	-0.0032790089026093483	0.9984195232391357	0.004023664630949497	0.0	1.0	-1.0	13	14	15	16	17	18	19	20	21	22	23	24	25	26	27	28	29
	2128	0.07240801304578781	0.01973027177155018	0.028835540637373924	0.0	0.0	0.0	-0.0032695347908884287	0.9984343647956848	0.004018472041934729	0.0	1.0	-1.0	13	14	15	16	17	18	19	20	21	22	23	24	25	26	27	28	29
	2138	0.07251619547605515	0.019741326570510864	0.028850708156824112	0.0	0.0	0.0	-0.003311969107016921	0.9984303116798401	0.004054741468280554	0.0	1.0	-1.0	13	14	15	16	17	18	19	20	21	22	23	24	25	26	27	28	29
	2148	0.07262138277292252	0.019695118069648743	0.028888821601867676	0.0	0.0	0.0	-0.0033054975792765617	0.9984461069107056	0.004050742834806442	0.0	1.0	-1.0	13	14	15	16	17	18	19	20	21	22	23	24	25	26	27	28	29
	2158	0.07272966206073761	0.01970134675502777	0.028879012912511826	0.0	0.0	0.0	-0.0032775001600384712	0.9984641075134277	0.004028659779578447	0.0	1.0	-1.0	13	14	15	16	17	18	19	20	21	22	23	24	25	26	27	28	29
	2168	0.07282369583845139	0.01977669447660446	0.02890792489051819	0.0	0.0	0.0	-0.0032685636542737484	0.9984811544418335	0.004021775908768177	0.0	1.0	-1.0	13	14	15	16	17	18	19	20	21	22	23	24	25	26	27	28	29
	2179	0.07296320050954819	0.019800739362835884	0.028938474133610725	0.0	0.0	0.0	-0.0033218837343156338	0.99847811460495	0.004065948072820902	0.0	1.0	-1.0	13	14	15	16	17	18	19	20	21	22	23	24	25	26	27	28	29
	2189	0.07303782552480698	0.019786957651376724	0.02898596227169037	0.0	0.0	0.0	-0.003331908956170082	0.9984953999519348	0.004073399119079113	0.0	1.0	-1.0	13	14	15	16	17	18	19	20	21	22	23	24	25	26	27	28	29
	2199	0.0730861946940422	0.019732512533664703	0.029049597680568695	0.0	0.0	0.0	-0.0033311021979898214	0.9985142350196838	0.004071776755154133	0.0	1.0	-1.0	13	14	15	16	17	18	19	20	21	22	23	24	25	26	27	28	29
	2209	0.07315107434988022	0.019703667610883713	0.029104169458150864	0.0	0.0	0.0	-0.003322398755699396	0.9985337257385254	0.0040631890296936035	0.0	1.0	-1.0	13	14	15	16	17	18	19	20	21	22	23	24	25	26	27	28	29
	2219	0.07324028760194778	0.01968648098409176	0.029133912175893784	0.0	0.0	0.0	-0.003316533286124468	0.9985535144805908	0.004056329373270273	0.0	1.0	-1.0	13	14	15	16	17	18	19	20	21	22	23	24	25	26	27	28	29
	2229	0.07330493628978729	0.019712502136826515	0.02913648635149002	0.0	0.0	0.0	-0.0033049180638045073	0.9985741972923279	0.004044774454087019	0.0	1.0	-1.0	13	14	15	16	17	18	19	20	21	22	23	24	25	26	27	28	29
	2239	0.07340285927057266	0.01976419799029827	0.029209714382886887	0.0	0.0	0.0	-0.003347751684486866	0.9985741972923279	0.004079079255461693	0.0	1.0	-1.0	13	14	15	16	17	18	19	20	21	22	23	24	25	26	27	28	29
	2249	0.07351014763116837	0.01980362832546234	0.029245348647236824	0.0	0.0	0.0	-0.003339204005897045	0.9985957145690918	0.004069173708558083	0.0	1.0	-1.0	13	14	15	16	17	18	19	20	21	22	23	24	25	26	27	28	29
	2259	0.07361316680908203	0.019929105415940285	0.029248811304569244	0.0	0.0	0.0	-0.003333540167659521	0.9986177086830139	0.004060978535562754	0.0	1.0	-1.0	13	14	15	16	17	18	19	20	21	22	23	24	25	26	27	28	29
	2269	0.07376241683959961	0.019947269931435585	0.029331976547837257	0.0	0.0	0.0	-0.0033221023622900248	0.9986405372619629	0.004048032686114311	0.0	1.0	-1.0	13	14	15	16	17	18	19	20	21	22	23	24	25	26	27	28	29
	2279	0.07384124398231506	0.019957344979047775	0.02938060648739338	0.0	0.0	0.0	-0.003324167337268591	0.998664140701294	0.0040453276596963406	0.0	1.0	-1.0	13	14	15	16	17	18	19	20	21	22	23	24	25	26	27	28	29
	2289	0.07395847886800766	0.01994975656270981	0.029424211010336876	0.0	0.0	0.0	-0.0033185177017003298	0.9986879229545593	0.0040359096601605415	0.0	1.0	-1.0	13	14	15	16	17	18	19	20	21	22	23	24	25	26	27	28	29
	2299	0.07404651492834091	0.019963828846812248	0.029454143717885017	0.0	0.0	0.0	-0.0033613955602049828	0.998690664768219	0.004068963695317507	0.0	1.0	-1.0	13	14	15	16	17	18	19	20	21	22	23	24	25	26	27	28	29
	2309	0.07414191961288452	0.019919713959097862	0.029453866183757782	0.0	0.0	0.0	-0.0033499393612146378	0.998715341091156	0.004054320510476828	0.0	1.0	-1.0	13	14	15	16	17	18	19	20	21	22	23	24	25	26	27	28	29
	2319	0.07434713840484619	0.019934555515646935	0.02949751354753971	0.0	0.0	0.0	-0.003325400874018669	0.9987390041351318	0.004029297735542059	0.0	1.0	-1.0	13	14	15	16	17	18	19	20	21	22	23	24	25	26	27	28	29
	2330	0.0744684487581253	0.019930578768253326	0.029620656743645668	0.0	0.0	0.0	-0.003338189097121358	0.9987671375274658	0.00403183326125145	0.0	1.0	-1.0	13	14	15	16	17	18	19	20	21	22	23	24	25	26	27	28	29
	2340	0.07456077635288239	0.019884968176484108	0.02962670288980007	0.0	0.0	0.0	-0.003327383426949382	0.9987932443618774	0.004015992395579815	0.0	1.0	-1.0	13	14	15	16	17	18	19	20	21	22	23	24	25	26	27	28	29
	2350	0.07468309253454208	0.01989392191171646	0.029658155515789986	0.0	0.0	0.0	-0.0033811507746577263	0.9987992644309998	0.004055611789226532	0.0	1.0	-1.0	13	14	15	16	17	18	19	20	21	22	23	24	25	26	27	28	29
	2360	0.07477624714374542	0.019906295463442802	0.02975362166762352	0.0	0.0	0.0	-0.003373113926500082	0.998826265335083	0.004041357431560755	0.0	1.0	-1.0	13	14	15	16	17	18	19	20	21	22	23	24	25	26	27	28	29
	2370	0.07483595609664917	0.019915778189897537	0.02976211905479431	0.0	0.0	0.0	-0.003348706755787134	0.9988521337509155	0.004014709964394569	0.0	1.0	-1.0	13	14	15	16	17	18	19	20	21	22	23	24	25	26	27	28	29
	2380	0.07499115914106369	0.019941983744502068	0.029788082465529442	0.0	0.0	0.0	-0.00338622834533453	0.9988574981689453	0.004041815642267466	0.0	1.0	-1.0	13	14	15	16	17	18	19	20	21	22	23	24	25	26	27	28	29
	2390	0.07506249845027924	0.019996386021375656	0.02993210405111313	0.0	0.0	0.0	-0.0033410906326025724	0.9989097118377686	0.0039898911491036415	0.0	1.0	-1.0	13	14	15	16	17	18	19	20	21	22	23	24	25	26	27	28	29
	2400	0.07518967241048813	0.020086852833628654	0.029952798038721085	0.0	0.0	0.0	-0.0033947778865695	0.9989184737205505	0.004027694463729858	0.0	1.0	-1.0	13	14	15	16	17	18	19	20	21	22	23	24	25	26	27	28	29
	2410	0.07528605312108994	0.020132238045334816	0.029995022341609	0.0	0.0	0.0	-0.003381423419341445	0.9989473819732666	0.0040074060671031475	0.0	1.0	-1.0	13	14	15	16	17	18	19	20	21	22	23	24	25	26	27	28	29
	2420	0.07540978491306305	0.02019987627863884	0.03000645898282528	0.0	0.0	0.0	-0.0033604144118726254	0.9989746809005737	0.003981553018093109	0.0	1.0	-1.0	13	14	15	16	17	18	19	20	21	22	23	24	25	26	27	28	29
	2430	0.07554338872432709	0.020191945135593414	0.03005068749189377	0.0	0.0	0.0	-0.0033530101645737886	0.9990041851997375	0.003964833915233612	0.0	1.0	-1.0	13	14	15	16	17	18	19	20	21	22	23	24	25	26	27	28	29
	2440	0.0756789818406105	0.02024027705192566	0.03010532632470131	0.0	0.0	0.0	-0.0034067672677338123	0.999015212059021	0.004001304041594267	0.0	1.0	-1.0	13	14	15	16	17	18	19	20	21	22	23	24	25	26	27	28	29
	2450	0.07575570791959763	0.020242447033524513	0.03012062981724739	0.0	0.0	0.0	-0.0034044694621115923	0.9990479350090027	0.003986889962106943	0.0	1.0	-1.0	13	14	15	16	17	18	19	20	21	22	23	24	25	26	27	28	29
	2460	0.07591506838798523	0.02024143561720848	0.030132673680782318	0.0	0.0	0.0	-0.0033944519236683846	0.9990788102149963	0.003966982942074537	0.0	1.0	-1.0	13	14	15	16	17	18	19	20	21	22	23	24	25	26	27	28	29
	2471	0.07602862268686295	0.020236417651176453	0.030123382806777954	0.0	0.0	0.0	-0.003379150526598096	0.9991097450256348	0.003942903596907854	0.0	1.0	-1.0	13	14	15	16	17	18	19	20	21	22	23	24	25	26	27	28	29
	2481	0.07614441961050034	0.02025461196899414	0.030103879049420357	0.0	0.0	0.0	-0.0033561810851097107	0.999138355255127	0.0039137895219028	0.0	1.0	-1.0	13	14	15	16	17	18	19	20	21	22	23	24	25	26	27	28	29
	2491	0.07624354213476181	0.020250942558050156	0.030171552672982216	0.0	0.0	0.0	-0.003357923123985529	0.999172568321228	0.0039005158469080925	0.0	1.0	-1.0	13	14	15	16	17	18	19	20	21	22	23	24	25	26	27	28	29
	2501	0.07514145225286484	0.020262135192751884	0.03018881566822529	0.0	0.0	0.0	-0.0034119272604584694	0.999186635017395	0.003935160581022501	0.0	1.0	-1.0	13	14	15	16	17	18	19	20	21	22	23	24	25	26	27	28	29
	2511	0.07525075227022171	0.020236726850271225	0.03021875210106373	0.0	0.0	0.0	-0.0033970773220062256	0.9992225170135498	0.00390732754021883	0.0	1.0	-1.0	13	14	15	16	17	18	19	20	21	22	23	24	25	26	27	28	29
	2521	0.07539128512144089	0.020229017361998558	0.03021492250263691	0.0	0.0	0.0	-0.003385137068107724	0.9992958307266235	0.0038547897711396217	0.0	1.0	-1.0	13	14	15	16	17	18	19	20	21	22	23	24	25	26	27	28	29
	2531	0.07550175487995148	0.020300569012761116	0.030235882848501205	0.0	0.0	0.0	-0.0033921622671186924	0.999386727809906	0.0038053549360483885	0.0	1.0	-1.0	13	14	15	16	17	18	19	20	21	22	23	24	25	26	27	28	29
	2541	0.07562445849180222	0.02032645046710968	0.03025752492249012	0.0	0.0	0.0	-0.0033615767024457455	0.9994432330131531	0.00374933541752398	0.0	1.0	-1.0	13	14	15	16	17	18	19	20	21	22	23	24	25	26	27	28	29
	2551	0.0757056474685669	0.020365605130791664	0.030233975499868393	0.0	0.0	0.0	-0.0034151882864534855	0.9995011687278748	0.003752809949219227	0.0	1.0	-1.0	13	14	15	16	17	18	19	20	21	22	23	24	25	26	27	28	29
	2561	0.07582363486289978	0.020330635830760002	0.03026891127228737	0.0	0.0	0.0	-0.003392876125872135	0.9995641112327576	0.003698736662045121	0.0	1.0	-1.0	13	14	15	16	17	18	19	20	21	22	23	24	25	26	27	28	29
	2571	0.07588818669319153	0.02037009410560131	0.030339960008859634	0.0	0.0	0.0	-0.0033951974473893642	0.9996509552001953	0.003647708101198077	0.0	1.0	-1.0	13	14	15	16	17	18	19	20	21	22	23	24	25	26	27	28	29
	2581	0.07594797015190125	0.020384229719638824	0.0303263608366251	0.0	0.0	0.0	-0.003381012473255396	0.9997256994247437	0.003592029446735978	0.0	1.0	-1.0	13	14	15	16	17	18	19	20	21	22	23	24	25	26	27	28	29
	2591	0.07608150690793991	0.020370788872241974	0.030424878001213074	0.0	0.0	0.0	-0.0033701001666486263	0.9998009204864502	0.0035383289214223623	0.0	1.0	-1.0	13	14	15	16	17	18	19	20	21	22	23	24	25	26	27	28	29
	2601	0.07614541053771973	0.0204115342348814	0.03052050620317459	0.0	0.0	0.0	-0.00336996978148818	0.9998937249183655	0.0034811622463166714	0.0	1.0	-1.0	13	14	15	16	17	18	19	20	21	22	23	24	25	26	27	28	29
	2612	0.07626035064458847	0.020414909347891808	0.030541470274329185	0.0	0.0	0.0	-0.0034076825249940157	0.9999367594718933	0.0034822558518499136	0.0	1.0	-1.0	13	14	15	16	17	18	19	20	21	22	23	24	25	26	27	28	29
	2622	0.07635786384344101	0.020504942163825035	0.030594492331147194	0.0	0.0	0.0	-0.0033947008196264505	1.0000122785568237	0.003426288953050971	0.0	1.0	-1.0	13	14	15	16	17	18	19	20	21	22	23	24	25	26	27	28	29
	2632	0.07648054510354996	0.020540785044431686	0.030691424384713173	0.0	0.0	0.0	-0.003384687937796116	1.0000882148742676	0.0033721881918609142	0.0	1.0	-1.0	13	14	15	16	17	18	19	20	21	22	23	24	25	26	27	28	29
	2642	0.07671646773815155	0.020557641983032227	0.03074597381055355	0.0	0.0	0.0	-0.0033692466095089912	1.000162959098816	0.0033146890345960855	0.0	1.0	-1.0	13	14	15	16	17	18	19	20	21	22	23	24	25	26	27	28	29
	2652	0.07680053263902664	0.020614514127373695	0.03071272186934948	0.0	0.0	0.0	-0.003372910898178816	1.0002573728561401	0.0032592308707535267	0.0	1.0	-1.0	13	14	15	16	17	18	19	20	21	22	23	24	25	26	27	28	29
	2662	0.07683388888835907	0.02064681611955166	0.030780743807554245	0.0	0.0	0.0	-0.0034268181771039963	1.000321626663208	0.00325919222086668	0.0	1.0	-1.0	13	14	15	16	17	18	19	20	21	22	23	24	25	26	27	28	29
	2672	0.07691727578639984	0.02064802125096321	0.030805423855781555	0.0	0.0	0.0	-0.0034012198448181152	1.0003786087036133	0.003205047221854329	0.0	1.0	-1.0	13	14	15	16	17	18	19	20	21	22	23	24	25	26	27	28	29
	2682	0.07705189287662506	0.020659955218434334	0.030860358849167824	0.0	0.0	0.0	-0.0033862360287457705	1.000452995300293	0.0031474903225898743	0.0	1.0	-1.0	13	14	15	16	17	18	19	20	21	22	23	24	25	26	27	28	29
	2692	0.07715842127799988	0.02068217284977436	0.030856717377901077	0.0	0.0	0.0	-0.0033744864631444216	1.00052809715271	0.0030918940901756287	0.0	1.0	-1.0	13	14	15	16	17	18	19	20	21	22	23	24	25	26	27	28	29
	2702	0.0772746130824089	0.020723488181829453	0.030897798016667366	0.0	0.0	0.0	-0.003428443567827344	1.0005946159362793	0.0030907399486750364	0.0	1.0	-1.0	13	14	15	16	17	18	19	20	21	22	23	24	25	26	27	28	29
	2712	0.07734990119934082	0.02071029506623745	0.030925992876291275	0.0	0.0	0.0	-0.0034359542187303305	1.0006911754608154	0.0030364850535988808	0.0	1.0	-1.0	13	14	15	16	17	18	19	20	21	22	23	24	25	26	27	28	29
	2722	0.0774104967713356	0.02074519358575344	0.030963141471147537	0.0	0.0	0.0	-0.003432451980188489	1.0007786750793457	0.00297919730655849	0.0	1.0	-1.0	13	14	15	16	17	18	19	20	21	22	23	24	25	26	27	28	29
	2732	0.07747092097997665	0.020756809040904045	0.03101448155939579	0.0	0.0	0.0	-0.0034103458747267723	1.0008397102355957	0.0029245668556541204	0.0	1.0	-1.0	13	14	15	16	17	18	19	20	21	22	23	24	25	26	27	28	29
	2742	0.07755448669195175	0.020758895203471184	0.031024804338812828	0.0	0.0	0.0	-0.003385981312021613	1.0008944272994995	0.002872138051316142	0.0	1.0	-1.0	13	14	15	16	17	18	19	20	21	22	23	24	25	26	27	28	29
	2753	0.07766608148813248	0.020748035982251167	0.03103010356426239	0.0	0.0	0.0	-0.0034400930162519217	1.0009634494781494	0.0028698828537017107	0.0	1.0	-1.0	13	14	15	16	17	18	19	20	21	22	23	24	25	26	27	28	29
	2763	0.07773517817258835	0.020726582035422325	0.03099147230386734	0.0	0.0	0.0	-0.00342600978910923	1.001036286354065	0.002813668455928564	0.0	1.0	-1.0	13	14	15	16	17	18	19	20	21	22	23	24	25	26	27	28	29
	2773	0.07779712975025177	0.020726557821035385	0.031045988202095032	0.0	0.0	0.0	-0.003415095852687955	1.0011100769042969	0.002759281313046813	0.0	1.0	-1.0	13	14	15	16	17	18	19	20	21	22	23	24	25	26	27	28	29
	2783	0.077833391726017	0.020720720291137695	0.03117280639708042	0.0	0.0	0.0	-0.003415036713704467	1.001201868057251	0.0027015090454369783	0.0	1.0	-1.0	13	14	15	16	17	18	19	20	21	22	23	24	25	26	27	28	29
	2793	0.07793603837490082	0.020663434639573097	0.031198866665363312	0.0	0.0	0.0	-0.0033859098330140114	1.0012519359588623	0.0026476066559553146	0.0	1.0	-1.0	13	14	15	16	17	18	19	20	21	22	23	24	25	26	27	28	29
	2803	0.07807300984859467	0.020594850182533264	0.031196055933833122	0.0	0.0	0.0	-0.0034403090830892324	1.0013236999511719	0.0026440713554620743	0.0	1.0	-1.0	13	14	15	16	17	18	19	20	21	22	23	24	25	26	27	28	29
	2813	0.07813102006912231	0.020615456625819206	0.03123868815600872	0.0	0.0	0.0	-0.003446942660957575	1.0014183521270752	0.002589632524177432	0.0	1.0	-1.0	13	14	15	16	17	18	19	20	21	22	23	24	25	26	27	28	29
	2823	0.07819829881191254	0.020618462935090065	0.031238790601491928	0.0	0.0	0.0	-0.0034316973760724068	1.0014877319335938	0.0025338863488286734	0.0	1.0	-1.0	13	14	15	16	17	18	19	20	21	22	23	24	25	26	27	28	29
	2833	0.07827910780906677	0.02060053125023842	0.031260933727025986	0.0	0.0	0.0	-0.0034198088105767965	1.0015580654144287	0.002479876857250929	0.0	1.0	-1.0	13	14	15	16	17	18	19	20	21	22	23	24	25	26	27	28	29
	2843	0.07838656008243561	0.020663905888795853	0.03128041699528694	0.0	0.0	0.0	-0.0034026787616312504	1.0016247034072876	0.0024237544275820255	0.0	1.0	-1.0	13	14	15	16	17	18	19	20	21	22	23	24	25	26	27	28	29
	2853	0.07849004119634628	0.02068376913666725	0.031292226165533066	0.0	0.0	0.0	-0.003446438116952777	1.001684308052063	0.002419746248051524	0.0	1.0	-1.0	13	14	15	16	17	18	19	20	21	22	23	24	25	26	27	28	29
	2863	0.07854563742876053	0.020631035789847374	0.031304117292165756	0.0	0.0	0.0	-0.003443642519414425	1.0017673969268799	0.0023639434948563576	0.0	1.0	-1.0	13	14	15	16	17	18	19	20	21	22	23	24	25	26	27	28	29
	2873	0.07853099703788757	0.020659781992435455	0.031366731971502304	0.0	0.0	0.0	-0.0034330005291849375	1.0018366575241089	0.002310876501724124	0.0	1.0	-1.0	13	14	15	16	17	18	19	20	21	22	23	24	25	26	27	28	29
	2884	0.07855481654405594	0.020705275237560272	0.03139914944767952	0.0	0.0	0.0	-0.0034061414189636707	1.0018863677978516	0.002257218584418297	0.0	1.0	-1.0	13	14	15	16	17	18	19	20	21	22	23	24	25	26	27	28	29
	2894	0.07859174907207489	0.020693589001893997	0.03138819709420204	0.0	0.0	0.0	-0.0034044235944747925	1.0019677877426147	0.0022028405219316483	0.0	1.0	-1.0	13	14	15	16	17	18	19	20	21	22	23	24	25	26	27	28	29
	2904	0.07861468195915222	0.020754262804985046	0.03137366846203804	0.0	0.0	0.0	-0.0034484437201172113	1.0020291805267334	0.002197619527578354	0.0	1.0	-1.0	13	14	15	16	17	18	19	20	21	22	23	24	25	26	27	28	29
	2914	0.07866613566875458	0.02071608416736126	0.03140193969011307	0.0	0.0	0.0	-0.003430778393521905	1.002091407775879	0.0021425136364996433	0.0	1.0	-1.0	13	14	15	16	17	18	19	20	21	22	23	24	25	26	27	28	29
	2924	0.07871215790510178	0.020772432908415794	0.0314788743853569	0.0	0.0	0.0	-0.0034273455385118723	1.0021705627441406	0.002087782835587859	0.0	1.0	-1.0	13	14	15	16	17	18	19	20	21	22	23	24	25	26	27	28	29
	2934	0.07876577973365784	0.02076161466538906	0.03150784969329834	0.0	0.0	0.0	-0.0034325108863413334	1.0022590160369873	0.0020337693858891726	0.0	1.0	-1.0	13	14	15	16	17	18	19	20	21	22	23	24	25	26	27	28	29
	2944	0.07883542776107788	0.020730964839458466	0.031496983021497726	0.0	0.0	0.0	-0.0033995327539741993	1.002295732498169	0.001982654444873333	0.0	1.0	-1.0	13	14	15	16	17	18	19	20	21	22	23	24	25	26	27	28	29
	2954	0.07890889793634415	0.020734339952468872	0.03146946057677269	0.0	0.0	0.0	-0.0034436271525919437	1.0023587942123413	0.0019764122553169727	0.0	1.0	-1.0	13	14	15	16	17	18	19	20	21	22	23	24	25	26	27	28	29
	2964	0.07895871251821518	0.020690109580755234	0.03149911388754845	0.0	0.0	0.0	-0.0034305057488381863	1.0024209022521973	0.0019245438743382692	0.0	1.0	-1.0	13	14	15	16	17	18	19	20	21	22	23	24	25	26	27	28	29
	2974	0.0790448859333992	0.02068524993956089	0.031551189720630646	0.0	0.0	0.0	-0.00343157141469419	1.002500057220459	0.0018726096022874117	0.0	1.0	-1.0	13	14	15	16	17	18	19	20	21	22	23	24	25	26	27	28	29
