Time 	ROLL_ID 	PITCH_ID 	YAW_ID 	DES_ROLL_ID 	DES_PITCH_ID 	DES_YAW_ID 	POS_X_ID 	POS_Y_ID 	POS_Z_ID 	DES_POS_X_ID 	DES_POS_Y_ID 	DES_POS_Z_ID 	FORCE_X_DES_ID 	FORCE_Y_DES_ID 	FORCE_Z_DES_ID 	TORQUE_ROLL_DES_ID 	TORQUE_PITCH_DES_ID 	TORQUE_YAW_DES_ID 	PWM1_ID 	PWM2_ID 	PWM3_ID 	PWM4_ID 	PWM5_ID 	PWM6_ID 	PWM7_ID 	PWM8_ID 	PWM9_ID 	PWM10_ID 	PWM11_ID 	PWM12_ID 		0	0.0	2	3	4	5	6	7	8	9	10	11	12	13	14	15	16	17	18	19	20	21	22	23	24	25	26	27	28	29
	83	0.1808137148618698	0.0	0.0	0.0	0.0	0.0	0.0	0.0	0.0	0.0	1.0	-1.0	13	14	15	16	17	18	19	20	21	22	23	24	25	26	27	28	29
	93	0.18088878691196442	0.05149306729435921	0.2733190357685089	0.0	0.0	0.0	-0.0072183506563305855	1.005683422088623	0.0017985948361456394	0.0	1.0	-1.0	13	14	15	16	17	18	19	20	21	22	23	24	25	26	27	28	29
	104	0.18099607527256012	0.05151322856545448	0.2733535170555115	0.0	0.0	0.0	-0.007200662046670914	1.0056767463684082	0.0017948099412024021	0.0	1.0	-1.0	13	14	15	16	17	18	19	20	21	22	23	24	25	26	27	28	29
	114	0.18101105093955994	0.0515487901866436	0.27342385053634644	0.0	0.0	0.0	-0.007319133263081312	1.0057766437530518	0.0018082414753735065	0.0	1.0	-1.0	13	14	15	16	17	18	19	20	21	22	23	24	25	26	27	28	29
	124	0.18101434409618378	0.051576677709817886	0.2733788788318634	0.0	0.0	0.0	-0.007289954926818609	1.0057605504989624	0.0018032494699582458	0.0	1.0	-1.0	13	14	15	16	17	18	19	20	21	22	23	24	25	26	27	28	29
	134	0.18100857734680176	0.051662005484104156	0.2734261453151703	0.0	0.0	0.0	-0.00730377621948719	1.005780816078186	0.0018030344508588314	0.0	1.0	-1.0	13	14	15	16	17	18	19	20	21	22	23	24	25	26	27	28	29
	144	0.1786070466041565	0.05171719938516617	0.27344614267349243	0.0	0.0	0.0	-0.0072532580234110355	1.0057464838027954	0.0017954426584765315	0.0	1.0	-1.0	13	14	15	16	17	18	19	20	21	22	23	24	25	26	27	28	29
	154	0.17864210903644562	0.051682550460100174	0.2735059857368469	0.0	0.0	0.0	-0.007226981688290834	1.00569748878479	0.0018159655155614018	0.0	1.0	-1.0	13	14	15	16	17	18	19	20	21	22	23	24	25	26	27	28	29
	164	0.1787489652633667	0.051707737147808075	0.27357354760169983	0.0	0.0	0.0	-0.007266992703080177	1.0056777000427246	0.0018630244303494692	0.0	1.0	-1.0	13	14	15	16	17	18	19	20	21	22	23	24	25	26	27	28	29
	174	0.1787991225719452	0.05175929144024849	0.2736242115497589	0.0	0.0	0.0	-0.007362253498286009	1.005725383758545	0.0018974894192069769	0.0	1.0	-1.0	13	14	15	16	17	18	19	20	21	22	23	24	25	26	27	28	29
	184	0.17888015508651733	0.05179142951965332	0.2735961675643921	0.0	0.0	0.0	-0.007331816945225	1.0056668519973755	0.0019218227826058865	0.0	1.0	-1.0	13	14	15	16	17	18	19	20	21	22	23	24	25	26	27	28	29
	194	0.178963765501976	0.05180259421467781	0.27354589104652405	0.0	0.0	0.0	-0.00727273803204298	1.005596399307251	0.00193391356151551	0.0	1.0	-1.0	13	14	15	16	17	18	19	20	21	22	23	24	25	26	27	28	29
	204	0.17900213599205017	0.05180776119232178	0.2735982835292816	0.0	0.0	0.0	-0.007274169474840164	1.0055526494979858	0.001970761688426137	0.0	1.0	-1.0	13	14	15	16	17	18	19	20	21	22	23	24	25	26	27	28	29
	214	0.17907403409481049	0.05174870416522026	0.2735789716243744	0.0	0.0	0.0	-0.007357219234108925	1.0055944919586182	0.002000847365707159	0.0	1.0	-1.0	13	14	15	16	17	18	19	20	21	22	23	24	25	26	27	28	29
	224	0.1790720820426941	0.05179635435342789	0.2736149728298187	0.0	0.0	0.0	-0.007329871878027916	1.0055391788482666	0.0020251551177352667	0.0	1.0	-1.0	13	14	15	16	17	18	19	20	21	22	23	24	25	26	27	28	29
	234	0.1792161762714386	0.051828425377607346	0.2736418843269348	0.0	0.0	0.0	-0.0073098973371088505	1.0054899454116821	0.002050111535936594	0.0	1.0	-1.0	13	14	15	16	17	18	19	20	21	22	23	24	25	26	27	28	29
	245	0.1792272925376892	0.05183855816721916	0.273637056350708	0.0	0.0	0.0	-0.007314199581742287	1.0054492950439453	0.0020864936523139477	0.0	1.0	-1.0	13	14	15	16	17	18	19	20	21	22	23	24	25	26	27	28	29
	255	0.1792304813861847	0.05178136005997658	0.2736026346683502	0.0	0.0	0.0	-0.007314002141356468	1.0054090023040771	0.002119277138262987	0.0	1.0	-1.0	13	14	15	16	17	18	19	20	21	22	23	24	25	26	27	28	29
	265	0.17921683192253113	0.05191599205136299	0.27364835143089294	0.0	0.0	0.0	-0.007273422088474035	1.0053504705429077	0.0021356288343667984	0.0	1.0	-1.0	13	14	15	16	17	18	19	20	21	22	23	24	25	26	27	28	29
	275	0.17922990024089813	0.05191577598452568	0.2737114727497101	0.0	0.0	0.0	-0.007392420899122953	1.00541090965271	0.0021784112323075533	0.0	1.0	-1.0	13	14	15	16	17	18	19	20	21	22	23	24	25	26	27	28	29
	285	0.17927317321300507	0.051879025995731354	0.273636132478714	0.0	0.0	0.0	-0.007364052347838879	1.0053552389144897	0.0022017338778823614	0.0	1.0	-1.0	13	14	15	16	17	18	19	20	21	22	23	24	25	26	27	28	29
	295	0.17931772768497467	0.05196260288357735	0.2736314833164215	0.0	0.0	0.0	-0.007342667784541845	1.005305290222168	0.0022256234660744667	0.0	1.0	-1.0	13	14	15	16	17	18	19	20	21	22	23	24	25	26	27	28	29
	305	0.179470956325531	0.05198300629854202	0.27363649010658264	0.0	0.0	0.0	-0.007402264978736639	1.0053356885910034	0.0022468508686870337	0.0	1.0	-1.0	13	14	15	16	17	18	19	20	21	22	23	24	25	26	27	28	29
	315	0.17950962483882904	0.052015189081430435	0.27377402782440186	0.0	0.0	0.0	-0.0073020244017243385	1.0052082538604736	0.002272771205753088	0.0	1.0	-1.0	13	14	15	16	17	18	19	20	21	22	23	24	25	26	27	28	29
	325	0.17960220575332642	0.052019841969013214	0.2737278938293457	0.0	0.0	0.0	-0.0073852683417499065	1.0052508115768433	0.002302380045875907	0.0	1.0	-1.0	13	14	15	16	17	18	19	20	21	22	23	24	25	26	27	28	29
	335	0.1796015352010727	0.05200589820742607	0.27367886900901794	0.0	0.0	0.0	-0.007408088073134422	1.0052205324172974	0.0023442215751856565	0.0	1.0	-1.0	13	14	15	16	17	18	19	20	21	22	23	24	25	26	27	28	29
	345	0.17964206635951996	0.05204509198665619	0.27367961406707764	0.0	0.0	0.0	-0.007318930234760046	1.005135178565979	0.002344692125916481	0.0	1.0	-1.0	13	14	15	16	17	18	19	20	21	22	23	24	25	26	27	28	29
	355	0.1796797513961792	0.052049070596694946	0.27371522784233093	0.0	0.0	0.0	-0.007296829018741846	1.0050864219665527	0.002367068314924836	0.0	1.0	-1.0	13	14	15	16	17	18	19	20	21	22	23	24	25	26	27	28	29
	365	0.17972303926944733	0.05202058330178261	0.27373331785202026	0.0	0.0	0.0	-0.007415918167680502	1.0051476955413818	0.0024092900566756725	0.0	1.0	-1.0	13	14	15	16	17	18	19	20	21	22	23	24	25	26	27	28	29
	375	0.17976269125938416	0.05201487988233566	0.27373093366622925	0.0	0.0	0.0	-0.007418099790811539	1.005109190940857	0.002442366210743785	0.0	1.0	-1.0	13	14	15	16	17	18	19	20	21	22	23	24	25	26	27	28	29
	385	0.17975932359695435	0.05204726383090019	0.2736770212650299	0.0	0.0	0.0	-0.0073920320719480515	1.0050582885742188	0.0024634776636958122	0.0	1.0	-1.0	13	14	15	16	17	18	19	20	21	22	23	24	25	26	27	28	29
	396	0.1797882616519928	0.05199357494711876	0.2736087739467621	0.0	0.0	0.0	-0.007337228860706091	1.0049947500228882	0.002472772728651762	0.0	1.0	-1.0	13	14	15	16	17	18	19	20	21	22	23	24	25	26	27	28	29
	406	0.17977696657180786	0.05197292938828468	0.2735520601272583	0.0	0.0	0.0	-0.007307009771466255	1.004941701889038	0.002492492087185383	0.0	1.0	-1.0	13	14	15	16	17	18	19	20	21	22	23	24	25	26	27	28	29
	416	0.17981919646263123	0.05196451395750046	0.27350494265556335	0.0	0.0	0.0	-0.007319511380046606	1.0049128532409668	0.0025256751105189323	0.0	1.0	-1.0	13	14	15	16	17	18	19	20	21	22	23	24	25	26	27	28	29
	426	0.1798378825187683	0.05198351666331291	0.27355536818504333	0.0	0.0	0.0	-0.007309259381145239	1.0048705339431763	0.002552634570747614	0.0	1.0	-1.0	13	14	15	16	17	18	19	20	21	22	23	24	25	26	27	28	29
	436	0.17982399463653564	0.05196111276745796	0.2734803259372711	0.0	0.0	0.0	-0.007428712211549282	1.0049327611923218	0.002594701014459133	0.0	1.0	-1.0	13	14	15	16	17	18	19	20	21	22	23	24	25	26	27	28	29
	446	0.17994004487991333	0.05193942040205002	0.2734888195991516	0.0	0.0	0.0	-0.007377938833087683	1.0048713684082031	0.0026056834030896425	0.0	1.0	-1.0	13	14	15	16	17	18	19	20	21	22	23	24	25	26	27	28	29
	456	0.18003979325294495	0.0520026721060276	0.2735409438610077	0.0	0.0	0.0	-0.007358521223068237	1.004828691482544	0.0026258600410073996	0.0	1.0	-1.0	13	14	15	16	17	18	19	20	21	22	23	24	25	26	27	28	29
	466	0.1800166666507721	0.051988620311021805	0.273554265499115	0.0	0.0	0.0	-0.007442413363605738	1.0048726797103882	0.0026551526971161366	0.0	1.0	-1.0	13	14	15	16	17	18	19	20	21	22	23	24	25	26	27	28	29
	476	0.18003426492214203	0.0520024448633194	0.27354007959365845	0.0	0.0	0.0	-0.0074472324922680855	1.0048410892486572	0.0026853468734771013	0.0	1.0	-1.0	13	14	15	16	17	18	19	20	21	22	23	24	25	26	27	28	29
	486	0.18001118302345276	0.05213456600904465	0.2735084891319275	0.0	0.0	0.0	-0.007423364091664553	1.0047966241836548	0.0027038611005991697	0.0	1.0	-1.0	13	14	15	16	17	18	19	20	21	22	23	24	25	26	27	28	29
	496	0.18004800379276276	0.05211059749126434	0.2735668420791626	0.0	0.0	0.0	-0.00743037648499012	1.0047703981399536	0.0027316613122820854	0.0	1.0	-1.0	13	14	15	16	17	18	19	20	21	22	23	24	25	26	27	28	29
	506	0.18006978929042816	0.05208129808306694	0.27358278632164	0.0	0.0	0.0	-0.007401697803288698	1.0047237873077393	0.0027485834434628487	0.0	1.0	-1.0	13	14	15	16	17	18	19	20	21	22	23	24	25	26	27	28	29
	516	0.18019579350948334	0.05205757915973663	0.27358993887901306	0.0	0.0	0.0	-0.007356241345405579	1.0046701431274414	0.002758011920377612	0.0	1.0	-1.0	13	14	15	16	17	18	19	20	21	22	23	24	25	26	27	28	29
	526	0.18025031685829163	0.0520608052611351	0.2736435532569885	0.0	0.0	0.0	-0.007476163562387228	1.0047340393066406	0.0027994581032544374	0.0	1.0	-1.0	13	14	15	16	17	18	19	20	21	22	23	24	25	26	27	28	29
	536	0.18031615018844604	0.05208808183670044	0.2736305594444275	0.0	0.0	0.0	-0.007443402893841267	1.0046857595443726	0.0028145688120275736	0.0	1.0	-1.0	13	14	15	16	17	18	19	20	21	22	23	24	25	26	27	28	29
	547	0.18039444088935852	0.052089765667915344	0.2735941410064697	0.0	0.0	0.0	-0.007441958412528038	1.0046560764312744	0.002838961547240615	0.0	1.0	-1.0	13	14	15	16	17	18	19	20	21	22	23	24	25	26	27	28	29
	557	0.18048261106014252	0.05212508887052536	0.2736171782016754	0.0	0.0	0.0	-0.007423649542033672	1.0046194791793823	0.002855986123904586	0.0	1.0	-1.0	13	14	15	16	17	18	19	20	21	22	23	24	25	26	27	28	29
	567	0.1805168241262436	0.05209941789507866	0.27359411120414734	0.0	0.0	0.0	-0.007393403444439173	1.0045750141143799	0.002870286349207163	0.0	1.0	-1.0	13	14	15	16	17	18	19	20	21	22	23	24	25	26	27	28	29
	577	0.18058624863624573	0.05202194303274155	0.27357780933380127	0.0	0.0	0.0	-0.00745336152613163	1.0046072006225586	0.0028909367974847555	0.0	1.0	-1.0	13	14	15	16	17	18	19	20	21	22	23	24	25	26	27	28	29
	587	0.18063755333423615	0.05209468677639961	0.2735927104949951	0.0	0.0	0.0	-0.007490587420761585	1.004601240158081	0.0029269300866872072	0.0	1.0	-1.0	13	14	15	16	17	18	19	20	21	22	23	24	25	26	27	28	29
	597	0.180776447057724	0.0520731657743454	0.27367347478866577	0.0	0.0	0.0	-0.007474544458091259	1.004568338394165	0.0029432144947350025	0.0	1.0	-1.0	13	14	15	16	17	18	19	20	21	22	23	24	25	26	27	28	29
	607	0.18080970644950867	0.05214983969926834	0.27364036440849304	0.0	0.0	0.0	-0.007446509785950184	1.0045280456542969	0.002956485142931342	0.0	1.0	-1.0	13	14	15	16	17	18	19	20	21	22	23	24	25	26	27	28	29
	617	0.1808847337961197	0.05215570330619812	0.27368390560150146	0.0	0.0	0.0	-0.00742545910179615	1.0044933557510376	0.0029706191271543503	0.0	1.0	-1.0	13	14	15	16	17	18	19	20	21	22	23	24	25	26	27	28	29
	627	0.1810024529695511	0.05217117443680763	0.2736740708351135	0.0	0.0	0.0	-0.007521586958318949	1.0045461654663086	0.0030032601207494736	0.0	1.0	-1.0	13	14	15	16	17	18	19	20	21	22	23	24	25	26	27	28	29
	637	0.1810699850320816	0.052203573286533356	0.27376532554626465	0.0	0.0	0.0	-0.0075315129943192005	1.0045307874679565	0.003026309423148632	0.0	1.0	-1.0	13	14	15	16	17	18	19	20	21	22	23	24	25	26	27	28	29
	647	0.18114246428012848	0.05220973864197731	0.27381882071495056	0.0	0.0	0.0	-0.007504599634557962	1.0044941902160645	0.003038247814401984	0.0	1.0	-1.0	13	14	15	16	17	18	19	20	21	22	23	24	25	26	27	28	29
	657	0.18112356960773468	0.05218943953514099	0.2738190293312073	0.0	0.0	0.0	-0.007485079113394022	1.00446355342865	0.003051126841455698	0.0	1.0	-1.0	13	14	15	16	17	18	19	20	21	22	23	24	25	26	27	28	29
	668	0.18117274343967438	0.05218002200126648	0.2739031910896301	0.0	0.0	0.0	-0.00745348259806633	1.0044256448745728	0.0030611089896410704	0.0	1.0	-1.0	13	14	15	16	17	18	19	20	21	22	23	24	25	26	27	28	29
	678	0.18127267062664032	0.05213230103254318	0.2738584876060486	0.0	0.0	0.0	-0.0074293361976742744	1.0043935775756836	0.003072188701480627	0.0	1.0	-1.0	13	14	15	16	17	18	19	20	21	22	23	24	25	26	27	28	29
	688	0.1813284158706665	0.052131760865449905	0.2738097310066223	0.0	0.0	0.0	-0.007525259628891945	1.0044478178024292	0.003104395465925336	0.0	1.0	-1.0	13	14	15	16	17	18	19	20	21	22	23	24	25	26	27	28	29
	698	0.18143048882484436	0.05210758000612259	0.27381423115730286	0.0	0.0	0.0	-0.0075317686423659325	1.0044350624084473	0.003124321810901165	0.0	1.0	-1.0	13	14	15	16	17	18	19	20	21	22	23	24	25	26	27	28	29
	708	0.18146657943725586	0.05210082232952118	0.2738502323627472	0.0	0.0	0.0	-0.007502012420445681	1.0044009685516357	0.0031331880018115044	0.0	1.0	-1.0	13	14	15	16	17	18	19	20	21	22	23	24	25	26	27	28	29
	718	0.18153052031993866	0.0521000437438488	0.27383074164390564	0.0	0.0	0.0	-0.0074792043305933475	1.0043725967407227	0.003143187379464507	0.0	1.0	-1.0	13	14	15	16	17	18	19	20	21	22	23	24	25	26	27	28	29
	728	0.18163402378559113	0.05209460109472275	0.2738747000694275	0.0	0.0	0.0	-0.007575116120278835	1.0044279098510742	0.0031751131173223257	0.0	1.0	-1.0	13	14	15	16	17	18	19	20	21	22	23	24	25	26	27	28	29
	738	0.18178191781044006	0.05212388560175896	0.2738361656665802	0.0	0.0	0.0	-0.007559465244412422	1.0044053792953491	0.003185981186106801	0.0	1.0	-1.0	13	14	15	16	17	18	19	20	21	22	23	24	25	26	27	28	29
	748	0.18182829022407532	0.052111562341451645	0.27381032705307007	0.0	0.0	0.0	-0.007555006071925163	1.004388689994812	0.0032016003970056772	0.0	1.0	-1.0	13	14	15	16	17	18	19	20	21	22	23	24	25	26	27	28	29
	758	0.18193171918392181	0.05214207246899605	0.27381351590156555	0.0	0.0	0.0	-0.0075099472887814045	1.004349708557129	0.0032025319524109364	0.0	1.0	-1.0	13	14	15	16	17	18	19	20	21	22	23	24	25	26	27	28	29
	768	0.18213903903961182	0.052143171429634094	0.2738763093948364	0.0	0.0	0.0	-0.007495798636227846	1.0043299198150635	0.0032124954741448164	0.0	1.0	-1.0	13	14	15	16	17	18	19	20	21	22	23	24	25	26	27	28	29
	778	0.18224476277828217	0.05217669531702995	0.273918092250824	0.0	0.0	0.0	-0.007528992835432291	1.0043376684188843	0.0032388032414019108	0.0	1.0	-1.0	13	14	15	16	17	18	19	20	21	22	23	24	25	26	27	28	29
	788	0.18230757117271423	0.052159570157527924	0.2738840579986572	0.0	0.0	0.0	-0.007613273337483406	1.0043872594833374	0.003266494255512953	0.0	1.0	-1.0	13	14	15	16	17	18	19	20	21	22	23	24	25	26	27	28	29
	798	0.18240056931972504	0.052098598331213	0.27389734983444214	0.0	0.0	0.0	-0.007593238726258278	1.0043654441833496	0.0032743862830102444	0.0	1.0	-1.0	13	14	15	16	17	18	19	20	21	22	23	24	25	26	27	28	29
	809	0.18246068060398102	0.05213013291358948	0.2738717496395111	0.0	0.0	0.0	-0.007537054363638163	1.0043219327926636	0.003271202091127634	0.0	1.0	-1.0	13	14	15	16	17	18	19	20	21	22	23	24	25	26	27	28	29
	819	0.1825319528579712	0.05207081139087677	0.2738288342952728	0.0	0.0	0.0	-0.007536184974014759	1.004312515258789	0.0032849102281033993	0.0	1.0	-1.0	13	14	15	16	17	18	19	20	21	22	23	24	25	26	27	28	29
	829	0.1825813502073288	0.052111946046352386	0.27385368943214417	0.0	0.0	0.0	-0.00751858064904809	1.0042941570281982	0.003291919594630599	0.0	1.0	-1.0	13	14	15	16	17	18	19	20	21	22	23	24	25	26	27	28	29
	839	0.1826622039079666	0.05215006694197655	0.2738741934299469	0.0	0.0	0.0	-0.007614800240844488	1.0043517351150513	0.003323167562484741	0.0	1.0	-1.0	13	14	15	16	17	18	19	20	21	22	23	24	25	26	27	28	29
	849	0.18279024958610535	0.052106570452451706	0.2739477753639221	0.0	0.0	0.0	-0.007608294486999512	1.0043402910232544	0.0033344803377985954	0.0	1.0	-1.0	13	14	15	16	17	18	19	20	21	22	23	24	25	26	27	28	29
	859	0.18295420706272125	0.05217012017965317	0.2739282250404358	0.0	0.0	0.0	-0.00758510222658515	1.0043197870254517	0.0033391728065907955	0.0	1.0	-1.0	13	14	15	16	17	18	19	20	21	22	23	24	25	26	27	28	29
	869	0.18304495513439178	0.0521794818341732	0.2738720774650574	0.0	0.0	0.0	-0.007568753324449062	1.00430428981781	0.0033451085910201073	0.0	1.0	-1.0	13	14	15	16	17	18	19	20	21	22	23	24	25	26	27	28	29
	879	0.18312816321849823	0.05220046266913414	0.27395907044410706	0.0	0.0	0.0	-0.007575757335871458	1.004302978515625	0.0033591731917113066	0.0	1.0	-1.0	13	14	15	16	17	18	19	20	21	22	23	24	25	26	27	28	29
	889	0.18317590653896332	0.05216887965798378	0.27394118905067444	0.0	0.0	0.0	-0.007660178933292627	1.0043543577194214	0.0033861480187624693	0.0	1.0	-1.0	13	14	15	16	17	18	19	20	21	22	23	24	25	26	27	28	29
	899	0.18318642675876617	0.05219941586256027	0.2739546298980713	0.0	0.0	0.0	-0.00763799948617816	1.0043367147445679	0.003389845136553049	0.0	1.0	-1.0	13	14	15	16	17	18	19	20	21	22	23	24	25	26	27	28	29
	909	0.18326398730278015	0.052223388105630875	0.27398791909217834	0.0	0.0	0.0	-0.0076230489648878574	1.0043243169784546	0.0033947390038520098	0.0	1.0	-1.0	13	14	15	16	17	18	19	20	21	22	23	24	25	26	27	28	29
	919	0.1833404004573822	0.05222271755337715	0.27395302057266235	0.0	0.0	0.0	-0.007630855310708284	1.0043259859085083	0.0034073865972459316	0.0	1.0	-1.0	13	14	15	16	17	18	19	20	21	22	23	24	25	26	27	28	29
	929	0.18349970877170563	0.05222475528717041	0.2739552855491638	0.0	0.0	0.0	-0.00760988425463438	1.004310965538025	0.0034099214244633913	0.0	1.0	-1.0	13	14	15	16	17	18	19	20	21	22	23	24	25	26	27	28	29
	940	0.18361586332321167	0.052221886813640594	0.2739892899990082	0.0	0.0	0.0	-0.007595798932015896	1.0043010711669922	0.003413683967664838	0.0	1.0	-1.0	13	14	15	16	17	18	19	20	21	22	23	24	25	26	27	28	29
	950	0.18374140560626984	0.052226386964321136	0.27401259541511536	0.0	0.0	0.0	-0.007680244278162718	1.0043537616729736	0.0034400401636958122	0.0	1.0	-1.0	13	14	15	16	17	18	19	20	21	22	23	24	25	26	27	28	29
	960	0.18382878601551056	0.05218427628278732	0.2739957571029663	0.0	0.0	0.0	-0.00765277910977602	1.0043361186981201	0.0034401423763483763	0.0	1.0	-1.0	13	14	15	16	17	18	19	20	21	22	23	24	25	26	27	28	29
	970	0.1839979588985443	0.05217627063393593	0.27396249771118164	0.0	0.0	0.0	-0.007632328197360039	1.0043236017227173	0.003441523527726531	0.0	1.0	-1.0	13	14	15	16	17	18	19	20	21	22	23	24	25	26	27	28	29
	980	0.18405966460704803	0.0521559864282608	0.2739681601524353	0.0	0.0	0.0	-0.007679434027522802	1.00435471534729	0.0034626831766217947	0.0	1.0	-1.0	13	14	15	16	17	18	19	20	21	22	23	24	25	26	27	28	29
	990	0.18413002789020538	0.052203841507434845	0.27404066920280457	0.0	0.0	0.0	-0.007628098130226135	1.0043237209320068	0.0034541368950158358	0.0	1.0	-1.0	13	14	15	16	17	18	19	20	21	22	23	24	25	26	27	28	29
	1000	0.18414661288261414	0.052192799746990204	0.2740594744682312	0.0	0.0	0.0	-0.007712699007242918	1.0043774843215942	0.0034800563007593155	0.0	1.0	-1.0	13	14	15	16	17	18	19	20	21	22	23	24	25	26	27	28	29
	1010	0.18415983021259308	0.05219721794128418	0.27412840723991394	0.0	0.0	0.0	-0.007692770566791296	1.0043672323226929	0.0034801734145730734	0.0	1.0	-1.0	13	14	15	16	17	18	19	20	21	22	23	24	25	26	27	28	29
	1020	0.18423759937286377	0.05219833180308342	0.27416807413101196	0.0	0.0	0.0	-0.007659869268536568	1.0043489933013916	0.0034767368342727423	0.0	1.0	-1.0	13	14	15	16	17	18	19	20	21	22	23	24	25	26	27	28	29
	1030	0.1843334138393402	0.05221622437238693	0.2741456627845764	0.0	0.0	0.0	-0.007634633686393499	1.0043362379074097	0.003474700264632702	0.0	1.0	-1.0	13	14	15	16	17	18	19	20	21	22	23	24	25	26	27	28	29
	1040	0.18441367149353027	0.05218507722020149	0.27422046661376953	0.0	0.0	0.0	-0.007652735337615013	1.0043522119522095	0.0034846318885684013	0.0	1.0	-1.0	13	14	15	16	17	18	19	20	21	22	23	24	25	26	27	28	29
	1050	0.18445204198360443	0.05222779139876366	0.2742172181606293	0.0	0.0	0.0	-0.0077742659486830235	1.004431128501892	0.0035207185428589582	0.0	1.0	-1.0	13	14	15	16	17	18	19	20	21	22	23	24	25	26	27	28	29
	1060	0.184457927942276	0.052197277545928955	0.27427417039871216	0.0	0.0	0.0	-0.007742865011096001	1.00441575050354	0.0035159653052687645	0.0	1.0	-1.0	13	14	15	16	17	18	19	20	21	22	23	24	25	26	27	28	29
	1071	0.18458861112594604	0.05216824635863304	0.27430737018585205	0.0	0.0	0.0	-0.007682283408939838	1.004381775856018	0.0035019489005208015	0.0	1.0	-1.0	13	14	15	16	17	18	19	20	21	22	23	24	25	26	27	28	29
	1081	0.18465636670589447	0.052192572504282	0.27437683939933777	0.0	0.0	0.0	-0.007665483746677637	1.004376769065857	0.0035000471398234367	0.0	1.0	-1.0	13	14	15	16	17	18	19	20	21	22	23	24	25	26	27	28	29
	1091	0.18480628728866577	0.05224436894059181	0.27446481585502625	0.0	0.0	0.0	-0.007787142414599657	1.0044565200805664	0.0035354194696992636	0.0	1.0	-1.0	13	14	15	16	17	18	19	20	21	22	23	24	25	26	27	28	29
	1101	0.18487577140331268	0.052311912178993225	0.27458009123802185	0.0	0.0	0.0	-0.007793286815285683	1.0044671297073364	0.0035401389468461275	0.0	1.0	-1.0	13	14	15	16	17	18	19	20	21	22	23	24	25	26	27	28	29
	1111	0.1849491149187088	0.05226732790470123	0.2745610475540161	0.0	0.0	0.0	-0.007733739446848631	1.0044349431991577	0.0035252482630312443	0.0	1.0	-1.0	13	14	15	16	17	18	19	20	21	22	23	24	25	26	27	28	29
	1121	0.18502597510814667	0.0523683987557888	0.27456969022750854	0.0	0.0	0.0	-0.0077178627252578735	1.0044317245483398	0.0035222861915826797	0.0	1.0	-1.0	13	14	15	16	17	18	19	20	21	22	23	24	25	26	27	28	29
	1131	0.18513327836990356	0.05239690840244293	0.27467578649520874	0.0	0.0	0.0	-0.0076884119771420956	1.0044199228286743	0.0035156153608113527	0.0	1.0	-1.0	13	14	15	16	17	18	19	20	21	22	23	24	25	26	27	28	29
	1141	0.18517829477787018	0.05238906666636467	0.2746700942516327	0.0	0.0	0.0	-0.007707508280873299	1.004441261291504	0.0035230042412877083	0.0	1.0	-1.0	13	14	15	16	17	18	19	20	21	22	23	24	25	26	27	28	29
	1151	0.18520571291446686	0.0523911751806736	0.27469831705093384	0.0	0.0	0.0	-0.007805020082741976	1.0045067071914673	0.0035506573040038347	0.0	1.0	-1.0	13	14	15	16	17	18	19	20	21	22	23	24	25	26	27	28	29
	1161	0.18524208664894104	0.05234475061297417	0.27461960911750793	0.0	0.0	0.0	-0.007771177217364311	1.0044934749603271	0.003542086109519005	0.0	1.0	-1.0	13	14	15	16	17	18	19	20	21	22	23	24	25	26	27	28	29
	1171	0.18532194197177887	0.05229100584983826	0.27455949783325195	0.0	0.0	0.0	-0.007708142977207899	1.0044605731964111	0.0035248450003564358	0.0	1.0	-1.0	13	14	15	16	17	18	19	20	21	22	23	24	25	26	27	28	29
	1181	0.18541429936885834	0.05225653573870659	0.2745766043663025	0.0	0.0	0.0	-0.007669744081795216	1.0044447183609009	0.0035145317669957876	0.0	1.0	-1.0	13	14	15	16	17	18	19	20	21	22	23	24	25	26	27	28	29
	1191	0.18546827137470245	0.05221593379974365	0.27454331517219543	0.0	0.0	0.0	-0.007675139233469963	1.0044589042663574	0.0035159275867044926	0.0	1.0	-1.0	13	14	15	16	17	18	19	20	21	22	23	24	25	26	27	28	29
	1201	0.18550965189933777	0.05209564417600632	0.27450117468833923	0.0	0.0	0.0	-0.007675748318433762	1.0044704675674438	0.003515463788062334	0.0	1.0	-1.0	13	14	15	16	17	18	19	20	21	22	23	24	25	26	27	28	29
	1212	0.18556594848632812	0.0520741306245327	0.27453407645225525	0.0	0.0	0.0	-0.007773177232593298	1.0045372247695923	0.003542404156178236	0.0	1.0	-1.0	13	14	15	16	17	18	19	20	21	22	23	24	25	26	27	28	29
	1222	0.1856604367494583	0.05204232782125473	0.27451643347740173	0.0	0.0	0.0	-0.007760831620544195	1.0045411586761475	0.0035382292699068785	0.0	1.0	-1.0	13	14	15	16	17	18	19	20	21	22	23	24	25	26	27	28	29
	1232	0.18573129177093506	0.05207682028412819	0.27451369166374207	0.0	0.0	0.0	-0.007731823716312647	1.0045337677001953	0.0035288564395159483	0.0	1.0	-1.0	13	14	15	16	17	18	19	20	21	22	23	24	25	26	27	28	29
	1242	0.1857566088438034	0.05203763023018837	0.27449241280555725	0.0	0.0	0.0	-0.007685686927288771	1.004514455795288	0.0035143860150128603	0.0	1.0	-1.0	13	14	15	16	17	18	19	20	21	22	23	24	25	26	27	28	29
	1252	0.18579931557178497	0.05201074481010437	0.274578332901001	0.0	0.0	0.0	-0.007675599306821823	1.0045206546783447	0.003509639762341976	0.0	1.0	-1.0	13	14	15	16	17	18	19	20	21	22	23	24	25	26	27	28	29
	1262	0.18585151433944702	0.05204933136701584	0.2745771110057831	0.0	0.0	0.0	-0.007773186080157757	1.0045887231826782	0.0035357901360839605	0.0	1.0	-1.0	13	14	15	16	17	18	19	20	21	22	23	24	25	26	27	28	29
	1272	0.18590396642684937	0.05202140286564827	0.2745266556739807	0.0	0.0	0.0	-0.007690655533224344	1.0045453310012817	0.0035113210324198008	0.0	1.0	-1.0	13	14	15	16	17	18	19	20	21	22	23	24	25	26	27	28	29
	1282	0.18592581152915955	0.051975101232528687	0.27443569898605347	0.0	0.0	0.0	-0.007689174264669418	1.004558801651001	0.003508031601086259	0.0	1.0	-1.0	13	14	15	16	17	18	19	20	21	22	23	24	25	26	27	28	29
	1292	0.1859401911497116	0.05194422975182533	0.27436062693595886	0.0	0.0	0.0	-0.007682785391807556	1.0045689344406128	0.0035029901191592216	0.0	1.0	-1.0	13	14	15	16	17	18	19	20	21	22	23	24	25	26	27	28	29
	1302	0.18595406413078308	0.05202341079711914	0.2744182348251343	0.0	0.0	0.0	-0.007640647701919079	1.0045546293258667	0.003488164860755205	0.0	1.0	-1.0	13	14	15	16	17	18	19	20	21	22	23	24	25	26	27	28	29
	1312	0.1859530806541443	0.05202585086226463	0.27437251806259155	0.0	0.0	0.0	-0.007762367837131023	1.0046411752700806	0.003519800491631031	0.0	1.0	-1.0	13	14	15	16	17	18	19	20	21	22	23	24	25	26	27	28	29
	1322	0.18598207831382751	0.05200440064072609	0.27435073256492615	0.0	0.0	0.0	-0.007703117094933987	1.0046148300170898	0.003500154009088874	0.0	1.0	-1.0	13	14	15	16	17	18	19	20	21	22	23	24	25	26	27	28	29
	1332	0.18604975938796997	0.05195446312427521	0.27433913946151733	0.0	0.0	0.0	-0.007676014211028814	1.0046114921569824	0.0034883779007941484	0.0	1.0	-1.0	13	14	15	16	17	18	19	20	21	22	23	24	25	26	27	28	29
	1342	0.18613530695438385	0.05191437900066376	0.2742920517921448	0.0	0.0	0.0	-0.007761318702250719	1.0046727657318115	0.0035101426765322685	0.0	1.0	-1.0	13	14	15	16	17	18	19	20	21	22	23	24	25	26	27	28	29
	1352	0.1848769336938858	0.05188152566552162	0.2742063105106354	0.0	0.0	0.0	-0.0076292697340250015	1.004611849784851	0.0034659707453101873	0.0	1.0	-1.0	13	14	15	16	17	18	19	20	21	22	23	24	25	26	27	28	29
	1363	0.18489284813404083	0.05189947038888931	0.27415230870246887	0.0	0.0	0.0	-0.007750985212624073	1.0047138929367065	0.0034856009297072887	0.0	1.0	-1.0	13	14	15	16	17	18	19	20	21	22	23	24	25	26	27	28	29
	1373	0.18490706384181976	0.05193953961133957	0.2741808295249939	0.0	0.0	0.0	-0.007726682815700769	1.0047528743743896	0.0034421945456415415	0.0	1.0	-1.0	13	14	15	16	17	18	19	20	21	22	23	24	25	26	27	28	29
	1383	0.1849692463874817	0.051923420280218124	0.27413225173950195	0.0	0.0	0.0	-0.007690108381211758	1.0047838687896729	0.003395441686734557	0.0	1.0	-1.0	13	14	15	16	17	18	19	20	21	22	23	24	25	26	27	28	29
	1393	0.18503323197364807	0.051873836666345596	0.27415159344673157	0.0	0.0	0.0	-0.007660842966288328	1.0048201084136963	0.003350268118083477	0.0	1.0	-1.0	13	14	15	16	17	18	19	20	21	22	23	24	25	26	27	28	29
	1403	0.18512879312038422	0.051920004189014435	0.2741219103336334	0.0	0.0	0.0	-0.0077172438614070415	1.004952073097229	0.0033005259465426207	0.0	1.0	-1.0	13	14	15	16	17	18	19	20	21	22	23	24	25	26	27	28	29
	1413	0.18512879312038422	0.051970310509204865	0.27405494451522827	0.0	0.0	0.0	-0.007708000019192696	1.005012035369873	0.0032533451449126005	0.0	1.0	-1.0	13	14	15	16	17	18	19	20	21	22	23	24	25	26	27	28	29
	1423	0.18528133630752563	0.051970310509204865	0.27405494451522827	0.0	0.0	0.0	-0.007682031020522118	1.005051612854004	0.0032082570251077414	0.0	1.0	-1.0	13	14	15	16	17	18	19	20	21	22	23	24	25	26	27	28	29
	1433	0.18539738655090332	0.051917556673288345	0.274089515209198	0.0	0.0	0.0	-0.007682031020522118	1.005051612854004	0.0032082570251077414	0.0	1.0	-1.0	13	14	15	16	17	18	19	20	21	22	23	24	25	26	27	28	29
	1443	0.18546855449676514	0.051965564489364624	0.27409470081329346	0.0	0.0	0.0	-0.007643862161785364	1.005082607269287	0.0031600778456777334	0.0	1.0	-1.0	13	14	15	16	17	18	19	20	21	22	23	24	25	26	27	28	29
	1453	0.18561305105686188	0.05190443992614746	0.2740265130996704	0.0	0.0	0.0	-0.0077110761776566505	1.0052236318588257	0.0031117203179746866	0.0	1.0	-1.0	13	14	15	16	17	18	19	20	21	22	23	24	25	26	27	28	29
	1463	0.18561305105686188	0.05195235833525658	0.27399930357933044	0.0	0.0	0.0	-0.007688019424676895	1.0052655935287476	0.0030667090322822332	0.0	1.0	-1.0	13	14	15	16	17	18	19	20	21	22	23	24	25	26	27	28	29
	1473	0.18566668033599854	0.05195235833525658	0.27399930357933044	0.0	0.0	0.0	-0.007688019424676895	1.0052655935287476	0.0030667090322822332	0.0	1.0	-1.0	13	14	15	16	17	18	19	20	21	22	23	24	25	26	27	28	29
	1484	0.18573975563049316	0.05191217362880707	0.27399390935897827	0.0	0.0	0.0	-0.007676867768168449	1.0053247213363647	0.00301829120144248	0.0	1.0	-1.0	13	14	15	16	17	18	19	20	21	22	23	24	25	26	27	28	29
	1494	0.18581920862197876	0.052014224231243134	0.2740098834037781	0.0	0.0	0.0	-0.007648767903447151	1.005362868309021	0.00297200377099216	0.0	1.0	-1.0	13	14	15	16	17	18	19	20	21	22	23	24	25	26	27	28	29
	1504	0.1858329474925995	0.05203346908092499	0.27413463592529297	0.0	0.0	0.0	-0.007664640434086323	1.0054460763931274	0.0029262369498610497	0.0	1.0	-1.0	13	14	15	16	17	18	19	20	21	22	23	24	25	26	27	28	29
	1514	0.18593834340572357	0.052067894488573074	0.27411624789237976	0.0	0.0	0.0	-0.007750125136226416	1.005538821220398	0.00292391050606966	0.0	1.0	-1.0	13	14	15	16	17	18	19	20	21	22	23	24	25	26	27	28	29
	1524	0.18603314459323883	0.05213949456810951	0.2740827798843384	0.0	0.0	0.0	-0.00769022386521101	1.0056118965148926	0.002830198733136058	0.0	1.0	-1.0	13	14	15	16	17	18	19	20	21	22	23	24	25	26	27	28	29
	1534	0.18608973920345306	0.05221940204501152	0.2740832269191742	0.0	0.0	0.0	-0.00769022386521101	1.0056118965148926	0.002830198733136058	0.0	1.0	-1.0	13	14	15	16	17	18	19	20	21	22	23	24	25	26	27	28	29
	1544	0.18619748950004578	0.05228964984416962	0.27417874336242676	0.0	0.0	0.0	-0.0077688912861049175	1.0057635307312012	0.0027823608834296465	0.0	1.0	-1.0	13	14	15	16	17	18	19	20	21	22	23	24	25	26	27	28	29
	1554	0.18619748950004578	0.052318867295980453	0.27414435148239136	0.0	0.0	0.0	-0.007650987710803747	1.005770206451416	0.002691821428015828	0.0	1.0	-1.0	13	14	15	16	17	18	19	20	21	22	23	24	25	26	27	28	29
	1564	0.18630562722682953	0.052318867295980453	0.27414435148239136	0.0	0.0	0.0	-0.007773339748382568	1.0059047937393188	0.0026872889138758183	0.0	1.0	-1.0	13	14	15	16	17	18	19	20	21	22	23	24	25	26	27	28	29
	1574	0.1863490641117096	0.05241457745432854	0.2741806209087372	0.0	0.0	0.0	-0.007756285835057497	1.0059500932693481	0.0026432513259351254	0.0	1.0	-1.0	13	14	15	16	17	18	19	20	21	22	23	24	25	26	27	28	29
	1584	0.1864490807056427	0.05241825059056282	0.27416837215423584	0.0	0.0	0.0	-0.007689373102039099	1.0059438943862915	0.002598462626338005	0.0	1.0	-1.0	13	14	15	16	17	18	19	20	21	22	23	24	25	26	27	28	29
	1594	0.1864686757326126	0.05248638615012169	0.2742580473423004	0.0	0.0	0.0	-0.007642792537808418	1.0059571266174316	0.002554945880547166	0.0	1.0	-1.0	13	14	15	16	17	18	19	20	21	22	23	24	25	26	27	28	29
	1604	0.18646977841854095	0.052507564425468445	0.2742612361907959	0.0	0.0	0.0	-0.007632626686245203	1.0060138702392578	0.0025072565767914057	0.0	1.0	-1.0	13	14	15	16	17	18	19	20	21	22	23	24	25	26	27	28	29
	1614	0.18650250136852264	0.05248820409178734	0.274264931678772	0.0	0.0	0.0	-0.0077550034038722515	1.0061497688293457	0.0025018099695444107	0.0	1.0	-1.0	13	14	15	16	17	18	19	20	21	22	23	24	25	26	27	28	29
	1625	0.18655315041542053	0.05243929848074913	0.2742253839969635	0.0	0.0	0.0	-0.007764369249343872	1.0062259435653687	0.0024546992499381304	0.0	1.0	-1.0	13	14	15	16	17	18	19	20	21	22	23	24	25	26	27	28	29
	1635	0.1866006702184677	0.05240412801504135	0.2741919457912445	0.0	0.0	0.0	-0.007707506418228149	1.0062257051467896	0.0024124367628246546	0.0	1.0	-1.0	13	14	15	16	17	18	19	20	21	22	23	24	25	26	27	28	29
	1645	0.18659605085849762	0.05242776498198509	0.27429768443107605	0.0	0.0	0.0	-0.0076499623246490955	1.0062278509140015	0.0023678599391132593	0.0	1.0	-1.0	13	14	15	16	17	18	19	20	21	22	23	24	25	26	27	28	29
	1655	0.18658612668514252	0.052406370639801025	0.2742551863193512	0.0	0.0	0.0	-0.0076489378698170185	1.006290316581726	0.00232250289991498	0.0	1.0	-1.0	13	14	15	16	17	18	19	20	21	22	23	24	25	26	27	28	29
	1665	0.18667355179786682	0.05239520221948624	0.2742882966995239	0.0	0.0	0.0	-0.007746890652924776	1.0064001083374023	0.0023176276590675116	0.0	1.0	-1.0	13	14	15	16	17	18	19	20	21	22	23	24	25	26	27	28	29
	1675	0.1867009997367859	0.05243434011936188	0.2743399441242218	0.0	0.0	0.0	-0.007789960131049156	1.0065100193023682	0.0022716522216796875	0.0	1.0	-1.0	13	14	15	16	17	18	19	20	21	22	23	24	25	26	27	28	29
	1685	0.1867372840642929	0.05248916521668434	0.2743137776851654	0.0	0.0	0.0	-0.007741737179458141	1.0065149068832397	0.002232123166322708	0.0	1.0	-1.0	13	14	15	16	17	18	19	20	21	22	23	24	25	26	27	28	29
	1695	0.1867372840642929	0.05252566933631897	0.27432677149772644	0.0	0.0	0.0	-0.007716125808656216	1.006548523902893	0.002188886981457472	0.0	1.0	-1.0	13	14	15	16	17	18	19	20	21	22	23	24	25	26	27	28	29
	1705	0.18685409426689148	0.05252566933631897	0.27432677149772644	0.0	0.0	0.0	-0.007716125808656216	1.006548523902893	0.002188886981457472	0.0	1.0	-1.0	13	14	15	16	17	18	19	20	21	22	23	24	25	26	27	28	29
	1715	0.18691788613796234	0.052529215812683105	0.2743411958217621	0.0	0.0	0.0	-0.007734647020697594	1.006629467010498	0.0021450163330882788	0.0	1.0	-1.0	13	14	15	16	17	18	19	20	21	22	23	24	25	26	27	28	29
	1725	0.18697978556156158	0.05253838747739792	0.2743145227432251	0.0	0.0	0.0	-0.007820750586688519	1.006726861000061	0.0021401408594101667	0.0	1.0	-1.0	13	14	15	16	17	18	19	20	21	22	23	24	25	26	27	28	29
	1735	0.18705259263515472	0.052605390548706055	0.2743440270423889	0.0	0.0	0.0	-0.0078092603944242	1.0067715644836426	0.002099227160215378	0.0	1.0	-1.0	13	14	15	16	17	18	19	20	21	22	23	24	25	26	27	28	29
	1745	0.18714424967765808	0.05263294652104378	0.2744060754776001	0.0	0.0	0.0	-0.007783765904605389	1.006803274154663	0.0020566892344504595	0.0	1.0	-1.0	13	14	15	16	17	18	19	20	21	22	23	24	25	26	27	28	29
	1755	0.18713560700416565	0.052535731345415115	0.27440664172172546	0.0	0.0	0.0	-0.007807454094290733	1.006893277168274	0.0020088364835828543	0.0	1.0	-1.0	13	14	15	16	17	18	19	20	21	22	23	24	25	26	27	28	29
	1765	0.18715587258338928	0.052474915981292725	0.2743944227695465	0.0	0.0	0.0	-0.007715766318142414	1.0068495273590088	0.001970196608453989	0.0	1.0	-1.0	13	14	15	16	17	18	19	20	21	22	23	24	25	26	27	28	29
	1775	0.1871631145477295	0.05244658887386322	0.27441930770874023	0.0	0.0	0.0	-0.007839028723537922	1.00698983669281	0.0019622077234089375	0.0	1.0	-1.0	13	14	15	16	17	18	19	20	21	22	23	24	25	26	27	28	29
	1786	0.18714240193367004	0.052421435713768005	0.27435219287872314	0.0	0.0	0.0	-0.007815934717655182	1.0070219039916992	0.0019208677113056183	0.0	1.0	-1.0	13	14	15	16	17	18	19	20	21	22	23	24	25	26	27	28	29
	1796	0.18715079128742218	0.05236801877617836	0.27437254786491394	0.0	0.0	0.0	-0.00778919318690896	1.0071098804473877	0.001834136201068759	0.0	1.0	-1.0	13	14	15	16	17	18	19	20	21	22	23	24	25	26	27	28	29
	1806	0.1872001737356186	0.052448537200689316	0.27439412474632263	0.0	0.0	0.0	-0.00778919318690896	1.0071098804473877	0.001834136201068759	0.0	1.0	-1.0	13	14	15	16	17	18	19	20	21	22	23	24	25	26	27	28	29
	1816	0.1872001737356186	0.05246678367257118	0.27438536286354065	0.0	0.0	0.0	-0.00775946956127882	1.0071889162063599	0.0017505694413557649	0.0	1.0	-1.0	13	14	15	16	17	18	19	20	21	22	23	24	25	26	27	28	29
	1826	0.18727441132068634	0.05246678367257118	0.27438536286354065	0.0	0.0	0.0	-0.007858418859541416	1.0073024034500122	0.0017432649619877338	0.0	1.0	-1.0	13	14	15	16	17	18	19	20	21	22	23	24	25	26	27	28	29
	1836	0.18727804720401764	0.05245786905288696	0.27425578236579895	0.0	0.0	0.0	-0.007794925943017006	1.0072851181030273	0.0017058331286534667	0.0	1.0	-1.0	13	14	15	16	17	18	19	20	21	22	23	24	25	26	27	28	29
	1846	0.18727804720401764	0.05239607021212578	0.2743249833583832	0.0	0.0	0.0	-0.007756093051284552	1.007298231124878	0.0016647607553750277	0.0	1.0	-1.0	13	14	15	16	17	18	19	20	21	22	23	24	25	26	27	28	29
	1856	0.18727152049541473	0.05239607021212578	0.2743249833583832	0.0	0.0	0.0	-0.007756093051284552	1.007298231124878	0.0016647607553750277	0.0	1.0	-1.0	13	14	15	16	17	18	19	20	21	22	23	24	25	26	27	28	29
	1866	0.18740490078926086	0.05236866697669029	0.27431240677833557	0.0	0.0	0.0	-0.007737784180790186	1.0073862075805664	0.0015834082150831819	0.0	1.0	-1.0	13	14	15	16	17	18	19	20	21	22	23	24	25	26	27	28	29
	1876	0.18740490078926086	0.052265770733356476	0.2743617296218872	0.0	0.0	0.0	-0.007725743111222982	1.0074278116226196	0.0015421774005517364	0.0	1.0	-1.0	13	14	15	16	17	18	19	20	21	22	23	24	25	26	27	28	29
	1886	0.18740008771419525	0.052265770733356476	0.2743617296218872	0.0	0.0	0.0	-0.007725743111222982	1.0074278116226196	0.0015421774005517364	0.0	1.0	-1.0	13	14	15	16	17	18	19	20	21	22	23	24	25	26	27	28	29
	1896	0.18741627037525177	0.052276380360126495	0.2743963599205017	0.0	0.0	0.0	-0.00782414898276329	1.0075422525405884	0.0015342306578531861	0.0	1.0	-1.0	13	14	15	16	17	18	19	20	21	22	23	24	25	26	27	28	29
	1906	0.18739594519138336	0.052288882434368134	0.2743615508079529	0.0	0.0	0.0	-0.0077360766008496284	1.0075446367263794	0.0014616589760407805	0.0	1.0	-1.0	13	14	15	16	17	18	19	20	21	22	23	24	25	26	27	28	29
	1916	0.18750591576099396	0.05227523669600487	0.2743228077888489	0.0	0.0	0.0	-0.0077360766008496284	1.0075446367263794	0.0014616589760407805	0.0	1.0	-1.0	13	14	15	16	17	18	19	20	21	22	23	24	25	26	27	28	29
	1926	0.187546506524086	0.052288755774497986	0.27434566617012024	0.0	0.0	0.0	-0.007735356688499451	1.0076483488082886	0.0013817704748362303	0.0	1.0	-1.0	13	14	15	16	17	18	19	20	21	22	23	24	25	26	27	28	29
	1937	0.187546506524086	0.05227601155638695	0.27436983585357666	0.0	0.0	0.0	-0.007858660072088242	1.0077924728393555	0.001371227321214974	0.0	1.0	-1.0	13	14	15	16	17	18	19	20	21	22	23	24	25	26	27	28	29
	1947	0.1875348836183548	0.05227601155638695	0.27436983585357666	0.0	0.0	0.0	-0.00783845316618681	1.0078176259994507	0.0013352714013308287	0.0	1.0	-1.0	13	14	15	16	17	18	19	20	21	22	23	24	25	26	27	28	29
	1957	0.18755604326725006	0.052298616617918015	0.2743733823299408	0.0	0.0	0.0	-0.00783845316618681	1.0078176259994507	0.0013352714013308287	0.0	1.0	-1.0	13	14	15	16	17	18	19	20	21	22	23	24	25	26	27	28	29
	1967	0.1875627189874649	0.05234828591346741	0.2743496596813202	0.0	0.0	0.0	-0.007743549533188343	1.007757306098938	0.0013041606871411204	0.0	1.0	-1.0	13	14	15	16	17	18	19	20	21	22	23	24	25	26	27	28	29
	1977	0.18767660856246948	0.052360694855451584	0.2744016945362091	0.0	0.0	0.0	-0.007866878993809223	1.0079021453857422	0.0012931071687489748	0.0	1.0	-1.0	13	14	15	16	17	18	19	20	21	22	23	24	25	26	27	28	29
	1987	0.18758049607276917	0.05243777856230736	0.27442705631256104	0.0	0.0	0.0	-0.007864007726311684	1.0079984664916992	0.0012161732884123921	0.0	1.0	-1.0	13	14	15	16	17	18	19	20	21	22	23	24	25	26	27	28	29
	1997	0.1875487118959427	0.05239177867770195	0.27435821294784546	0.0	0.0	0.0	-0.00783297698944807	1.0080101490020752	0.0011811417061835527	0.0	1.0	-1.0	13	14	15	16	17	18	19	20	21	22	23	24	25	26	27	28	29
	2007	0.1875777691602707	0.052411600947380066	0.274365097284317	0.0	0.0	0.0	-0.007785028778016567	1.0079994201660156	0.0011493860511109233	0.0	1.0	-1.0	13	14	15	16	17	18	19	20	21	22	23	24	25	26	27	28	29
	2017	0.18760506808757782	0.052393876016139984	0.2743249833583832	0.0	0.0	0.0	-0.007871651090681553	1.008101224899292	0.0011412914609536529	0.0	1.0	-1.0	13	14	15	16	17	18	19	20	21	22	23	24	25	26	27	28	29
	2027	0.18763190507888794	0.05241430923342705	0.2743563950061798	0.0	0.0	0.0	-0.00787254050374031	1.0081496238708496	0.0011033531045541167	0.0	1.0	-1.0	13	14	15	16	17	18	19	20	21	22	23	24	25	26	27	28	29
	2037	0.18762429058551788	0.052412353456020355	0.27433618903160095	0.0	0.0	0.0	-0.007868655025959015	1.0081902742385864	0.0010675617959350348	0.0	1.0	-1.0	13	14	15	16	17	18	19	20	21	22	23	24	25	26	27	28	29
	2047	0.18771927058696747	0.052440106868743896	0.27439215779304504	0.0	0.0	0.0	-0.007847198285162449	1.008208155632019	0.0010349324438720942	0.0	1.0	-1.0	13	14	15	16	17	18	19	20	21	22	23	24	25	26	27	28	29
	2057	0.1877206265926361	0.052420683205127716	0.2744545340538025	0.0	0.0	0.0	-0.0077881403267383575	1.0081831216812134	0.0010044476948678493	0.0	1.0	-1.0	13	14	15	16	17	18	19	20	21	22	23	24	25	26	27	28	29
	2067	0.18774999678134918	0.052432190626859665	0.2743913233280182	0.0	0.0	0.0	-0.007761291228234768	1.008193850517273	0.0009724077535793185	0.0	1.0	-1.0	13	14	15	16	17	18	19	20	21	22	23	24	25	26	27	28	29
	2078	0.18775293231010437	0.05243859440088272	0.2744136154651642	0.0	0.0	0.0	-0.007885140366852283	1.0083401203155518	0.0009601028286851943	0.0	1.0	-1.0	13	14	15	16	17	18	19	20	21	22	23	24	25	26	27	28	29
	2088	0.1877441555261612	0.052414439618587494	0.2743985056877136	0.0	0.0	0.0	-0.007870600558817387	1.0083669424057007	0.0009252459276467562	0.0	1.0	-1.0	13	14	15	16	17	18	19	20	21	22	23	24	25	26	27	28	29
	2098	0.18775410950183868	0.05243794620037079	0.27433279156684875	0.0	0.0	0.0	-0.007838732562959194	1.008371114730835	0.000893626653123647	0.0	1.0	-1.0	13	14	15	16	17	18	19	20	21	22	23	24	25	26	27	28	29
	2108	0.1877465397119522	0.05247780680656433	0.2743018567562103	0.0	0.0	0.0	-0.007789852097630501	1.0083528757095337	0.0008653199765831232	0.0	1.0	-1.0	13	14	15	16	17	18	19	20	21	22	23	24	25	26	27	28	29
	2118	0.18766799569129944	0.05249655246734619	0.27428632974624634	0.0	0.0	0.0	-0.007876649498939514	1.008455514907837	0.0008562636212445796	0.0	1.0	-1.0	13	14	15	16	17	18	19	20	21	22	23	24	25	26	27	28	29
	2128	0.18767212331295013	0.05249953642487526	0.27425864338874817	0.0	0.0	0.0	-0.00774889113381505	1.0083836317062378	0.0008016658830456436	0.0	1.0	-1.0	13	14	15	16	17	18	19	20	21	22	23	24	25	26	27	28	29
	2138	0.18765456974506378	0.052455563098192215	0.27426251769065857	0.0	0.0	0.0	-0.00787272211164236	1.0085302591323853	0.0007884835358709097	0.0	1.0	-1.0	13	14	15	16	17	18	19	20	21	22	23	24	25	26	27	28	29
	2148	0.18767285346984863	0.05248147249221802	0.274258553981781	0.0	0.0	0.0	-0.007850812748074532	1.0085408687591553	0.0007589630549773574	0.0	1.0	-1.0	13	14	15	16	17	18	19	20	21	22	23	24	25	26	27	28	29
	2158	0.187639057636261	0.052527185529470444	0.2743014991283417	0.0	0.0	0.0	-0.007791223935782909	1.0085082054138184	0.000732224085368216	0.0	1.0	-1.0	13	14	15	16	17	18	19	20	21	22	23	24	25	26	27	28	29
	2168	0.18761292099952698	0.05252179503440857	0.2742779552936554	0.0	0.0	0.0	-0.0077638691291213036	1.0085117816925049	0.0007035789894871414	0.0	1.0	-1.0	13	14	15	16	17	18	19	20	21	22	23	24	25	26	27	28	29
	2178	0.18766118586063385	0.05250056833028793	0.2743365168571472	0.0	0.0	0.0	-0.007887829095125198	1.0086586475372314	0.0006901899469085038	0.0	1.0	-1.0	13	14	15	16	17	18	19	20	21	22	23	24	25	26	27	28	29
	2188	0.18771310150623322	0.052515909075737	0.27430883049964905	0.0	0.0	0.0	-0.007892612367868423	1.0086987018585205	0.0006595330196432769	0.0	1.0	-1.0	13	14	15	16	17	18	19	20	21	22	23	24	25	26	27	28	29
	2198	0.18776431679725647	0.052533067762851715	0.27428603172302246	0.0	0.0	0.0	-0.007834212854504585	1.0086652040481567	0.0006343650165945292	0.0	1.0	-1.0	13	14	15	16	17	18	19	20	21	22	23	24	25	26	27	28	29
	2208	0.18783482909202576	0.05251733586192131	0.27431079745292664	0.0	0.0	0.0	-0.007808343041688204	1.008668303489685	0.0006071404204703867	0.0	1.0	-1.0	13	14	15	16	17	18	19	20	21	22	23	24	25	26	27	28	29
	2219	0.18788529932498932	0.0525873638689518	0.2743392288684845	0.0	0.0	0.0	-0.007794623263180256	1.008687138557434	0.0005773882730863988	0.0	1.0	-1.0	13	14	15	16	17	18	19	20	21	22	23	24	25	26	27	28	29
	2229	0.18789248168468475	0.05261105298995972	0.27432307600975037	0.0	0.0	0.0	-0.0078011914156377316	1.00872802734375	0.000546881346963346	0.0	1.0	-1.0	13	14	15	16	17	18	19	20	21	22	23	24	25	26	27	28	29
	2239	0.18788079917430878	0.05258101224899292	0.2743249237537384	0.0	0.0	0.0	-0.007888155989348888	1.00883150100708	0.0005372088635340333	0.0	1.0	-1.0	13	14	15	16	17	18	19	20	21	22	23	24	25	26	27	28	29
	2249	0.18788738548755646	0.0526060052216053	0.27431485056877136	0.0	0.0	0.0	-0.007845336571335793	1.008814811706543	0.0005110094789415598	0.0	1.0	-1.0	13	14	15	16	17	18	19	20	21	22	23	24	25	26	27	28	29
	2259	0.18789075314998627	0.05261661112308502	0.274275004863739	0.0	0.0	0.0	-0.007810613140463829	1.0088056325912476	0.0004855511069763452	0.0	1.0	-1.0	13	14	15	16	17	18	19	20	21	22	23	24	25	26	27	28	29
	2269	0.18781530857086182	0.05259456858038902	0.27426815032958984	0.0	0.0	0.0	-0.007758587133139372	1.0087740421295166	0.0004634392389561981	0.0	1.0	-1.0	13	14	15	16	17	18	19	20	21	22	23	24	25	26	27	28	29
	2279	0.18784089386463165	0.05265917256474495	0.2743202745914459	0.0	0.0	0.0	-0.007744130678474903	1.008787989616394	0.00043613166781142354	0.0	1.0	-1.0	13	14	15	16	17	18	19	20	21	22	23	24	25	26	27	28	29
	2289	0.1878635436296463	0.05265423655509949	0.27425363659858704	0.0	0.0	0.0	-0.007868212647736073	1.0089356899261475	0.0004222047282382846	0.0	1.0	-1.0	13	14	15	16	17	18	19	20	21	22	23	24	25	26	27	28	29
	2299	0.1878754049539566	0.052707310765981674	0.2742169499397278	0.0	0.0	0.0	-0.007873577997088432	1.0089714527130127	0.0003942081821151078	0.0	1.0	-1.0	13	14	15	16	17	18	19	20	21	22	23	24	25	26	27	28	29
	2309	0.18787123262882233	0.05271909013390541	0.2742968499660492	0.0	0.0	0.0	-0.007849386893212795	1.0089701414108276	0.0003709453740157187	0.0	1.0	-1.0	13	14	15	16	17	18	19	20	21	22	23	24	25	26	27	28	29
	2319	0.18780116736888885	0.05274370312690735	0.2742704451084137	0.0	0.0	0.0	-0.00781263317912817	1.0089545249938965	0.00034814325044862926	0.0	1.0	-1.0	13	14	15	16	17	18	19	20	21	22	23	24	25	26	27	28	29
	2329	0.187766432762146	0.052716564387083054	0.2742420732975006	0.0	0.0	0.0	-0.007783791981637478	1.008946418762207	0.0003258742799516767	0.0	1.0	-1.0	13	14	15	16	17	18	19	20	21	22	23	24	25	26	27	28	29
	2339	0.1877872347831726	0.052714839577674866	0.2742120027542114	0.0	0.0	0.0	-0.007871029898524284	1.0090497732162476	0.00031611588201485574	0.0	1.0	-1.0	13	14	15	16	17	18	19	20	21	22	23	24	25	26	27	28	29
	2349	0.18781664967536926	0.052656371146440506	0.27418360114097595	0.0	0.0	0.0	-0.007829872891306877	1.0090279579162598	0.0002942205173894763	0.0	1.0	-1.0	13	14	15	16	17	18	19	20	21	22	23	24	25	26	27	28	29
	2359	0.1878349930047989	0.05266963317990303	0.27415046095848083	0.0	0.0	0.0	-0.007796749006956816	1.0090138912200928	0.0002729433763306588	0.0	1.0	-1.0	13	14	15	16	17	18	19	20	21	22	23	24	25	26	27	28	29
	2369	0.18787240982055664	0.05268632620573044	0.27421051263809204	0.0	0.0	0.0	-0.007752226199954748	1.0089870691299438	0.00025225384160876274	0.0	1.0	-1.0	13	14	15	16	17	18	19	20	21	22	23	24	25	26	27	28	29
	2380	0.18791380524635315	0.05263016000390053	0.27420327067375183	0.0	0.0	0.0	-0.007851810194551945	1.0091050863265991	0.0002411661989754066	0.0	1.0	-1.0	13	14	15	16	17	18	19	20	21	22	23	24	25	26	27	28	29
	2390	0.1880006641149521	0.05260493606328964	0.2741837799549103	0.0	0.0	0.0	-0.007840105332434177	1.0091153383255005	0.00021829374600201845	0.0	1.0	-1.0	13	14	15	16	17	18	19	20	21	22	23	24	25	26	27	28	29
	2400	0.18804633617401123	0.05255942791700363	0.27415409684181213	0.0	0.0	0.0	-0.007810980547219515	1.0091032981872559	0.00019856287690345198	0.0	1.0	-1.0	13	14	15	16	17	18	19	20	21	22	23	24	25	26	27	28	29
	2410	0.18800348043441772	0.05256955325603485	0.2741241753101349	0.0	0.0	0.0	-0.007807471789419651	1.0091222524642944	0.00017533384379930794	0.0	1.0	-1.0	13	14	15	16	17	18	19	20	21	22	23	24	25	26	27	28	29
	2420	0.1880071759223938	0.052529506385326385	0.2740281820297241	0.0	0.0	0.0	-0.007736927829682827	1.0090603828430176	0.00016076680913101882	0.0	1.0	-1.0	13	14	15	16	17	18	19	20	21	22	23	24	25	26	27	28	29
	2430	0.1879488229751587	0.052465517073869705	0.2740032970905304	0.0	0.0	0.0	-0.007711494341492653	1.0090502500534058	0.00014257685688789934	0.0	1.0	-1.0	13	14	15	16	17	18	19	20	21	22	23	24	25	26	27	28	29
	2440	0.18789784610271454	0.05245548114180565	0.27404940128326416	0.0	0.0	0.0	-0.007835718803107738	1.0091971158981323	0.00012898228305857629	0.0	1.0	-1.0	13	14	15	16	17	18	19	20	21	22	23	24	25	26	27	28	29
	2450	0.18789540231227875	0.052463967353105545	0.27403724193573	0.0	0.0	0.0	-0.007797485217452049	1.0091725587844849	0.0001115776103688404	0.0	1.0	-1.0	13	14	15	16	17	18	19	20	21	22	23	24	25	26	27	28	29
	2460	0.18789441883563995	0.05246961489319801	0.2740328311920166	0.0	0.0	0.0	-0.007767053321003914	1.0091557502746582	9.463312744628638e-05	0.0	1.0	-1.0	13	14	15	16	17	18	19	20	21	22	23	24	25	26	27	28	29
	2470	0.18786831200122833	0.05249305069446564	0.27406957745552063	0.0	0.0	0.0	-0.007781134452670813	1.009190320968628	7.386614743154496e-05	0.0	1.0	-1.0	13	14	15	16	17	18	19	20	21	22	23	24	25	26	27	28	29
	2481	0.1878783404827118	0.05253264680504799	0.2741360664367676	0.0	0.0	0.0	-0.007770351134240627	1.009196162223816	5.525166488951072e-05	0.0	1.0	-1.0	13	14	15	16	17	18	19	20	21	22	23	24	25	26	27	28	29
	2491	0.1879403442144394	0.052512574940919876	0.2741279900074005	0.0	0.0	0.0	-0.0077421898022294044	1.009179949760437	3.9455320802517235e-05	0.0	1.0	-1.0	13	14	15	16	17	18	19	20	21	22	23	24	25	26	27	28	29
	2501	0.18790234625339508	0.05255170539021492	0.2741551697254181	0.0	0.0	0.0	-0.007841439917683601	1.009297251701355	2.8534959710668772e-05	0.0	1.0	-1.0	13	14	15	16	17	18	19	20	21	22	23	24	25	26	27	28	29
	2511	0.18786738812923431	0.0525243878364563	0.27414870262145996	0.0	0.0	0.0	-0.007764057721942663	1.009223461151123	1.7348515029880218e-05	0.0	1.0	-1.0	13	14	15	16	17	18	19	20	21	22	23	24	25	26	27	28	29
	2521	0.18790081143379211	0.05246821045875549	0.2741757333278656	0.0	0.0	0.0	-0.00773171940818429	1.0092012882232666	2.1903167635173304e-06	0.0	1.0	-1.0	13	14	15	16	17	18	19	20	21	22	23	24	25	26	27	28	29
	2531	0.18791484832763672	0.05242786556482315	0.2742278277873993	0.0	0.0	0.0	-0.007707192096859217	1.009186863899231	-1.2625325325643644e-05	0.0	1.0	-1.0	13	14	15	16	17	18	19	20	21	22	23	24	25	26	27	28	29
	2541	0.1879016011953354	0.05244161933660507	0.2742185890674591	0.0	0.0	0.0	-0.00783141516149044	1.0093331336975098	-2.631864663271699e-05	0.0	1.0	-1.0	13	14	15	16	17	18	19	20	21	22	23	24	25	26	27	28	29
	2551	0.18787772953510284	0.05245284363627434	0.2742254436016083	0.0	0.0	0.0	-0.007831812836229801	1.0093482732772827	-4.456103852135129e-05	0.0	1.0	-1.0	13	14	15	16	17	18	19	20	21	22	23	24	25	26	27	28	29
	2561	0.18548525869846344	0.05241616815328598	0.27421844005584717	0.0	0.0	0.0	-0.0077653080224990845	1.0092835426330566	-5.436441279016435e-05	0.0	1.0	-1.0	13	14	15	16	17	18	19	20	21	22	23	24	25	26	27	28	29
	2571	0.1854541152715683	0.05250465124845505	0.2742203176021576	0.0	0.0	0.0	-0.007743667811155319	1.0092452764511108	-5.0367216317681596e-05	0.0	1.0	-1.0	13	14	15	16	17	18	19	20	21	22	23	24	25	26	27	28	29
	2581	0.18541528284549713	0.05253128334879875	0.2743033468723297	0.0	0.0	0.0	-0.007709595374763012	1.00917649269104	-3.373981962795369e-05	0.0	1.0	-1.0	13	14	15	16	17	18	19	20	21	22	23	24	25	26	27	28	29
	2591	0.1854221671819687	0.05251096189022064	0.2743252217769623	0.0	0.0	0.0	-0.007720092311501503	1.0091465711593628	-1.2221071301610209e-05	0.0	1.0	-1.0	13	14	15	16	17	18	19	20	21	22	23	24	25	26	27	28	29
	2601	0.18542064726352692	0.052550479769706726	0.2743285596370697	0.0	0.0	0.0	-0.007706207223236561	1.009092926979065	8.583862836530898e-06	0.0	1.0	-1.0	13	14	15	16	17	18	19	20	21	22	23	24	25	26	27	28	29
	2611	0.18542064726352692	0.05253489315509796	0.2743737995624542	0.0	0.0	0.0	-0.007830480113625526	1.0091972351074219	2.440990647301078e-05	0.0	1.0	-1.0	13	14	15	16	17	18	19	20	21	22	23	24	25	26	27	28	29
	2621	0.18544939160346985	0.05253489315509796	0.2743737995624542	0.0	0.0	0.0	-0.007830480113625526	1.0091972351074219	2.440990647301078e-05	0.0	1.0	-1.0	13	14	15	16	17	18	19	20	21	22	23	24	25	26	27	28	29
	2632	0.18542802333831787	0.05254350230097771	0.2743663191795349	0.0	0.0	0.0	-0.007713220547884703	1.0090179443359375	5.2276227506808937e-05	0.0	1.0	-1.0	13	14	15	16	17	18	19	20	21	22	23	24	25	26	27	28	29
	2642	0.18540938198566437	0.052501529455184937	0.27447426319122314	0.0	0.0	0.0	-0.00773909967392683	1.008995771408081	7.873308641137555e-05	0.0	1.0	-1.0	13	14	15	16	17	18	19	20	21	22	23	24	25	26	27	28	29
	2652	0.1854223608970642	0.05247262492775917	0.27445560693740845	0.0	0.0	0.0	-0.007710900157690048	1.0089296102523804	9.752652840688825e-05	0.0	1.0	-1.0	13	14	15	16	17	18	19	20	21	22	23	24	25	26	27	28	29
	2662	0.18541128933429718	0.052467331290245056	0.2744455337524414	0.0	0.0	0.0	-0.007810560055077076	1.0090125799179077	0.0001101305679185316	0.0	1.0	-1.0	13	14	15	16	17	18	19	20	21	22	23	24	25	26	27	28	29
	2672	0.18538151681423187	0.052472248673439026	0.27444908022880554	0.0	0.0	0.0	-0.007733101956546307	1.0089021921157837	0.00012475173571147025	0.0	1.0	-1.0	13	14	15	16	17	18	19	20	21	22	23	24	25	26	27	28	29
	2682	0.18527625501155853	0.05248632654547691	0.2743886113166809	0.0	0.0	0.0	-0.00770098902285099	1.0088310241699219	0.0001441651111235842	0.0	1.0	-1.0	13	14	15	16	17	18	19	20	21	22	23	24	25	26	27	28	29
	2692	0.185186505317688	0.05242139846086502	0.27437540888786316	0.0	0.0	0.0	-0.007694660220295191	1.00877845287323	0.00016867354861460626	0.0	1.0	-1.0	13	14	15	16	17	18	19	20	21	22	23	24	25	26	27	28	29
	2702	0.18512554466724396	0.05239979550242424	0.2743426561355591	0.0	0.0	0.0	-0.007818914018571377	1.0088815689086914	0.0001844090729719028	0.0	1.0	-1.0	13	14	15	16	17	18	19	20	21	22	23	24	25	26	27	28	29
	2712	0.18512940406799316	0.05234859138727188	0.2743062973022461	0.0	0.0	0.0	-0.007807754445821047	1.0088266134262085	0.00020711748220492154	0.0	1.0	-1.0	13	14	15	16	17	18	19	20	21	22	23	24	25	26	27	28	29
	2722	0.18509359657764435	0.052359841763973236	0.2743431031703949	0.0	0.0	0.0	-0.007779074367135763	1.008758544921875	0.00022672857448924333	0.0	1.0	-1.0	13	14	15	16	17	18	19	20	21	22	23	24	25	26	27	28	29
	2732	0.18507730960845947	0.05239034444093704	0.2743968069553375	0.0	0.0	0.0	-0.007714107166975737	1.0086581707000732	0.0002433864283375442	0.0	1.0	-1.0	13	14	15	16	17	18	19	20	21	22	23	24	25	26	27	28	29
	2742	0.18515445291996002	0.05236973613500595	0.2743559181690216	0.0	0.0	0.0	-0.007801024243235588	1.008730173110962	0.0002543092123232782	0.0	1.0	-1.0	13	14	15	16	17	18	19	20	21	22	23	24	25	26	27	28	29
	2752	0.18520131707191467	0.05231527239084244	0.274321973323822	0.0	0.0	0.0	-0.007681552320718765	1.008542776107788	0.0002862812834791839	0.0	1.0	-1.0	13	14	15	16	17	18	19	20	21	22	23	24	25	26	27	28	29
	2762	0.1851426512002945	0.05236784741282463	0.2743089199066162	0.0	0.0	0.0	-0.007805603090673685	1.0086454153060913	0.0003018450806848705	0.0	1.0	-1.0	13	14	15	16	17	18	19	20	21	22	23	24	25	26	27	28	29
	2772	0.18515586853027344	0.0522998683154583	0.27434810996055603	0.0	0.0	0.0	-0.007743636146187782	1.008548378944397	0.00031860629678703845	0.0	1.0	-1.0	13	14	15	16	17	18	19	20	21	22	23	24	25	26	27	28	29
	2783	0.18517208099365234	0.052302341908216476	0.27432921528816223	0.0	0.0	0.0	-0.007677276153117418	1.0084493160247803	0.0003338694223202765	0.0	1.0	-1.0	13	14	15	16	17	18	19	20	21	22	23	24	25	26	27	28	29
	2793	0.18514522910118103	0.05230402573943138	0.2743467092514038	0.0	0.0	0.0	-0.007692644372582436	1.0084192752838135	0.0003586291568353772	0.0	1.0	-1.0	13	14	15	16	17	18	19	20	21	22	23	24	25	26	27	28	29
	2803	0.1851484179496765	0.0523265115916729	0.2744072377681732	0.0	0.0	0.0	-0.0076833926141262054	1.0083667039871216	0.0003816472599282861	0.0	1.0	-1.0	13	14	15	16	17	18	19	20	21	22	23	24	25	26	27	28	29
	2813	0.1852232962846756	0.05232102796435356	0.27446773648262024	0.0	0.0	0.0	-0.007782695349305868	1.0084483623504639	0.0003942646726500243	0.0	1.0	-1.0	13	14	15	16	17	18	19	20	21	22	23	24	25	26	27	28	29
	2823	0.18522445857524872	0.05235683545470238	0.27443140745162964	0.0	0.0	0.0	-0.007755760103464127	1.0083826780319214	0.00041426203097216785	0.0	1.0	-1.0	13	14	15	16	17	18	19	20	21	22	23	24	25	26	27	28	29
	2833	0.18528136610984802	0.052331648766994476	0.2744404077529907	0.0	0.0	0.0	-0.007717235013842583	1.008305549621582	0.00043420883594080806	0.0	1.0	-1.0	13	14	15	16	17	18	19	20	21	22	23	24	25	26	27	28	29
	2843	0.18525433540344238	0.05235442891716957	0.27442899346351624	0.0	0.0	0.0	-0.007724251598119736	1.0082672834396362	0.000459156435681507	0.0	1.0	-1.0	13	14	15	16	17	18	19	20	21	22	23	24	25	26	27	28	29
	2853	0.18518762290477753	0.05235424265265465	0.27437523007392883	0.0	0.0	0.0	-0.0076831006444990635	1.008188009262085	0.00047905760584399104	0.0	1.0	-1.0	13	14	15	16	17	18	19	20	21	22	23	24	25	26	27	28	29
	2863	0.1851726770401001	0.05233105272054672	0.27431926131248474	0.0	0.0	0.0	-0.0076494053937494755	1.008116364479065	0.0004990198649466038	0.0	1.0	-1.0	13	14	15	16	17	18	19	20	21	22	23	24	25	26	27	28	29
	2873	0.18516162037849426	0.052298225462436676	0.2742595374584198	0.0	0.0	0.0	-0.007773450575768948	1.0082178115844727	0.0005151474615558982	0.0	1.0	-1.0	13	14	15	16	17	18	19	20	21	22	23	24	25	26	27	28	29
	2883	0.18515868484973907	0.05227026715874672	0.2742089331150055	0.0	0.0	0.0	-0.0077099730260670185	1.008123517036438	0.0005302304052747786	0.0	1.0	-1.0	13	14	15	16	17	18	19	20	21	22	23	24	25	26	27	28	29
	2893	0.18512651324272156	0.05228560417890549	0.2742444574832916	0.0	0.0	0.0	-0.007647293619811535	1.008028268814087	0.000546501949429512	0.0	1.0	-1.0	13	14	15	16	17	18	19	20	21	22	23	24	25	26	27	28	29
	2903	0.18515348434448242	0.052259620279073715	0.2741340398788452	0.0	0.0	0.0	-0.007642148062586784	1.0079816579818726	0.0005691383848898113	0.0	1.0	-1.0	13	14	15	16	17	18	19	20	21	22	23	24	25	26	27	28	29
	2913	0.18515443801879883	0.05216766148805618	0.2741084098815918	0.0	0.0	0.0	-0.007681475952267647	1.0079727172851562	0.0005965384771116078	0.0	1.0	-1.0	13	14	15	16	17	18	19	20	21	22	23	24	25	26	27	28	29
	2924	0.18513502180576324	0.052142877131700516	0.2742212116718292	0.0	0.0	0.0	-0.007780972868204117	1.0080537796020508	0.0006094747222959995	0.0	1.0	-1.0	13	14	15	16	17	18	19	20	21	22	23	24	25	26	27	28	29
	2934	0.18511337041854858	0.0521705262362957	0.27420446276664734	0.0	0.0	0.0	-0.00770881911739707	1.0079526901245117	0.0006236559711396694	0.0	1.0	-1.0	13	14	15	16	17	18	19	20	21	22	23	24	25	26	27	28	29
	2944	0.18510471284389496	0.05217486992478371	0.27423545718193054	0.0	0.0	0.0	-0.0076813530176877975	1.0078896284103394	0.0006427962798625231	0.0	1.0	-1.0	13	14	15	16	17	18	19	20	21	22	23	24	25	26	27	28	29
	2954	0.1852111518383026	0.052158936858177185	0.2742460370063782	0.0	0.0	0.0	-0.0076613291166722775	1.0078341960906982	0.0006620854837819934	0.0	1.0	-1.0	13	14	15	16	17	18	19	20	21	22	23	24	25	26	27	28	29
	2964	0.18520259857177734	0.0522046722471714	0.2743331789970398	0.0	0.0	0.0	-0.007785413879901171	1.0079354047775269	0.0006784705328755081	0.0	1.0	-1.0	13	14	15	16	17	18	19	20	21	22	23	24	25	26	27	28	29
	2974	0.18519838154315948	0.0522269532084465	0.2743130028247833	0.0	0.0	0.0	-0.007789922878146172	1.0078985691070557	0.000702023331541568	0.0	1.0	-1.0	13	14	15	16	17	18	19	20	21	22	23	24	25	26	27	28	29
	2984	0.1852351874113083	0.05222943797707558	0.27429747581481934	0.0	0.0	0.0	-0.007764799054712057	1.0078389644622803	0.0007208589231595397	0.0	1.0	-1.0	13	14	15	16	17	18	19	20	21	22	23	24	25	26	27	28	29
	2994	0.18526823818683624	0.05219435319304466	0.2742757499217987	0.0	0.0	0.0	-0.007727749180048704	1.0077686309814453	0.0007390670944005251	0.0	1.0	-1.0	13	14	15	16	17	18	19	20	21	22	23	24	25	26	27	28	29
	3004	0.1852724254131317	0.05216340348124504	0.27422216534614563	0.0	0.0	0.0	-0.007698580157011747	1.0077064037322998	0.0007575506460852921	0.0	1.0	-1.0	13	14	15	16	17	18	19	20	21	22	23	24	25	26	27	28	29
	3014	0.18529865145683289	0.052105847746133804	0.274217426776886	0.0	0.0	0.0	-0.007785680238157511	1.007777214050293	0.0007692986982874572	0.0	1.0	-1.0	13	14	15	16	17	18	19	20	21	22	23	24	25	26	27	28	29
	3024	0.18529605865478516	0.052151791751384735	0.2741912007331848	0.0	0.0	0.0	-0.007763762027025223	1.0077221393585205	0.00078783486969769	0.0	1.0	-1.0	13	14	15	16	17	18	19	20	21	22	23	24	25	26	27	28	29
