Time	Roll	Pitch	Yaw	ForceX	ForceY	ForceZ	TorqueRoll	TorquePitch	TorqueYaw	PWM0	PWM1	PWM2	PWM3	PWM4	PWM5	
57	0	1	2	3	4	5	6	7	8	9	10	11	12	13	14
57	0	1	0	3	4	5	6	7	8	9	10	11	12	13	14
67	0.0925304	0.0377869	0	3	4	5	6	7	8	9	10	11	12	13	14
77	0.0926278	0.0377869	0	3	4	5	6	7	8	9	10	11	12	13	14
77	0.0926278	0.0377869	0.0602759	3	4	5	6	7	8	9	10	11	12	13	14
87	0.0926431	0.0377426	0.0602759	3	4	5	6	7	8	9	10	11	12	13	14
97	0.0928495	0.0377426	0.0602759	3	4	5	6	7	8	9	10	11	12	13	14
97	0.0928495	0.0377426	0.0604205	3	4	5	6	7	8	9	10	11	12	13	14
107	0.0929203	0.0378334	0.0604577	3	4	5	6	7	8	9	10	11	12	13	14
117	0.0929793	0.0377816	0.0604566	3	4	5	6	7	8	9	10	11	12	13	14
127	0.0930713	0.0377931	0.0604767	3	4	5	6	7	8	9	10	11	12	13	14
137	0.0932011	0.0379183	0.0605595	3	4	5	6	7	8	9	10	11	12	13	14
147	0.0932198	0.0379262	0.0606651	3	4	5	6	7	8	9	10	11	12	13	14
157	0.0933727	0.0379187	0.0606747	3	4	5	6	7	8	9	10	11	12	13	14
167	0.0934873	0.0379221	0.0607095	3	4	5	6	7	8	9	10	11	12	13	14
177	0.0923513	0.0379782	0.0606465	3	4	5	6	7	8	9	10	11	12	13	14
187	0.0924909	0.0379516	0.0606545	3	4	5	6	7	8	9	10	11	12	13	14
198	0.0925627	0.037974	0.0606223	3	4	5	6	7	8	9	10	11	12	13	14
208	0.0926985	0.0379973	0.0606084	3	4	5	6	7	8	9	10	11	12	13	14
218	0.0928142	0.0380428	0.0606013	3	4	5	6	7	8	9	10	11	12	13	14
228	0.0928894	0.0380674	0.0606105	3	4	5	6	7	8	9	10	11	12	13	14
238	0.0929775	0.0380416	0.060606	3	4	5	6	7	8	9	10	11	12	13	14
248	0.093088	0.0380049	0.0606203	3	4	5	6	7	8	9	10	11	12	13	14
258	0.0932314	0.0380379	0.0606989	3	4	5	6	7	8	9	10	11	12	13	14
268	0.0933168	0.038049	0.0607518	3	4	5	6	7	8	9	10	11	12	13	14
278	0.0933924	0.0380678	0.0607792	3	4	5	6	7	8	9	10	11	12	13	14
288	0.0934329	0.0381702	0.0608145	3	4	5	6	7	8	9	10	11	12	13	14
298	0.0935771	0.0381947	0.0609316	3	4	5	6	7	8	9	10	11	12	13	14
308	0.0936194	0.0381492	0.0609866	3	4	5	6	7	8	9	10	11	12	13	14
318	0.0937848	0.0381679	0.0610023	3	4	5	6	7	8	9	10	11	12	13	14
328	0.0939395	0.0381802	0.0610018	3	4	5	6	7	8	9	10	11	12	13	14
338	0.0940549	0.0381961	0.0611255	3	4	5	6	7	8	9	10	11	12	13	14
349	0.0941378	0.0381943	0.0611513	3	4	5	6	7	8	9	10	11	12	13	14
359	0.0942124	0.0382364	0.0611673	3	4	5	6	7	8	9	10	11	12	13	14
369	0.0943614	0.0381773	0.0612258	3	4	5	6	7	8	9	10	11	12	13	14
379	0.0945246	0.0381906	0.0613292	3	4	5	6	7	8	9	10	11	12	13	14
389	0.0945523	0.0382455	0.0613523	3	4	5	6	7	8	9	10	11	12	13	14
399	0.0947119	0.0382592	0.0614085	3	4	5	6	7	8	9	10	11	12	13	14
409	0.0948967	0.0383563	0.0615126	3	4	5	6	7	8	9	10	11	12	13	14
419	0.0950539	0.0384475	0.0615555	3	4	5	6	7	8	9	10	11	12	13	14
429	0.0951129	0.0384466	0.0615968	3	4	5	6	7	8	9	10	11	12	13	14
439	0.0951804	0.0384462	0.0616776	3	4	5	6	7	8	9	10	11	12	13	14
449	0.0952487	0.0384854	0.0617745	3	4	5	6	7	8	9	10	11	12	13	14
459	0.0953473	0.0384011	0.0618143	3	4	5	6	7	8	9	10	11	12	13	14
469	0.095455	0.0383702	0.0618241	3	4	5	6	7	8	9	10	11	12	13	14
479	0.0955834	0.0383636	0.0618019	3	4	5	6	7	8	9	10	11	12	13	14
489	0.0957293	0.0383607	0.0618187	3	4	5	6	7	8	9	10	11	12	13	14
500	0.0958101	0.0383982	0.0618446	3	4	5	6	7	8	9	10	11	12	13	14
510	0.095829	0.0384364	0.0618746	3	4	5	6	7	8	9	10	11	12	13	14
520	0.0959576	0.0384798	0.0619019	3	4	5	6	7	8	9	10	11	12	13	14
530	0.0961161	0.0385073	0.0620031	3	4	5	6	7	8	9	10	11	12	13	14
540	0.0962488	0.0384366	0.0620355	3	4	5	6	7	8	9	10	11	12	13	14
550	0.0962684	0.0383751	0.0620539	3	4	5	6	7	8	9	10	11	12	13	14
560	0.09635	0.0384692	0.0621601	3	4	5	6	7	8	9	10	11	12	13	14
570	0.0964035	0.0385229	0.0622769	3	4	5	6	7	8	9	10	11	12	13	14
580	0.0964868	0.0385116	0.0623627	3	4	5	6	7	8	9	10	11	12	13	14
590	0.0966201	0.0385209	0.0624885	3	4	5	6	7	8	9	10	11	12	13	14
600	0.0967028	0.0385375	0.062574	3	4	5	6	7	8	9	10	11	12	13	14
610	0.0967691	0.0385486	0.0626529	3	4	5	6	7	8	9	10	11	12	13	14
620	0.0968863	0.0386049	0.0626888	3	4	5	6	7	8	9	10	11	12	13	14
630	0.0970375	0.0386919	0.062712	3	4	5	6	7	8	9	10	11	12	13	14
641	0.0970591	0.0386867	0.0627414	3	4	5	6	7	8	9	10	11	12	13	14
651	0.0971124	0.0386728	0.0627281	3	4	5	6	7	8	9	10	11	12	13	14
661	0.0972229	0.0386156	0.0628073	3	4	5	6	7	8	9	10	11	12	13	14
671	0.0973069	0.0386049	0.0628164	3	4	5	6	7	8	9	10	11	12	13	14
681	0.0973551	0.0386136	0.0628267	3	4	5	6	7	8	9	10	11	12	13	14
691	0.0974614	0.0386761	0.0628162	3	4	5	6	7	8	9	10	11	12	13	14
701	0.0975718	0.0387437	0.0628293	3	4	5	6	7	8	9	10	11	12	13	14
711	0.0976828	0.0387213	0.0628888	3	4	5	6	7	8	9	10	11	12	13	14
721	0.0977916	0.0387826	0.0629859	3	4	5	6	7	8	9	10	11	12	13	14
731	0.0978314	0.0388423	0.062985	3	4	5	6	7	8	9	10	11	12	13	14
741	0.0980223	0.0388984	0.0631254	3	4	5	6	7	8	9	10	11	12	13	14
751	0.0980946	0.0388953	0.0632163	3	4	5	6	7	8	9	10	11	12	13	14
761	0.0982318	0.0389035	0.0632956	3	4	5	6	7	8	9	10	11	12	13	14
771	0.0983077	0.0388816	0.0633468	3	4	5	6	7	8	9	10	11	12	13	14
781	0.098331	0.0389124	0.0633801	3	4	5	6	7	8	9	10	11	12	13	14
792	0.098489	0.0389545	0.0634153	3	4	5	6	7	8	9	10	11	12	13	14
802	0.0985599	0.03897	0.0634883	3	4	5	6	7	8	9	10	11	12	13	14
812	0.0986759	0.0389448	0.0634777	3	4	5	6	7	8	9	10	11	12	13	14
822	0.0987811	0.0389473	0.0634747	3	4	5	6	7	8	9	10	11	12	13	14
832	0.0988528	0.0390364	0.0634869	3	4	5	6	7	8	9	10	11	12	13	14
842	0.098844	0.0390123	0.0635264	3	4	5	6	7	8	9	10	11	12	13	14
852	0.0988495	0.038996	0.0635282	3	4	5	6	7	8	9	10	11	12	13	14
862	0.0989851	0.0390106	0.063639	3	4	5	6	7	8	9	10	11	12	13	14
872	0.0991117	0.0389424	0.0636959	3	4	5	6	7	8	9	10	11	12	13	14
882	0.0991832	0.0389609	0.0637661	3	4	5	6	7	8	9	10	11	12	13	14
892	0.0992486	0.0389709	0.0639162	3	4	5	6	7	8	9	10	11	12	13	14
902	0.0992989	0.0389909	0.0640105	3	4	5	6	7	8	9	10	11	12	13	14
912	0.0993298	0.0390999	0.0640387	3	4	5	6	7	8	9	10	11	12	13	14
922	0.0994144	0.0391329	0.0640758	3	4	5	6	7	8	9	10	11	12	13	14
932	0.0995399	0.0391786	0.0640835	3	4	5	6	7	8	9	10	11	12	13	14
943	0.0996215	0.0391719	0.0640566	3	4	5	6	7	8	9	10	11	12	13	14
953	0.0997114	0.039134	0.0640719	3	4	5	6	7	8	9	10	11	12	13	14
963	0.0997682	0.0391478	0.0641672	3	4	5	6	7	8	9	10	11	12	13	14
973	0.0998081	0.0391616	0.0641947	3	4	5	6	7	8	9	10	11	12	13	14
983	0.0998396	0.0392481	0.0641677	3	4	5	6	7	8	9	10	11	12	13	14
993	0.0999888	0.0392313	0.0642173	3	4	5	6	7	8	9	10	11	12	13	14
1003	0.100107	0.0391875	0.0642491	3	4	5	6	7	8	9	10	11	12	13	14
1013	0.10022	0.0392476	0.0643611	3	4	5	6	7	8	9	10	11	12	13	14
1023	0.100286	0.0392758	0.0644562	3	4	5	6	7	8	9	10	11	12	13	14
1033	0.100249	0.0392915	0.0645495	3	4	5	6	7	8	9	10	11	12	13	14
1043	0.100278	0.0392877	0.0646433	3	4	5	6	7	8	9	10	11	12	13	14
1053	0.100288	0.0392972	0.0647031	3	4	5	6	7	8	9	10	11	12	13	14
1063	0.100364	0.0393192	0.064768	3	4	5	6	7	8	9	10	11	12	13	14
1074	0.100519	0.0393664	0.0647493	3	4	5	6	7	8	9	10	11	12	13	14
1084	0.100565	0.0393668	0.0647305	3	4	5	6	7	8	9	10	11	12	13	14
1094	0.10069	0.0394274	0.0647391	3	4	5	6	7	8	9	10	11	12	13	14
1104	0.100822	0.0393631	0.0647477	3	4	5	6	7	8	9	10	11	12	13	14
1114	0.10081	0.0393546	0.0647286	3	4	5	6	7	8	9	10	11	12	13	14
1124	0.100945	0.0394055	0.0646988	3	4	5	6	7	8	9	10	11	12	13	14
1134	0.101041	0.0394649	0.0647113	3	4	5	6	7	8	9	10	11	12	13	14
1144	0.101115	0.0394395	0.0647458	3	4	5	6	7	8	9	10	11	12	13	14
1154	0.101183	0.0394516	0.0647657	3	4	5	6	7	8	9	10	11	12	13	14
1164	0.101248	0.0394684	0.0648075	3	4	5	6	7	8	9	10	11	12	13	14
1174	0.101273	0.0394792	0.0648812	3	4	5	6	7	8	9	10	11	12	13	14
1184	0.101309	0.0395041	0.0649983	3	4	5	6	7	8	9	10	11	12	13	14
1194	0.101324	0.0395216	0.0650284	3	4	5	6	7	8	9	10	11	12	13	14
1204	0.101431	0.0395662	0.0651323	3	4	5	6	7	8	9	10	11	12	13	14
1215	0.101509	0.0396293	0.0652067	3	4	5	6	7	8	9	10	11	12	13	14
1225	0.101575	0.0396826	0.0652041	3	4	5	6	7	8	9	10	11	12	13	14
1235	0.101684	0.0396904	0.0652273	3	4	5	6	7	8	9	10	11	12	13	14
1245	0.101692	0.0396361	0.0653081	3	4	5	6	7	8	9	10	11	12	13	14
1255	0.101679	0.0396233	0.0654227	3	4	5	6	7	8	9	10	11	12	13	14
1265	0.101733	0.0396335	0.0654599	3	4	5	6	7	8	9	10	11	12	13	14
1275	0.101793	0.0396593	0.0654494	3	4	5	6	7	8	9	10	11	12	13	14
1285	0.101885	0.0396185	0.0654411	3	4	5	6	7	8	9	10	11	12	13	14
1295	0.101946	0.0395845	0.0654595	3	4	5	6	7	8	9	10	11	12	13	14
1305	0.101983	0.0395755	0.0655456	3	4	5	6	7	8	9	10	11	12	13	14
1315	0.102216	0.0396356	0.0656085	3	4	5	6	7	8	9	10	11	12	13	14
1325	0.0998686	0.039737	0.0657111	3	4	5	6	7	8	9	10	11	12	13	14
1335	0.0999085	0.0396996	0.0657551	3	4	5	6	7	8	9	10	11	12	13	14
1345	0.099961	0.0397008	0.0657618	3	4	5	6	7	8	9	10	11	12	13	14
1356	0.0999685	0.0396622	0.065873	3	4	5	6	7	8	9	10	11	12	13	14
1366	0.100074	0.0396049	0.0658965	3	4	5	6	7	8	9	10	11	12	13	14
1376	0.100049	0.0395799	0.0658873	3	4	5	6	7	8	9	10	11	12	13	14
1386	0.10018	0.0395671	0.0659682	3	4	5	6	7	8	9	10	11	12	13	14
1396	0.100227	0.0395699	0.0659864	3	4	5	6	7	8	9	10	11	12	13	14
1406	0.100358	0.0395888	0.0659962	3	4	5	6	7	8	9	10	11	12	13	14
1416	0.100485	0.0396786	0.0659448	3	4	5	6	7	8	9	10	11	12	13	14
1426	0.100495	0.0397058	0.0659573	3	4	5	6	7	8	9	10	11	12	13	14
1436	0.100482	0.0397461	0.0660176	3	4	5	6	7	8	9	10	11	12	13	14
1446	0.100547	0.0397215	0.0661276	3	4	5	6	7	8	9	10	11	12	13	14
1456	0.100612	0.0397172	0.066174	3	4	5	6	7	8	9	10	11	12	13	14
1466	0.10065	0.0397872	0.066195	3	4	5	6	7	8	9	10	11	12	13	14
1476	0.100652	0.0397823	0.0662583	3	4	5	6	7	8	9	10	11	12	13	14
1486	0.10076	0.0398473	0.066333	3	4	5	6	7	8	9	10	11	12	13	14
1497	0.100809	0.0398662	0.0664833	3	4	5	6	7	8	9	10	11	12	13	14
1507	0.10088	0.0399823	0.066664	3	4	5	6	7	8	9	10	11	12	13	14
1517	0.100899	0.0400274	0.0667328	3	4	5	6	7	8	9	10	11	12	13	14
1527	0.100991	0.0401287	0.0667006	3	4	5	6	7	8	9	10	11	12	13	14
1537	0.101036	0.0401168	0.0667113	3	4	5	6	7	8	9	10	11	12	13	14
1547	0.101119	0.040166	0.0667905	3	4	5	6	7	8	9	10	11	12	13	14
1557	0.101189	0.0401318	0.0668259	3	4	5	6	7	8	9	10	11	12	13	14
1567	0.101194	0.0400915	0.0668282	3	4	5	6	7	8	9	10	11	12	13	14
1577	0.101181	0.0401434	0.0668317	3	4	5	6	7	8	9	10	11	12	13	14
1587	0.101214	0.0401624	0.0668952	3	4	5	6	7	8	9	10	11	12	13	14
1597	0.101202	0.0402013	0.0669198	3	4	5	6	7	8	9	10	11	12	13	14
1607	0.101287	0.0402278	0.066927	3	4	5	6	7	8	9	10	11	12	13	14
1617	0.10137	0.0402638	0.0670001	3	4	5	6	7	8	9	10	11	12	13	14
1627	0.101452	0.0402712	0.0670274	3	4	5	6	7	8	9	10	11	12	13	14
1637	0.101467	0.0402924	0.067086	3	4	5	6	7	8	9	10	11	12	13	14
1648	0.101523	0.0402939	0.0671839	3	4	5	6	7	8	9	10	11	12	13	14
1658	0.101601	0.0402614	0.0672608	3	4	5	6	7	8	9	10	11	12	13	14
1668	0.101653	0.0402794	0.0671839	3	4	5	6	7	8	9	10	11	12	13	14
1678	0.101675	0.0403143	0.0672848	3	4	5	6	7	8	9	10	11	12	13	14
1688	0.101749	0.0403347	0.0672696	3	4	5	6	7	8	9	10	11	12	13	14
1698	0.101788	0.0404174	0.0672842	3	4	5	6	7	8	9	10	11	12	13	14
1708	0.101853	0.0404314	0.0672639	3	4	5	6	7	8	9	10	11	12	13	14
1718	0.101944	0.0404151	0.0673369	3	4	5	6	7	8	9	10	11	12	13	14
1728	0.102015	0.0404496	0.0673312	3	4	5	6	7	8	9	10	11	12	13	14
1738	0.102047	0.0405345	0.0673327	3	4	5	6	7	8	9	10	11	12	13	14
1748	0.102074	0.0405039	0.0673705	3	4	5	6	7	8	9	10	11	12	13	14
1758	0.102159	0.0405206	0.0674736	3	4	5	6	7	8	9	10	11	12	13	14
1768	0.102195	0.0405274	0.0674815	3	4	5	6	7	8	9	10	11	12	13	14
1778	0.102217	0.0405463	0.0675756	3	4	5	6	7	8	9	10	11	12	13	14
1789	0.102306	0.0405841	0.0676318	3	4	5	6	7	8	9	10	11	12	13	14
1799	0.102368	0.0405977	0.0677382	3	4	5	6	7	8	9	10	11	12	13	14
1809	0.102482	0.0406425	0.0677715	3	4	5	6	7	8	9	10	11	12	13	14
1819	0.102531	0.0407256	0.0677807	3	4	5	6	7	8	9	10	11	12	13	14
1829	0.10263	0.0407132	0.0677806	3	4	5	6	7	8	9	10	11	12	13	14
1839	0.102627	0.0407021	0.0678053	3	4	5	6	7	8	9	10	11	12	13	14
1849	0.102674	0.0407148	0.0678604	3	4	5	6	7	8	9	10	11	12	13	14
1859	0.102687	0.0407164	0.0679122	3	4	5	6	7	8	9	10	11	12	13	14
1869	0.10273	0.0407003	0.0679154	3	4	5	6	7	8	9	10	11	12	13	14
1879	0.102768	0.0407404	0.0679285	3	4	5	6	7	8	9	10	11	12	13	14
1889	0.102806	0.0407755	0.0679803	3	4	5	6	7	8	9	10	11	12	13	14
1899	0.102919	0.0407768	0.0680487	3	4	5	6	7	8	9	10	11	12	13	14
1909	0.102972	0.0408917	0.0680787	3	4	5	6	7	8	9	10	11	12	13	14
1919	0.103009	0.0409286	0.0681381	3	4	5	6	7	8	9	10	11	12	13	14
1929	0.103161	0.040991	0.0682064	3	4	5	6	7	8	9	10	11	12	13	14
1940	0.103209	0.0410546	0.0682625	3	4	5	6	7	8	9	10	11	12	13	14
1950	0.103216	0.0410455	0.0683556	3	4	5	6	7	8	9	10	11	12	13	14
1960	0.103196	0.0410661	0.0685337	3	4	5	6	7	8	9	10	11	12	13	14
1970	0.103173	0.041098	0.0685481	3	4	5	6	7	8	9	10	11	12	13	14
1980	0.103195	0.0411199	0.0685365	3	4	5	6	7	8	9	10	11	12	13	14
1990	0.103262	0.0411114	0.0684732	3	4	5	6	7	8	9	10	11	12	13	14
2000	0.103384	0.041173	0.0684713	3	4	5	6	7	8	9	10	11	12	13	14
2010	0.103517	0.0412467	0.0684914	3	4	5	6	7	8	9	10	11	12	13	14
2020	0.103536	0.0412631	0.0684803	3	4	5	6	7	8	9	10	11	12	13	14
2030	0.103621	0.0412879	0.0684977	3	4	5	6	7	8	9	10	11	12	13	14
2040	0.103662	0.041247	0.0685073	3	4	5	6	7	8	9	10	11	12	13	14
2050	0.103669	0.0412023	0.0685336	3	4	5	6	7	8	9	10	11	12	13	14
2060	0.103712	0.0412203	0.0685996	3	4	5	6	7	8	9	10	11	12	13	14
2071	0.103756	0.0411753	0.068662	3	4	5	6	7	8	9	10	11	12	13	14
2081	0.103764	0.0411843	0.0687485	3	4	5	6	7	8	9	10	11	12	13	14
2091	0.103796	0.0412293	0.0688042	3	4	5	6	7	8	9	10	11	12	13	14
2101	0.103833	0.041245	0.0688854	3	4	5	6	7	8	9	10	11	12	13	14
2111	0.10388	0.0412771	0.068966	3	4	5	6	7	8	9	10	11	12	13	14
2121	0.103955	0.0412944	0.069001	3	4	5	6	7	8	9	10	11	12	13	14
2131	0.103996	0.0414097	0.0690643	3	4	5	6	7	8	9	10	11	12	13	14
2141	0.103977	0.0413425	0.0690602	3	4	5	6	7	8	9	10	11	12	13	14
2151	0.103962	0.0414083	0.0690094	3	4	5	6	7	8	9	10	11	12	13	14
2161	0.103964	0.0413712	0.0690109	3	4	5	6	7	8	9	10	11	12	13	14
2171	0.103971	0.0413358	0.0690594	3	4	5	6	7	8	9	10	11	12	13	14
2181	0.104045	0.0413422	0.0690951	3	4	5	6	7	8	9	10	11	12	13	14
2191	0.104031	0.0413606	0.0691594	3	4	5	6	7	8	9	10	11	12	13	14
2201	0.10405	0.0413848	0.0691784	3	4	5	6	7	8	9	10	11	12	13	14
2212	0.10407	0.04142	0.0692126	3	4	5	6	7	8	9	10	11	12	13	14
2222	0.104154	0.0415032	0.0692775	3	4	5	6	7	8	9	10	11	12	13	14
2232	0.10426	0.0415394	0.0694085	3	4	5	6	7	8	9	10	11	12	13	14
2242	0.104214	0.0415617	0.0694606	3	4	5	6	7	8	9	10	11	12	13	14
2252	0.104216	0.0415624	0.0695865	3	4	5	6	7	8	9	10	11	12	13	14
2262	0.10426	0.041603	0.0695355	3	4	5	6	7	8	9	10	11	12	13	14
2272	0.104271	0.0416135	0.0694714	3	4	5	6	7	8	9	10	11	12	13	14
2282	0.104305	0.0416296	0.0694212	3	4	5	6	7	8	9	10	11	12	13	14
2292	0.104359	0.0416655	0.0695065	3	4	5	6	7	8	9	10	11	12	13	14
2302	0.104422	0.0416782	0.0694799	3	4	5	6	7	8	9	10	11	12	13	14
2312	0.10449	0.0417393	0.0694898	3	4	5	6	7	8	9	10	11	12	13	14
2322	0.104536	0.0417857	0.0694361	3	4	5	6	7	8	9	10	11	12	13	14
2332	0.104578	0.0417837	0.0694875	3	4	5	6	7	8	9	10	11	12	13	14
2343	0.104526	0.0417403	0.0694473	3	4	5	6	7	8	9	10	11	12	13	14
2353	0.104464	0.0417718	0.0695416	3	4	5	6	7	8	9	10	11	12	13	14
2363	0.104556	0.0417475	0.0696246	3	4	5	6	7	8	9	10	11	12	13	14
2373	0.104548	0.0417512	0.0697076	3	4	5	6	7	8	9	10	11	12	13	14
2383	0.104562	0.0417389	0.0698485	3	4	5	6	7	8	9	10	11	12	13	14
2393	0.104603	0.0417316	0.0699022	3	4	5	6	7	8	9	10	11	12	13	14
2403	0.10468	0.0417637	0.0700014	3	4	5	6	7	8	9	10	11	12	13	14
2413	0.104722	0.0417657	0.0700378	3	4	5	6	7	8	9	10	11	12	13	14
2423	0.104798	0.0418606	0.0699856	3	4	5	6	7	8	9	10	11	12	13	14
2433	0.104895	0.0418854	0.0699835	3	4	5	6	7	8	9	10	11	12	13	14
2443	0.104926	0.0419173	0.0699731	3	4	5	6	7	8	9	10	11	12	13	14
2453	0.104293	0.0419628	0.0699956	3	4	5	6	7	8	9	10	11	12	13	14
2463	0.103695	0.0419706	0.0699775	3	4	5	6	7	8	9	10	11	12	13	14
2473	0.103757	0.041943	0.0699861	3	4	5	6	7	8	9	10	11	12	13	14
2483	0.103846	0.0419262	0.0699821	3	4	5	6	7	8	9	10	11	12	13	14
2494	0.103896	0.0419935	0.0700366	3	4	5	6	7	8	9	10	11	12	13	14
2504	0.103942	0.0420252	0.070108	3	4	5	6	7	8	9	10	11	12	13	14
2514	0.103983	0.0420384	0.07019	3	4	5	6	7	8	9	10	11	12	13	14
2524	0.104045	0.0420805	0.0702814	3	4	5	6	7	8	9	10	11	12	13	14
2534	0.10414	0.0421235	0.0703483	3	4	5	6	7	8	9	10	11	12	13	14
2544	0.104235	0.0421098	0.0704623	3	4	5	6	7	8	9	10	11	12	13	14
2554	0.104277	0.0421459	0.0706088	3	4	5	6	7	8	9	10	11	12	13	14
2564	0.104275	0.0420784	0.0706025	3	4	5	6	7	8	9	10	11	12	13	14
2574	0.104291	0.0420836	0.0705785	3	4	5	6	7	8	9	10	11	12	13	14
2584	0.104362	0.0421275	0.070596	3	4	5	6	7	8	9	10	11	12	13	14
2594	0.104353	0.042172	0.0706281	3	4	5	6	7	8	9	10	11	12	13	14
2604	0.104394	0.0422323	0.0706228	3	4	5	6	7	8	9	10	11	12	13	14
2614	0.104387	0.0422768	0.0706537	3	4	5	6	7	8	9	10	11	12	13	14
2624	0.104513	0.0423489	0.070644	3	4	5	6	7	8	9	10	11	12	13	14
2635	0.104556	0.0423479	0.0706419	3	4	5	6	7	8	9	10	11	12	13	14
2645	0.104524	0.0423471	0.0707577	3	4	5	6	7	8	9	10	11	12	13	14
2655	0.104565	0.0423235	0.0707707	3	4	5	6	7	8	9	10	11	12	13	14
2665	0.104599	0.042315	0.0708278	3	4	5	6	7	8	9	10	11	12	13	14
2675	0.104593	0.0422818	0.0709525	3	4	5	6	7	8	9	10	11	12	13	14
2685	0.104556	0.042285	0.071	3	4	5	6	7	8	9	10	11	12	13	14
2695	0.104618	0.0423054	0.0711265	3	4	5	6	7	8	9	10	11	12	13	14
2705	0.10462	0.0423096	0.0712279	3	4	5	6	7	8	9	10	11	12	13	14
2715	0.104691	0.0423665	0.0712181	3	4	5	6	7	8	9	10	11	12	13	14
2725	0.104788	0.0424583	0.0711849	3	4	5	6	7	8	9	10	11	12	13	14
2735	0.104759	0.0424856	0.0712107	3	4	5	6	7	8	9	10	11	12	13	14
2745	0.104745	0.0425142	0.0712011	3	4	5	6	7	8	9	10	11	12	13	14
2755	0.104755	0.0424733	0.0712222	3	4	5	6	7	8	9	10	11	12	13	14
2765	0.104793	0.0424917	0.0712865	3	4	5	6	7	8	9	10	11	12	13	14
2776	0.104798	0.0425051	0.0713355	3	4	5	6	7	8	9	10	11	12	13	14
2786	0.104826	0.0425293	0.0713708	3	4	5	6	7	8	9	10	11	12	13	14
2796	0.104883	0.0426352	0.0714215	3	4	5	6	7	8	9	10	11	12	13	14
2806	0.104933	0.0426843	0.0714463	3	4	5	6	7	8	9	10	11	12	13	14
2816	0.105008	0.0427148	0.0715072	3	4	5	6	7	8	9	10	11	12	13	14
2826	0.105064	0.0427693	0.0715873	3	4	5	6	7	8	9	10	11	12	13	14
2836	0.105091	0.0427876	0.0717166	3	4	5	6	7	8	9	10	11	12	13	14
2846	0.105054	0.0427828	0.0718094	3	4	5	6	7	8	9	10	11	12	13	14
2856	0.105116	0.042817	0.0719519	3	4	5	6	7	8	9	10	11	12	13	14
2866	0.105239	0.0427982	0.0719223	3	4	5	6	7	8	9	10	11	12	13	14
2876	0.105249	0.0427543	0.0719675	3	4	5	6	7	8	9	10	11	12	13	14
2886	0.105259	0.0427816	0.0719374	3	4	5	6	7	8	9	10	11	12	13	14
2896	0.105267	0.0427643	0.0719854	3	4	5	6	7	8	9	10	11	12	13	14
2906	0.105288	0.0428092	0.0719411	3	4	5	6	7	8	9	10	11	12	13	14
2916	0.105268	0.042877	0.0719283	3	4	5	6	7	8	9	10	11	12	13	14
2927	0.105326	0.0429613	0.0719918	3	4	5	6	7	8	9	10	11	12	13	14
2937	0.105306	0.0429851	0.0720126	3	4	5	6	7	8	9	10	11	12	13	14
2947	0.105338	0.0429903	0.0720686	3	4	5	6	7	8	9	10	11	12	13	14
2957	0.105372	0.0429543	0.0720954	3	4	5	6	7	8	9	10	11	12	13	14
2967	0.105419	0.042991	0.0721765	3	4	5	6	7	8	9	10	11	12	13	14
2977	0.105391	0.0429753	0.0722218	3	4	5	6	7	8	9	10	11	12	13	14
2987	0.1054	0.0429664	0.0723036	3	4	5	6	7	8	9	10	11	12	13	14
2997	0.105408	0.0429245	0.0724221	3	4	5	6	7	8	9	10	11	12	13	14
3007	0.105488	0.0428994	0.0725235	3	4	5	6	7	8	9	10	11	12	13	14
3017	0.105531	0.0429411	0.0725428	3	4	5	6	7	8	9	10	11	12	13	14
3027	0.105546	0.0430389	0.0725034	3	4	5	6	7	8	9	10	11	12	13	14
3037	0.105601	0.0430456	0.0724825	3	4	5	6	7	8	9	10	11	12	13	14
3047	0.105618	0.0430133	0.0724712	3	4	5	6	7	8	9	10	11	12	13	14
3057	0.105657	0.0429746	0.0725646	3	4	5	6	7	8	9	10	11	12	13	14
3067	0.10568	0.0429474	0.0725889	3	4	5	6	7	8	9	10	11	12	13	14
3078	0.105712	0.0430006	0.0726126	3	4	5	6	7	8	9	10	11	12	13	14
3088	0.105806	0.0429977	0.0726851	3	4	5	6	7	8	9	10	11	12	13	14
3098	0.105837	0.0429584	0.072734	3	4	5	6	7	8	9	10	11	12	13	14
3108	0.105893	0.0429783	0.0727799	3	4	5	6	7	8	9	10	11	12	13	14
3118	0.105982	0.0431424	0.0728831	3	4	5	6	7	8	9	10	11	12	13	14
3128	0.106024	0.0431507	0.0729834	3	4	5	6	7	8	9	10	11	12	13	14
3138	0.105934	0.0431281	0.073033	3	4	5	6	7	8	9	10	11	12	13	14
3148	0.105915	0.0432075	0.0731448	3	4	5	6	7	8	9	10	11	12	13	14
3158	0.10585	0.0431753	0.0731214	3	4	5	6	7	8	9	10	11	12	13	14
3168	0.105856	0.0431576	0.0730889	3	4	5	6	7	8	9	10	11	12	13	14
3178	0.105826	0.0431678	0.0731489	3	4	5	6	7	8	9	10	11	12	13	14
3188	0.105873	0.0431823	0.0731564	3	4	5	6	7	8	9	10	11	12	13	14
3198	0.105931	0.0432159	0.0731516	3	4	5	6	7	8	9	10	11	12	13	14
3208	0.105899	0.0432582	0.0731454	3	4	5	6	7	8	9	10	11	12	13	14
3219	0.105966	0.043364	0.0732092	3	4	5	6	7	8	9	10	11	12	13	14
3229	0.106048	0.0434371	0.0731974	3	4	5	6	7	8	9	10	11	12	13	14
3239	0.10604	0.0434033	0.0732639	3	4	5	6	7	8	9	10	11	12	13	14
3249	0.106033	0.0433922	0.073405	3	4	5	6	7	8	9	10	11	12	13	14
3259	0.106021	0.0433839	0.073466	3	4	5	6	7	8	9	10	11	12	13	14
3269	0.10608	0.0433705	0.0735244	3	4	5	6	7	8	9	10	11	12	13	14
3279	0.10611	0.0433517	0.0735886	3	4	5	6	7	8	9	10	11	12	13	14
3289	0.106104	0.0433304	0.0736761	3	4	5	6	7	8	9	10	11	12	13	14
3299	0.106204	0.0434062	0.0737307	3	4	5	6	7	8	9	10	11	12	13	14
3309	0.106217	0.0434323	0.0737229	3	4	5	6	7	8	9	10	11	12	13	14
3319	0.106258	0.0435323	0.0736945	3	4	5	6	7	8	9	10	11	12	13	14
3329	0.106311	0.0435762	0.0737311	3	4	5	6	7	8	9	10	11	12	13	14
3339	0.106246	0.043555	0.0737824	3	4	5	6	7	8	9	10	11	12	13	14
3349	0.106238	0.0435646	0.0737786	3	4	5	6	7	8	9	10	11	12	13	14
3360	0.106223	0.0435572	0.0737401	3	4	5	6	7	8	9	10	11	12	13	14
3370	0.106288	0.0436087	0.0738192	3	4	5	6	7	8	9	10	11	12	13	14
3380	0.106279	0.0436448	0.0738588	3	4	5	6	7	8	9	10	11	12	13	14
3390	0.106293	0.0436679	0.0738796	3	4	5	6	7	8	9	10	11	12	13	14
3400	0.106403	0.04367	0.0738454	3	4	5	6	7	8	9	10	11	12	13	14
3410	0.106431	0.0436918	0.0739541	3	4	5	6	7	8	9	10	11	12	13	14
3420	0.106485	0.0437382	0.0739781	3	4	5	6	7	8	9	10	11	12	13	14
3430	0.106573	0.0438054	0.0740285	3	4	5	6	7	8	9	10	11	12	13	14
3440	0.106533	0.0437869	0.0740117	3	4	5	6	7	8	9	10	11	12	13	14
3450	0.106509	0.0437982	0.0741399	3	4	5	6	7	8	9	10	11	12	13	14
3460	0.106494	0.0438335	0.0741687	3	4	5	6	7	8	9	10	11	12	13	14
3470	0.106518	0.0438662	0.0740682	3	4	5	6	7	8	9	10	11	12	13	14
3480	0.106539	0.0439017	0.0740752	3	4	5	6	7	8	9	10	11	12	13	14
3491	0.10655	0.043923	0.0741389	3	4	5	6	7	8	9	10	11	12	13	14
3501	0.106538	0.0439511	0.0741284	3	4	5	6	7	8	9	10	11	12	13	14
3511	0.106617	0.0440334	0.07414	3	4	5	6	7	8	9	10	11	12	13	14
3521	0.106702	0.0441229	0.0742529	3	4	5	6	7	8	9	10	11	12	13	14
3531	0.106711	0.0441283	0.0742524	3	4	5	6	7	8	9	10	11	12	13	14
3541	0.106738	0.044094	0.0742537	3	4	5	6	7	8	9	10	11	12	13	14
3551	0.106686	0.0440697	0.0743417	3	4	5	6	7	8	9	10	11	12	13	14
3561	0.106745	0.0440986	0.0743505	3	4	5	6	7	8	9	10	11	12	13	14
3571	0.106741	0.0440754	0.0743572	3	4	5	6	7	8	9	10	11	12	13	14
3581	0.106678	0.0440973	0.0744882	3	4	5	6	7	8	9	10	11	12	13	14
3591	0.10543	0.0441524	0.0744905	3	4	5	6	7	8	9	10	11	12	13	14
3601	0.105456	0.044173	0.0745728	3	4	5	6	7	8	9	10	11	12	13	14
3611	0.10558	0.0441754	0.0746179	3	4	5	6	7	8	9	10	11	12	13	14
3621	0.105646	0.0442611	0.0746419	3	4	5	6	7	8	9	10	11	12	13	14
3632	0.105696	0.0443026	0.0746262	3	4	5	6	7	8	9	10	11	12	13	14
3642	0.105674	0.0442238	0.0746423	3	4	5	6	7	8	9	10	11	12	13	14
3652	0.105662	0.0441673	0.0746005	3	4	5	6	7	8	9	10	11	12	13	14
3662	0.105685	0.0441049	0.0746482	3	4	5	6	7	8	9	10	11	12	13	14
3672	0.105677	0.0441651	0.0747079	3	4	5	6	7	8	9	10	11	12	13	14
3682	0.105705	0.0441183	0.0747964	3	4	5	6	7	8	9	10	11	12	13	14
3692	0.105726	0.0441409	0.0748396	3	4	5	6	7	8	9	10	11	12	13	14
3702	0.105797	0.0441686	0.0749049	3	4	5	6	7	8	9	10	11	12	13	14
3712	0.105855	0.04419	0.0749959	3	4	5	6	7	8	9	10	11	12	13	14
3722	0.10592	0.0442443	0.0750864	3	4	5	6	7	8	9	10	11	12	13	14
3732	0.105908	0.0442618	0.0751269	3	4	5	6	7	8	9	10	11	12	13	14
3742	0.105909	0.0442653	0.0751661	3	4	5	6	7	8	9	10	11	12	13	14
3752	0.105847	0.0442196	0.075258	3	4	5	6	7	8	9	10	11	12	13	14
3762	0.10589	0.0442413	0.0752797	3	4	5	6	7	8	9	10	11	12	13	14
3772	0.105868	0.0442724	0.0753052	3	4	5	6	7	8	9	10	11	12	13	14
3783	0.105834	0.0442759	0.0752413	3	4	5	6	7	8	9	10	11	12	13	14
3793	0.105846	0.0442884	0.0752951	3	4	5	6	7	8	9	10	11	12	13	14
3803	0.105905	0.0443104	0.0753375	3	4	5	6	7	8	9	10	11	12	13	14
3813	0.105949	0.0443385	0.0753361	3	4	5	6	7	8	9	10	11	12	13	14
3823	0.106035	0.0443628	0.0753914	3	4	5	6	7	8	9	10	11	12	13	14
3833	0.106002	0.0443024	0.0753878	3	4	5	6	7	8	9	10	11	12	13	14
3843	0.105979	0.0442967	0.0754856	3	4	5	6	7	8	9	10	11	12	13	14
3853	0.105888	0.0442466	0.0756091	3	4	5	6	7	8	9	10	11	12	13	14
3863	0.105904	0.044166	0.0756555	3	4	5	6	7	8	9	10	11	12	13	14
3873	0.105923	0.0441497	0.0757412	3	4	5	6	7	8	9	10	11	12	13	14
3883	0.105985	0.0441795	0.0757998	3	4	5	6	7	8	9	10	11	12	13	14
3893	0.106013	0.0441701	0.0758878	3	4	5	6	7	8	9	10	11	12	13	14
3903	0.106039	0.0441915	0.0760048	3	4	5	6	7	8	9	10	11	12	13	14
3913	0.106059	0.0443246	0.0760586	3	4	5	6	7	8	9	10	11	12	13	14
3924	0.106046	0.0443127	0.0760742	3	4	5	6	7	8	9	10	11	12	13	14
3934	0.10602	0.0443585	0.0761597	3	4	5	6	7	8	9	10	11	12	13	14
3944	0.105982	0.0443705	0.0761646	3	4	5	6	7	8	9	10	11	12	13	14
3954	0.105962	0.0443694	0.0761641	3	4	5	6	7	8	9	10	11	12	13	14
3964	0.105903	0.044373	0.0761417	3	4	5	6	7	8	9	10	11	12	13	14
3974	0.10587	0.0444024	0.0761603	3	4	5	6	7	8	9	10	11	12	13	14
3984	0.10592	0.044413	0.0762044	3	4	5	6	7	8	9	10	11	12	13	14
3994	0.105874	0.044395	0.0762249	3	4	5	6	7	8	9	10	11	12	13	14
4004	0.105858	0.0443985	0.0762995	3	4	5	6	7	8	9	10	11	12	13	14
4014	0.105942	0.0444201	0.0763722	3	4	5	6	7	8	9	10	11	12	13	14
4024	0.106001	0.0445197	0.0765147	3	4	5	6	7	8	9	10	11	12	13	14
4034	0.105946	0.0444698	0.0766424	3	4	5	6	7	8	9	10	11	12	13	14
4044	0.105906	0.0444194	0.0766586	3	4	5	6	7	8	9	10	11	12	13	14
4054	0.105927	0.0444126	0.0767306	3	4	5	6	7	8	9	10	11	12	13	14
4065	0.105909	0.0444643	0.0766856	3	4	5	6	7	8	9	10	11	12	13	14
4075	0.105903	0.0444711	0.0767492	3	4	5	6	7	8	9	10	11	12	13	14
4085	0.105926	0.0444556	0.0767835	3	4	5	6	7	8	9	10	11	12	13	14
4095	0.105947	0.0444505	0.0768046	3	4	5	6	7	8	9	10	11	12	13	14
4105	0.105968	0.0445138	0.0768649	3	4	5	6	7	8	9	10	11	12	13	14
4115	0.106058	0.0445482	0.0768636	3	4	5	6	7	8	9	10	11	12	13	14
4125	0.106137	0.0446048	0.0769524	3	4	5	6	7	8	9	10	11	12	13	14
4135	0.106111	0.0446455	0.0770398	3	4	5	6	7	8	9	10	11	12	13	14
4145	0.106109	0.0446755	0.0771532	3	4	5	6	7	8	9	10	11	12	13	14
4155	0.106158	0.0446563	0.0772383	3	4	5	6	7	8	9	10	11	12	13	14
4165	0.106176	0.0446319	0.0773302	3	4	5	6	7	8	9	10	11	12	13	14
4175	0.106167	0.0445982	0.0773721	3	4	5	6	7	8	9	10	11	12	13	14
4185	0.106229	0.0445917	0.077461	3	4	5	6	7	8	9	10	11	12	13	14
4195	0.106305	0.0445911	0.07753	3	4	5	6	7	8	9	10	11	12	13	14
4206	0.106337	0.044657	0.077637	3	4	5	6	7	8	9	10	11	12	13	14
4216	0.106384	0.0447232	0.0776358	3	4	5	6	7	8	9	10	11	12	13	14
4226	0.106387	0.0447932	0.077604	3	4	5	6	7	8	9	10	11	12	13	14
4236	0.106346	0.0447165	0.0775713	3	4	5	6	7	8	9	10	11	12	13	14
4246	0.106355	0.0446631	0.0776054	3	4	5	6	7	8	9	10	11	12	13	14
4256	0.106319	0.0446031	0.077658	3	4	5	6	7	8	9	10	11	12	13	14
4266	0.106293	0.0446081	0.0777208	3	4	5	6	7	8	9	10	11	12	13	14
4276	0.106228	0.0446814	0.0777975	3	4	5	6	7	8	9	10	11	12	13	14
4286	0.106305	0.0447199	0.0778484	3	4	5	6	7	8	9	10	11	12	13	14
4296	0.106291	0.0447717	0.0778884	3	4	5	6	7	8	9	10	11	12	13	14
4306	0.106323	0.0447999	0.0779194	3	4	5	6	7	8	9	10	11	12	13	14
4316	0.106345	0.0448066	0.0779625	3	4	5	6	7	8	9	10	11	12	13	14
4326	0.106446	0.0449496	0.078005	3	4	5	6	7	8	9	10	11	12	13	14
4336	0.106487	0.0449597	0.0781393	3	4	5	6	7	8	9	10	11	12	13	14
4347	0.106507	0.0449042	0.0782703	3	4	5	6	7	8	9	10	11	12	13	14
4357	0.106499	0.0448503	0.078327	3	4	5	6	7	8	9	10	11	12	13	14
4367	0.10649	0.0448046	0.0782723	3	4	5	6	7	8	9	10	11	12	13	14
4377	0.106443	0.0447881	0.0782979	3	4	5	6	7	8	9	10	11	12	13	14
4387	0.10648	0.0448355	0.0783263	3	4	5	6	7	8	9	10	11	12	13	14
4397	0.106486	0.0448309	0.0783353	3	4	5	6	7	8	9	10	11	12	13	14
4407	0.106572	0.0447977	0.0784092	3	4	5	6	7	8	9	10	11	12	13	14
4417	0.106612	0.0448174	0.0784009	3	4	5	6	7	8	9	10	11	12	13	14
4427	0.106668	0.0448648	0.0783979	3	4	5	6	7	8	9	10	11	12	13	14
4437	0.106577	0.0448014	0.0784595	3	4	5	6	7	8	9	10	11	12	13	14
4447	0.106558	0.0448132	0.0785314	3	4	5	6	7	8	9	10	11	12	13	14
4457	0.106555	0.0448154	0.0785349	3	4	5	6	7	8	9	10	11	12	13	14
4467	0.106508	0.0448332	0.0786071	3	4	5	6	7	8	9	10	11	12	13	14
4477	0.106573	0.044849	0.0786507	3	4	5	6	7	8	9	10	11	12	13	14
4488	0.106513	0.0449038	0.0787754	3	4	5	6	7	8	9	10	11	12	13	14
4498	0.106574	0.044893	0.0788648	3	4	5	6	7	8	9	10	11	12	13	14
4508	0.106635	0.0449426	0.0788692	3	4	5	6	7	8	9	10	11	12	13	14
4518	0.106674	0.0450017	0.0789212	3	4	5	6	7	8	9	10	11	12	13	14
4528	0.106715	0.0450703	0.0789765	3	4	5	6	7	8	9	10	11	12	13	14
4538	0.106631	0.0450083	0.0789891	3	4	5	6	7	8	9	10	11	12	13	14
4548	0.106619	0.0449626	0.0790217	3	4	5	6	7	8	9	10	11	12	13	14
4558	0.106556	0.0449295	0.0790905	3	4	5	6	7	8	9	10	11	12	13	14
4568	0.106565	0.0449067	0.0791354	3	4	5	6	7	8	9	10	11	12	13	14
4578	0.106546	0.0449275	0.0791978	3	4	5	6	7	8	9	10	11	12	13	14
4588	0.106582	0.0449325	0.0792205	3	4	5	6	7	8	9	10	11	12	13	14
4598	0.106558	0.0449274	0.0792786	3	4	5	6	7	8	9	10	11	12	13	14
4608	0.106622	0.0449785	0.0793896	3	4	5	6	7	8	9	10	11	12	13	14
4619	0.10669	0.0450251	0.0795094	3	4	5	6	7	8	9	10	11	12	13	14
4629	0.106758	0.045124	0.0795565	3	4	5	6	7	8	9	10	11	12	13	14
4639	0.106797	0.045129	0.0796489	3	4	5	6	7	8	9	10	11	12	13	14
4649	0.106807	0.0450953	0.0796834	3	4	5	6	7	8	9	10	11	12	13	14
4659	0.106777	0.0450845	0.0797619	3	4	5	6	7	8	9	10	11	12	13	14
4669	0.106787	0.0451256	0.0798137	3	4	5	6	7	8	9	10	11	12	13	14
4679	0.106781	0.0451258	0.0797972	3	4	5	6	7	8	9	10	11	12	13	14
4689	0.106865	0.0451462	0.0798241	3	4	5	6	7	8	9	10	11	12	13	14
4699	0.106891	0.045193	0.0798554	3	4	5	6	7	8	9	10	11	12	13	14
4709	0.106893	0.0452005	0.0798944	3	4	5	6	7	8	9	10	11	12	13	14
4719	0.106972	0.0452292	0.0799408	3	4	5	6	7	8	9	10	11	12	13	14
4729	0.104511	0.0452167	0.0799154	3	4	5	6	7	8	9	10	11	12	13	14
4739	0.104494	0.0452118	0.0799793	3	4	5	6	7	8	9	10	11	12	13	14
4749	0.104493	0.0452076	0.0800056	3	4	5	6	7	8	9	10	11	12	13	14
4759	0.104483	0.0452087	0.0799843	3	4	5	6	7	8	9	10	11	12	13	14
4770	0.104482	0.0451807	0.0800832	3	4	5	6	7	8	9	10	11	12	13	14
4780	0.10447	0.0451741	0.0802606	3	4	5	6	7	8	9	10	11	12	13	14
4790	0.104517	0.0452024	0.080408	3	4	5	6	7	8	9	10	11	12	13	14
4800	0.104541	0.0452556	0.0804646	3	4	5	6	7	8	9	10	11	12	13	14
4810	0.104583	0.0452721	0.0804925	3	4	5	6	7	8	9	10	11	12	13	14
4820	0.104612	0.0452795	0.0804666	3	4	5	6	7	8	9	10	11	12	13	14
4830	0.104643	0.0453453	0.0804788	3	4	5	6	7	8	9	10	11	12	13	14
4840	0.104573	0.0453003	0.0804668	3	4	5	6	7	8	9	10	11	12	13	14
4850	0.10458	0.0452777	0.0805229	3	4	5	6	7	8	9	10	11	12	13	14
4860	0.104573	0.0453008	0.0805069	3	4	5	6	7	8	9	10	11	12	13	14
4870	0.104583	0.0452962	0.0805393	3	4	5	6	7	8	9	10	11	12	13	14
4880	0.104656	0.0453257	0.0806122	3	4	5	6	7	8	9	10	11	12	13	14
4890	0.104632	0.0453229	0.0806803	3	4	5	6	7	8	9	10	11	12	13	14
4901	0.104625	0.0453326	0.0807467	3	4	5	6	7	8	9	10	11	12	13	14
4911	0.10461	0.0454157	0.0807904	3	4	5	6	7	8	9	10	11	12	13	14
4921	0.104676	0.0454468	0.0808526	3	4	5	6	7	8	9	10	11	12	13	14
4931	0.104707	0.0454592	0.0808723	3	4	5	6	7	8	9	10	11	12	13	14
4941	0.104684	0.0454689	0.0809806	3	4	5	6	7	8	9	10	11	12	13	14
4951	0.104777	0.0455014	0.0811071	3	4	5	6	7	8	9	10	11	12	13	14
4961	0.104815	0.0455099	0.0810881	3	4	5	6	7	8	9	10	11	12	13	14
4971	0.104861	0.0455151	0.0811401	3	4	5	6	7	8	9	10	11	12	13	14
4981	0.104951	0.04549	0.0811811	3	4	5	6	7	8	9	10	11	12	13	14
4991	0.105043	0.0455045	0.0812189	3	4	5	6	7	8	9	10	11	12	13	14
5001	0.105138	0.0456252	0.0812558	3	4	5	6	7	8	9	10	11	12	13	14
5011	0.105169	0.0457113	0.0812459	3	4	5	6	7	8	9	10	11	12	13	14
5021	0.105282	0.0457964	0.0813414	3	4	5	6	7	8	9	10	11	12	13	14
5031	0.105313	0.0458182	0.0813874	3	4	5	6	7	8	9	10	11	12	13	14
5042	0.10525	0.0457985	0.0814246	3	4	5	6	7	8	9	10	11	12	13	14
5052	0.105252	0.045835	0.0815278	3	4	5	6	7	8	9	10	11	12	13	14
5062	0.105322	0.0458319	0.0815605	3	4	5	6	7	8	9	10	11	12	13	14
5072	0.105317	0.045785	0.0817034	3	4	5	6	7	8	9	10	11	12	13	14
5082	0.105353	0.045769	0.0817105	3	4	5	6	7	8	9	10	11	12	13	14
5092	0.105415	0.045828	0.0818313	3	4	5	6	7	8	9	10	11	12	13	14
5102	0.105397	0.0458815	0.0820105	3	4	5	6	7	8	9	10	11	12	13	14
5112	0.105458	0.045922	0.0819564	3	4	5	6	7	8	9	10	11	12	13	14
5122	0.105484	0.0459454	0.0819159	3	4	5	6	7	8	9	10	11	12	13	14
5132	0.105513	0.0459839	0.0819469	3	4	5	6	7	8	9	10	11	12	13	14
5142	0.105503	0.0459235	0.0819442	3	4	5	6	7	8	9	10	11	12	13	14
5152	0.105533	0.0458917	0.0819523	3	4	5	6	7	8	9	10	11	12	13	14
5162	0.105573	0.0459067	0.0819155	3	4	5	6	7	8	9	10	11	12	13	14
5172	0.105627	0.0459537	0.0818991	3	4	5	6	7	8	9	10	11	12	13	14
5183	0.105734	0.0459158	0.0819893	3	4	5	6	7	8	9	10	11	12	13	14
5193	0.105699	0.0459188	0.0820213	3	4	5	6	7	8	9	10	11	12	13	14
5203	0.105797	0.0459843	0.0820627	3	4	5	6	7	8	9	10	11	12	13	14
5213	0.105825	0.0460199	0.0821666	3	4	5	6	7	8	9	10	11	12	13	14
5223	0.105949	0.0460811	0.0822389	3	4	5	6	7	8	9	10	11	12	13	14
5233	0.106006	0.0460275	0.0823508	3	4	5	6	7	8	9	10	11	12	13	14
5243	0.106001	0.0460384	0.0823834	3	4	5	6	7	8	9	10	11	12	13	14
5253	0.106005	0.0460096	0.0824902	3	4	5	6	7	8	9	10	11	12	13	14
5263	0.106029	0.0460028	0.0824944	3	4	5	6	7	8	9	10	11	12	13	14
5273	0.106112	0.0459826	0.0825259	3	4	5	6	7	8	9	10	11	12	13	14
5283	0.106182	0.0460171	0.0825987	3	4	5	6	7	8	9	10	11	12	13	14
5293	0.106277	0.0459847	0.0825907	3	4	5	6	7	8	9	10	11	12	13	14
5303	0.106338	0.0459475	0.0825846	3	4	5	6	7	8	9	10	11	12	13	14
5313	0.106369	0.0459671	0.0825885	3	4	5	6	7	8	9	10	11	12	13	14
5324	0.106502	0.046074	0.082675	3	4	5	6	7	8	9	10	11	12	13	14
5334	0.106519	0.0460565	0.0827945	3	4	5	6	7	8	9	10	11	12	13	14
5344	0.106525	0.0461277	0.0827754	3	4	5	6	7	8	9	10	11	12	13	14
5354	0.106533	0.0461282	0.0828679	3	4	5	6	7	8	9	10	11	12	13	14
5364	0.106518	0.0460948	0.0829132	3	4	5	6	7	8	9	10	11	12	13	14
5374	0.10652	0.0460598	0.0830018	3	4	5	6	7	8	9	10	11	12	13	14
5384	0.106531	0.0459784	0.0830532	3	4	5	6	7	8	9	10	11	12	13	14
5394	0.106542	0.0459554	0.0831449	3	4	5	6	7	8	9	10	11	12	13	14
5404	0.106588	0.0460415	0.0832089	3	4	5	6	7	8	9	10	11	12	13	14
5414	0.106675	0.0460696	0.0832532	3	4	5	6	7	8	9	10	11	12	13	14
5424	0.106743	0.0461002	0.0832171	3	4	5	6	7	8	9	10	11	12	13	14
5434	0.106793	0.0462206	0.0832828	3	4	5	6	7	8	9	10	11	12	13	14
5444	0.106848	0.0462727	0.0833517	3	4	5	6	7	8	9	10	11	12	13	14
5454	0.106811	0.0462369	0.0834335	3	4	5	6	7	8	9	10	11	12	13	14
5465	0.106812	0.046321	0.0834534	3	4	5	6	7	8	9	10	11	12	13	14
5475	0.1069	0.0463693	0.0835474	3	4	5	6	7	8	9	10	11	12	13	14
5485	0.106971	0.0463306	0.0835886	3	4	5	6	7	8	9	10	11	12	13	14
5495	0.107055	0.0463551	0.0836301	3	4	5	6	7	8	9	10	11	12	13	14
5505	0.107151	0.0463471	0.083782	3	4	5	6	7	8	9	10	11	12	13	14
5515	0.10723	0.0463394	0.0839191	3	4	5	6	7	8	9	10	11	12	13	14
5525	0.107275	0.0463766	0.0840023	3	4	5	6	7	8	9	10	11	12	13	14
5535	0.107372	0.0465444	0.0841173	3	4	5	6	7	8	9	10	11	12	13	14
5545	0.107367	0.046528	0.0842416	3	4	5	6	7	8	9	10	11	12	13	14
5555	0.107358	0.0464832	0.0842896	3	4	5	6	7	8	9	10	11	12	13	14
5565	0.107382	0.0465127	0.0842734	3	4	5	6	7	8	9	10	11	12	13	14
5575	0.107415	0.0464455	0.0842899	3	4	5	6	7	8	9	10	11	12	13	14
5585	0.107471	0.0464731	0.0842939	3	4	5	6	7	8	9	10	11	12	13	14
5595	0.107509	0.0464958	0.0843214	3	4	5	6	7	8	9	10	11	12	13	14
5606	0.107525	0.0465062	0.0843026	3	4	5	6	7	8	9	10	11	12	13	14
5616	0.107605	0.046493	0.0842866	3	4	5	6	7	8	9	10	11	12	13	14
5626	0.107669	0.0464989	0.0843827	3	4	5	6	7	8	9	10	11	12	13	14
5636	0.10778	0.0465121	0.0844218	3	4	5	6	7	8	9	10	11	12	13	14
5646	0.107841	0.046482	0.0845653	3	4	5	6	7	8	9	10	11	12	13	14
5656	0.107857	0.0464756	0.0846454	3	4	5	6	7	8	9	10	11	12	13	14
5666	0.107883	0.0464846	0.0847315	3	4	5	6	7	8	9	10	11	12	13	14
5676	0.107851	0.046496	0.0848148	3	4	5	6	7	8	9	10	11	12	13	14
5686	0.107926	0.0466259	0.0849085	3	4	5	6	7	8	9	10	11	12	13	14
5696	0.107942	0.0466221	0.0850082	3	4	5	6	7	8	9	10	11	12	13	14
5706	0.107987	0.0466603	0.0850315	3	4	5	6	7	8	9	10	11	12	13	14
5716	0.108032	0.0465941	0.0850433	3	4	5	6	7	8	9	10	11	12	13	14
5726	0.108173	0.0466783	0.085049	3	4	5	6	7	8	9	10	11	12	13	14
5736	0.108245	0.0467037	0.0850143	3	4	5	6	7	8	9	10	11	12	13	14
5746	0.108258	0.0467766	0.0850095	3	4	5	6	7	8	9	10	11	12	13	14
5757	0.108273	0.046774	0.0850177	3	4	5	6	7	8	9	10	11	12	13	14
5767	0.108371	0.0467152	0.0850724	3	4	5	6	7	8	9	10	11	12	13	14
5777	0.108382	0.0467081	0.085058	3	4	5	6	7	8	9	10	11	12	13	14
5787	0.108434	0.0467396	0.0851354	3	4	5	6	7	8	9	10	11	12	13	14
5797	0.108509	0.0467912	0.0852691	3	4	5	6	7	8	9	10	11	12	13	14
5807	0.108605	0.0468321	0.0853371	3	4	5	6	7	8	9	10	11	12	13	14
5817	0.108695	0.0468907	0.0854589	3	4	5	6	7	8	9	10	11	12	13	14
5827	0.108764	0.0469257	0.0855608	3	4	5	6	7	8	9	10	11	12	13	14
5837	0.10881	0.0470068	0.0856506	3	4	5	6	7	8	9	10	11	12	13	14
5847	0.108829	0.0469989	0.0857705	3	4	5	6	7	8	9	10	11	12	13	14
5857	0.108864	0.0469856	0.0859159	3	4	5	6	7	8	9	10	11	12	13	14
5867	0.107671	0.0470423	0.0859228	3	4	5	6	7	8	9	10	11	12	13	14
5877	0.107688	0.0470327	0.0859412	3	4	5	6	7	8	9	10	11	12	13	14
5888	0.107724	0.047046	0.085957	3	4	5	6	7	8	9	10	11	12	13	14
5898	0.107754	0.0470042	0.0859209	3	4	5	6	7	8	9	10	11	12	13	14
5908	0.107821	0.047019	0.0858976	3	4	5	6	7	8	9	10	11	12	13	14
5918	0.107891	0.0470521	0.0859499	3	4	5	6	7	8	9	10	11	12	13	14
5928	0.107996	0.0470935	0.0859576	3	4	5	6	7	8	9	10	11	12	13	14
5938	0.108061	0.0471334	0.0859541	3	4	5	6	7	8	9	10	11	12	13	14
5948	0.108081	0.0471514	0.0859772	3	4	5	6	7	8	9	10	11	12	13	14
5958	0.108094	0.0470904	0.085992	3	4	5	6	7	8	9	10	11	12	13	14
5968	0.108095	0.047094	0.0860902	3	4	5	6	7	8	9	10	11	12	13	14
5978	0.108121	0.0470931	0.086147	3	4	5	6	7	8	9	10	11	12	13	14
5988	0.108167	0.0471653	0.0862318	3	4	5	6	7	8	9	10	11	12	13	14
5998	0.108208	0.0472167	0.0863293	3	4	5	6	7	8	9	10	11	12	13	14
6008	0.108316	0.0472803	0.0863796	3	4	5	6	7	8	9	10	11	12	13	14
6018	0.108388	0.0474679	0.0864552	3	4	5	6	7	8	9	10	11	12	13	14
6028	0.108521	0.0475556	0.0864265	3	4	5	6	7	8	9	10	11	12	13	14
6039	0.108547	0.0476028	0.0865162	3	4	5	6	7	8	9	10	11	12	13	14
6049	0.108509	0.0475985	0.0865285	3	4	5	6	7	8	9	10	11	12	13	14
6059	0.108501	0.0476089	0.0865151	3	4	5	6	7	8	9	10	11	12	13	14
6069	0.108526	0.047587	0.0865791	3	4	5	6	7	8	9	10	11	12	13	14
6079	0.108561	0.0476338	0.0865704	3	4	5	6	7	8	9	10	11	12	13	14
6089	0.108636	0.047583	0.0865338	3	4	5	6	7	8	9	10	11	12	13	14
6099	0.108702	0.0475426	0.0865517	3	4	5	6	7	8	9	10	11	12	13	14
6109	0.108797	0.0475352	0.0865492	3	4	5	6	7	8	9	10	11	12	13	14
6119	0.10881	0.0475442	0.0865868	3	4	5	6	7	8	9	10	11	12	13	14
6129	0.108955	0.0476766	0.0866947	3	4	5	6	7	8	9	10	11	12	13	14
6139	0.109058	0.0477059	0.0867659	3	4	5	6	7	8	9	10	11	12	13	14
6149	0.109044	0.0477124	0.0868282	3	4	5	6	7	8	9	10	11	12	13	14
6159	0.109086	0.0476958	0.0868647	3	4	5	6	7	8	9	10	11	12	13	14
6169	0.109138	0.047696	0.0869182	3	4	5	6	7	8	9	10	11	12	13	14
6180	0.109286	0.0477254	0.0868943	3	4	5	6	7	8	9	10	11	12	13	14
6190	0.109266	0.0477205	0.0869058	3	4	5	6	7	8	9	10	11	12	13	14
6200	0.109285	0.0477173	0.0869784	3	4	5	6	7	8	9	10	11	12	13	14
6210	0.109332	0.0477643	0.0870344	3	4	5	6	7	8	9	10	11	12	13	14
6220	0.109478	0.0478318	0.0870836	3	4	5	6	7	8	9	10	11	12	13	14
6230	0.109561	0.0478702	0.0871546	3	4	5	6	7	8	9	10	11	12	13	14
6240	0.109608	0.0479558	0.0872198	3	4	5	6	7	8	9	10	11	12	13	14
6250	0.109644	0.0479326	0.0872784	3	4	5	6	7	8	9	10	11	12	13	14
6260	0.10965	0.0479259	0.0873703	3	4	5	6	7	8	9	10	11	12	13	14
6270	0.109646	0.0479167	0.0873942	3	4	5	6	7	8	9	10	11	12	13	14
6280	0.109712	0.0479279	0.087547	3	4	5	6	7	8	9	10	11	12	13	14
6290	0.109717	0.0479478	0.0876833	3	4	5	6	7	8	9	10	11	12	13	14
6300	0.10973	0.0478874	0.0877666	3	4	5	6	7	8	9	10	11	12	13	14
6310	0.109771	0.047908	0.0877352	3	4	5	6	7	8	9	10	11	12	13	14
6321	0.109841	0.0479334	0.0877342	3	4	5	6	7	8	9	10	11	12	13	14
6331	0.109963	0.0479942	0.0877026	3	4	5	6	7	8	9	10	11	12	13	14
6341	0.110019	0.0480332	0.0876757	3	4	5	6	7	8	9	10	11	12	13	14
6351	0.110081	0.0479747	0.0876925	3	4	5	6	7	8	9	10	11	12	13	14
6361	0.110117	0.0479175	0.0876494	3	4	5	6	7	8	9	10	11	12	13	14
6371	0.110158	0.0479297	0.0876474	3	4	5	6	7	8	9	10	11	12	13	14
6381	0.110225	0.0479279	0.0876723	3	4	5	6	7	8	9	10	11	12	13	14
6391	0.110241	0.0479124	0.0876979	3	4	5	6	7	8	9	10	11	12	13	14
6401	0.110233	0.0479397	0.0877652	3	4	5	6	7	8	9	10	11	12	13	14
6411	0.110356	0.0479365	0.0878437	3	4	5	6	7	8	9	10	11	12	13	14
6421	0.110412	0.047989	0.0878954	3	4	5	6	7	8	9	10	11	12	13	14
6431	0.110538	0.048002	0.0880181	3	4	5	6	7	8	9	10	11	12	13	14
6441	0.110581	0.0479799	0.0880939	3	4	5	6	7	8	9	10	11	12	13	14
6451	0.110529	0.0479903	0.0881381	3	4	5	6	7	8	9	10	11	12	13	14
6462	0.110625	0.0479361	0.0881684	3	4	5	6	7	8	9	10	11	12	13	14
6472	0.110685	0.0478879	0.0882381	3	4	5	6	7	8	9	10	11	12	13	14
6482	0.110761	0.0479497	0.0882676	3	4	5	6	7	8	9	10	11	12	13	14
6492	0.110806	0.0479936	0.0882601	3	4	5	6	7	8	9	10	11	12	13	14
6502	0.110896	0.0479923	0.0883026	3	4	5	6	7	8	9	10	11	12	13	14
6512	0.110911	0.0479834	0.0883506	3	4	5	6	7	8	9	10	11	12	13	14
6522	0.111043	0.0480321	0.0883871	3	4	5	6	7	8	9	10	11	12	13	14
6532	0.11113	0.0481203	0.0884417	3	4	5	6	7	8	9	10	11	12	13	14
6542	0.111198	0.0481947	0.0885121	3	4	5	6	7	8	9	10	11	12	13	14
6552	0.111278	0.0481881	0.0885581	3	4	5	6	7	8	9	10	11	12	13	14
6562	0.111324	0.0482332	0.0886427	3	4	5	6	7	8	9	10	11	12	13	14
6572	0.111391	0.0481777	0.0887307	3	4	5	6	7	8	9	10	11	12	13	14
6582	0.111451	0.0481548	0.0887831	3	4	5	6	7	8	9	10	11	12	13	14
6592	0.11157	0.0481844	0.0888992	3	4	5	6	7	8	9	10	11	12	13	14
6602	0.111705	0.0481733	0.0889614	3	4	5	6	7	8	9	10	11	12	13	14
6613	0.111849	0.0481436	0.088925	3	4	5	6	7	8	9	10	11	12	13	14
6623	0.111954	0.0481721	0.0888995	3	4	5	6	7	8	9	10	11	12	13	14
6633	0.111994	0.0482614	0.088835	3	4	5	6	7	8	9	10	11	12	13	14
6643	0.112041	0.0482451	0.0888287	3	4	5	6	7	8	9	10	11	12	13	14
6653	0.112119	0.0481843	0.0888855	3	4	5	6	7	8	9	10	11	12	13	14
6663	0.112163	0.0481872	0.088915	3	4	5	6	7	8	9	10	11	12	13	14
6673	0.112225	0.048192	0.0890037	3	4	5	6	7	8	9	10	11	12	13	14
6683	0.11224	0.0482184	0.0890082	3	4	5	6	7	8	9	10	11	12	13	14
6693	0.112304	0.0482387	0.0890739	3	4	5	6	7	8	9	10	11	12	13	14
6703	0.112373	0.0482199	0.0891135	3	4	5	6	7	8	9	10	11	12	13	14
6713	0.112501	0.0482311	0.0891982	3	4	5	6	7	8	9	10	11	12	13	14
6723	0.112541	0.0482632	0.0892784	3	4	5	6	7	8	9	10	11	12	13	14
6733	0.112633	0.0483491	0.0894507	3	4	5	6	7	8	9	10	11	12	13	14
6743	0.112718	0.04839	0.0895404	3	4	5	6	7	8	9	10	11	12	13	14
6754	0.112801	0.0483497	0.0896013	3	4	5	6	7	8	9	10	11	12	13	14
6764	0.112794	0.048346	0.0895677	3	4	5	6	7	8	9	10	11	12	13	14
6774	0.112886	0.048383	0.0896115	3	4	5	6	7	8	9	10	11	12	13	14
6784	0.112973	0.048442	0.0896562	3	4	5	6	7	8	9	10	11	12	13	14
6794	0.113007	0.0484578	0.089661	3	4	5	6	7	8	9	10	11	12	13	14
6804	0.113126	0.0484192	0.0897526	3	4	5	6	7	8	9	10	11	12	13	14
6814	0.113236	0.048418	0.0897399	3	4	5	6	7	8	9	10	11	12	13	14
6824	0.113265	0.048439	0.0897838	3	4	5	6	7	8	9	10	11	12	13	14
6834	0.113317	0.0485034	0.0898167	3	4	5	6	7	8	9	10	11	12	13	14
6844	0.113423	0.0484837	0.0898853	3	4	5	6	7	8	9	10	11	12	13	14
6854	0.11346	0.0484742	0.0900069	3	4	5	6	7	8	9	10	11	12	13	14
6864	0.113603	0.0484628	0.0901059	3	4	5	6	7	8	9	10	11	12	13	14
6874	0.113636	0.0484243	0.0902189	3	4	5	6	7	8	9	10	11	12	13	14
6885	0.113652	0.0484931	0.090347	3	4	5	6	7	8	9	10	11	12	13	14
6895	0.113645	0.0485351	0.0903714	3	4	5	6	7	8	9	10	11	12	13	14
6905	0.113696	0.0485303	0.09041	3	4	5	6	7	8	9	10	11	12	13	14
6915	0.11375	0.0485927	0.0904834	3	4	5	6	7	8	9	10	11	12	13	14
6925	0.113951	0.048623	0.0905158	3	4	5	6	7	8	9	10	11	12	13	14
6935	0.114013	0.0486307	0.0905151	3	4	5	6	7	8	9	10	11	12	13	14
6945	0.114054	0.0486001	0.0905975	3	4	5	6	7	8	9	10	11	12	13	14
6955	0.114019	0.0485874	0.0905788	3	4	5	6	7	8	9	10	11	12	13	14
6965	0.114061	0.0485255	0.0905936	3	4	5	6	7	8	9	10	11	12	13	14
6975	0.11415	0.0485526	0.0906617	3	4	5	6	7	8	9	10	11	12	13	14
6985	0.114228	0.0485432	0.0906977	3	4	5	6	7	8	9	10	11	12	13	14
6995	0.114274	0.0485545	0.0907606	3	4	5	6	7	8	9	10	11	12	13	14
7005	0.114378	0.0485865	0.090843	3	4	5	6	7	8	9	10	11	12	13	14
7015	0.114441	0.0485769	0.0908459	3	4	5	6	7	8	9	10	11	12	13	14
7025	0.114639	0.0486738	0.0909032	3	4	5	6	7	8	9	10	11	12	13	14
7036	0.114764	0.0487413	0.0910517	3	4	5	6	7	8	9	10	11	12	13	14
7046	0.114866	0.0487405	0.0912399	3	4	5	6	7	8	9	10	11	12	13	14
7056	0.114886	0.0487159	0.0912377	3	4	5	6	7	8	9	10	11	12	13	14
7066	0.114977	0.0487434	0.0912781	3	4	5	6	7	8	9	10	11	12	13	14
7076	0.11502	0.0487356	0.0913015	3	4	5	6	7	8	9	10	11	12	13	14
7086	0.115135	0.0487048	0.0913241	3	4	5	6	7	8	9	10	11	12	13	14
7096	0.115149	0.0487092	0.0914074	3	4	5	6	7	8	9	10	11	12	13	14
7106	0.11523	0.0487662	0.0915046	3	4	5	6	7	8	9	10	11	12	13	14
7116	0.115293	0.0487824	0.0915227	3	4	5	6	7	8	9	10	11	12	13	14
7126	0.11533	0.0487953	0.0915337	3	4	5	6	7	8	9	10	11	12	13	14
7136	0.115477	0.0488348	0.0915354	3	4	5	6	7	8	9	10	11	12	13	14
7146	0.115491	0.0488143	0.0915672	3	4	5	6	7	8	9	10	11	12	13	14
7156	0.115576	0.0488015	0.0916642	3	4	5	6	7	8	9	10	11	12	13	14
7167	0.115655	0.0488112	0.0918148	3	4	5	6	7	8	9	10	11	12	13	14
7177	0.115711	0.0488065	0.0918321	3	4	5	6	7	8	9	10	11	12	13	14
7187	0.115746	0.0488365	0.0919462	3	4	5	6	7	8	9	10	11	12	13	14
7197	0.115816	0.0488826	0.0920231	3	4	5	6	7	8	9	10	11	12	13	14
7207	0.115892	0.0488758	0.0920957	3	4	5	6	7	8	9	10	11	12	13	14
7217	0.116003	0.0489617	0.0920428	3	4	5	6	7	8	9	10	11	12	13	14
7227	0.116105	0.04896	0.0920208	3	4	5	6	7	8	9	10	11	12	13	14
7237	0.116175	0.0490235	0.0920715	3	4	5	6	7	8	9	10	11	12	13	14
7247	0.116158	0.0489583	0.0921366	3	4	5	6	7	8	9	10	11	12	13	14
7257	0.116226	0.0489612	0.0921948	3	4	5	6	7	8	9	10	11	12	13	14
7267	0.1163	0.0489437	0.0922639	3	4	5	6	7	8	9	10	11	12	13	14
7277	0.116493	0.0488525	0.0923038	3	4	5	6	7	8	9	10	11	12	13	14
7287	0.116552	0.0488206	0.0923093	3	4	5	6	7	8	9	10	11	12	13	14
7297	0.116592	0.0488087	0.09235	3	4	5	6	7	8	9	10	11	12	13	14
7308	0.116655	0.0488559	0.092451	3	4	5	6	7	8	9	10	11	12	13	14
7318	0.116738	0.0488665	0.0924773	3	4	5	6	7	8	9	10	11	12	13	14
7328	0.11683	0.0488994	0.0925798	3	4	5	6	7	8	9	10	11	12	13	14
7338	0.116934	0.0490308	0.0926744	3	4	5	6	7	8	9	10	11	12	13	14
7348	0.117022	0.0490309	0.0927643	3	4	5	6	7	8	9	10	11	12	13	14
7358	0.117054	0.0490217	0.0927803	3	4	5	6	7	8	9	10	11	12	13	14
7368	0.117096	0.0489626	0.0928579	3	4	5	6	7	8	9	10	11	12	13	14
7378	0.117141	0.0489847	0.0928645	3	4	5	6	7	8	9	10	11	12	13	14
7388	0.117274	0.0490016	0.0928431	3	4	5	6	7	8	9	10	11	12	13	14
7398	0.117357	0.0490622	0.0929179	3	4	5	6	7	8	9	10	11	12	13	14
7409	0.117494	0.0490406	0.0929775	3	4	5	6	7	8	9	10	11	12	13	14
7419	0.117614	0.0491142	0.0930498	3	4	5	6	7	8	9	10	11	12	13	14
7429	0.117715	0.0491413	0.0930514	3	4	5	6	7	8	9	10	11	12	13	14
7439	0.117812	0.0492081	0.0931726	3	4	5	6	7	8	9	10	11	12	13	14
7449	0.117817	0.0491911	0.0932923	3	4	5	6	7	8	9	10	11	12	13	14
7459	0.117878	0.0492215	0.0933884	3	4	5	6	7	8	9	10	11	12	13	14
7469	0.117846	0.0491888	0.0934403	3	4	5	6	7	8	9	10	11	12	13	14
7479	0.117908	0.049217	0.0935413	3	4	5	6	7	8	9	10	11	12	13	14
7489	0.118003	0.0492543	0.0935967	3	4	5	6	7	8	9	10	11	12	13	14
7499	0.118046	0.049273	0.0936399	3	4	5	6	7	8	9	10	11	12	13	14
7509	0.118112	0.049242	0.0937162	3	4	5	6	7	8	9	10	11	12	13	14
7519	0.118216	0.0493199	0.0937769	3	4	5	6	7	8	9	10	11	12	13	14
7529	0.11831	0.049373	0.093796	3	4	5	6	7	8	9	10	11	12	13	14
7539	0.118426	0.0494278	0.0938424	3	4	5	6	7	8	9	10	11	12	13	14
7550	0.118465	0.0494415	0.0939176	3	4	5	6	7	8	9	10	11	12	13	14
7560	0.118528	0.0494425	0.0939983	3	4	5	6	7	8	9	10	11	12	13	14
7570	0.118693	0.049345	0.0940958	3	4	5	6	7	8	9	10	11	12	13	14
7580	0.118768	0.0493062	0.094117	3	4	5	6	7	8	9	10	11	12	13	14
7590	0.118877	0.0492908	0.0941705	3	4	5	6	7	8	9	10	11	12	13	14
7600	0.118966	0.0492676	0.0942183	3	4	5	6	7	8	9	10	11	12	13	14
7610	0.118964	0.0492753	0.0942471	3	4	5	6	7	8	9	10	11	12	13	14
7620	0.119083	0.0493955	0.094391	3	4	5	6	7	8	9	10	11	12	13	14
7630	0.119115	0.0495079	0.094453	3	4	5	6	7	8	9	10	11	12	13	14
7640	0.119218	0.0495205	0.0945997	3	4	5	6	7	8	9	10	11	12	13	14
7650	0.119227	0.0494812	0.0946336	3	4	5	6	7	8	9	10	11	12	13	14
7660	0.119286	0.0495238	0.0946971	3	4	5	6	7	8	9	10	11	12	13	14
7670	0.119338	0.0495521	0.0947343	3	4	5	6	7	8	9	10	11	12	13	14
7680	0.119464	0.0495729	0.0948113	3	4	5	6	7	8	9	10	11	12	13	14
7691	0.119501	0.0495716	0.0948241	3	4	5	6	7	8	9	10	11	12	13	14
7701	0.119575	0.0495558	0.0948476	3	4	5	6	7	8	9	10	11	12	13	14
7711	0.119696	0.0495798	0.0948377	3	4	5	6	7	8	9	10	11	12	13	14
7721	0.119787	0.0495896	0.0948752	3	4	5	6	7	8	9	10	11	12	13	14
7731	0.119817	0.049612	0.0949378	3	4	5	6	7	8	9	10	11	12	13	14
7741	0.119913	0.0496322	0.0949741	3	4	5	6	7	8	9	10	11	12	13	14
7751	0.11996	0.0495975	0.095064	3	4	5	6	7	8	9	10	11	12	13	14
7761	0.119987	0.0496143	0.095142	3	4	5	6	7	8	9	10	11	12	13	14
7771	0.120064	0.0496628	0.09523	3	4	5	6	7	8	9	10	11	12	13	14
7781	0.120182	0.0496684	0.0953207	3	4	5	6	7	8	9	10	11	12	13	14
7791	0.120235	0.0497058	0.0954435	3	4	5	6	7	8	9	10	11	12	13	14
7801	0.120315	0.0496438	0.0954442	3	4	5	6	7	8	9	10	11	12	13	14
7811	0.120389	0.0496353	0.0954213	3	4	5	6	7	8	9	10	11	12	13	14
7821	0.120473	0.0496154	0.0954709	3	4	5	6	7	8	9	10	11	12	13	14
7832	0.120572	0.0497279	0.0955411	3	4	5	6	7	8	9	10	11	12	13	14
7842	0.120675	0.0497285	0.095551	3	4	5	6	7	8	9	10	11	12	13	14
7852	0.120714	0.0497334	0.095524	3	4	5	6	7	8	9	10	11	12	13	14
7862	0.120766	0.0497099	0.0955279	3	4	5	6	7	8	9	10	11	12	13	14
7872	0.120822	0.0496785	0.0955509	3	4	5	6	7	8	9	10	11	12	13	14
7882	0.120873	0.049686	0.0956141	3	4	5	6	7	8	9	10	11	12	13	14
7892	0.121008	0.0496774	0.0957129	3	4	5	6	7	8	9	10	11	12	13	14
7902	0.121035	0.0496388	0.0958152	3	4	5	6	7	8	9	10	11	12	13	14
7912	0.12107	0.0496896	0.0959241	3	4	5	6	7	8	9	10	11	12	13	14
7922	0.121159	0.0497196	0.096048	3	4	5	6	7	8	9	10	11	12	13	14
7932	0.12121	0.0497391	0.0961143	3	4	5	6	7	8	9	10	11	12	13	14
7942	0.121282	0.0497226	0.0963052	3	4	5	6	7	8	9	10	11	12	13	14
7952	0.121273	0.0496937	0.0963701	3	4	5	6	7	8	9	10	11	12	13	14
7962	0.121354	0.0497174	0.0963871	3	4	5	6	7	8	9	10	11	12	13	14
7973	0.121382	0.0497197	0.0963611	3	4	5	6	7	8	9	10	11	12	13	14
7983	0.12142	0.0497191	0.0963514	3	4	5	6	7	8	9	10	11	12	13	14
7993	0.121442	0.0497485	0.0963781	3	4	5	6	7	8	9	10	11	12	13	14
8003	0.121489	0.0497794	0.0963996	3	4	5	6	7	8	9	10	11	12	13	14
8013	0.12155	0.0498042	0.0964692	3	4	5	6	7	8	9	10	11	12	13	14
8023	0.12167	0.0498739	0.0965072	3	4	5	6	7	8	9	10	11	12	13	14
8033	0.121801	0.0499386	0.0965166	3	4	5	6	7	8	9	10	11	12	13	14
8043	0.121785	0.0498564	0.0965383	3	4	5	6	7	8	9	10	11	12	13	14
8053	0.121739	0.0499225	0.096584	3	4	5	6	7	8	9	10	11	12	13	14
8063	0.121818	0.0499208	0.0966357	3	4	5	6	7	8	9	10	11	12	13	14
8073	0.121846	0.0499093	0.0967247	3	4	5	6	7	8	9	10	11	12	13	14
8083	0.121906	0.0499581	0.0968548	3	4	5	6	7	8	9	10	11	12	13	14
8093	0.122005	0.0499605	0.0969987	3	4	5	6	7	8	9	10	11	12	13	14
8103	0.122124	0.0500072	0.0970479	3	4	5	6	7	8	9	10	11	12	13	14
8114	0.122202	0.0500188	0.0970558	3	4	5	6	7	8	9	10	11	12	13	14
8124	0.12227	0.050123	0.0970807	3	4	5	6	7	8	9	10	11	12	13	14
8134	0.122386	0.0501342	0.0970718	3	4	5	6	7	8	9	10	11	12	13	14
8144	0.1224	0.0501275	0.0971079	3	4	5	6	7	8	9	10	11	12	13	14
8154	0.122455	0.0501003	0.0970735	3	4	5	6	7	8	9	10	11	12	13	14
8164	0.122497	0.0501211	0.0971936	3	4	5	6	7	8	9	10	11	12	13	14
8174	0.122546	0.0501681	0.0971812	3	4	5	6	7	8	9	10	11	12	13	14
8184	0.122555	0.0501677	0.0972055	3	4	5	6	7	8	9	10	11	12	13	14
8194	0.122598	0.0501863	0.0971782	3	4	5	6	7	8	9	10	11	12	13	14
8204	0.122652	0.0501987	0.0972308	3	4	5	6	7	8	9	10	11	12	13	14
8214	0.122731	0.0502717	0.0972943	3	4	5	6	7	8	9	10	11	12	13	14
8224	0.122785	0.050386	0.0973265	3	4	5	6	7	8	9	10	11	12	13	14
8234	0.122921	0.0504929	0.0974652	3	4	5	6	7	8	9	10	11	12	13	14
8245	0.122926	0.0504731	0.0976037	3	4	5	6	7	8	9	10	11	12	13	14
8255	0.122919	0.0504303	0.0976209	3	4	5	6	7	8	9	10	11	12	13	14
8265	0.122958	0.0503866	0.097715	3	4	5	6	7	8	9	10	11	12	13	14
8275	0.122995	0.050449	0.0977439	3	4	5	6	7	8	9	10	11	12	13	14
8285	0.123056	0.0504416	0.0978579	3	4	5	6	7	8	9	10	11	12	13	14
8295	0.123107	0.0504742	0.0978061	3	4	5	6	7	8	9	10	11	12	13	14
8305	0.123124	0.0505075	0.0978349	3	4	5	6	7	8	9	10	11	12	13	14
8315	0.123135	0.0505131	0.0978526	3	4	5	6	7	8	9	10	11	12	13	14
8325	0.123157	0.0505632	0.09789	3	4	5	6	7	8	9	10	11	12	13	14
8335	0.123203	0.050583	0.0978763	3	4	5	6	7	8	9	10	11	12	13	14
8345	0.123291	0.0505928	0.0979675	3	4	5	6	7	8	9	10	11	12	13	14
8355	0.123337	0.0505496	0.0980397	3	4	5	6	7	8	9	10	11	12	13	14
8365	0.123353	0.0505574	0.098091	3	4	5	6	7	8	9	10	11	12	13	14
8375	0.123388	0.0505714	0.0981966	3	4	5	6	7	8	9	10	11	12	13	14
8386	0.123472	0.0506158	0.0982899	3	4	5	6	7	8	9	10	11	12	13	14
8396	0.123589	0.0506377	0.098394	3	4	5	6	7	8	9	10	11	12	13	14
8406	0.123646	0.0505803	0.0984162	3	4	5	6	7	8	9	10	11	12	13	14
8416	0.123738	0.050636	0.0984703	3	4	5	6	7	8	9	10	11	12	13	14
8426	0.123736	0.0506549	0.0984968	3	4	5	6	7	8	9	10	11	12	13	14
8436	0.123818	0.050704	0.0985067	3	4	5	6	7	8	9	10	11	12	13	14
8446	0.123801	0.0506884	0.0985138	3	4	5	6	7	8	9	10	11	12	13	14
8456	0.12381	0.0506661	0.0985596	3	4	5	6	7	8	9	10	11	12	13	14
8466	0.123874	0.0506373	0.0986377	3	4	5	6	7	8	9	10	11	12	13	14
8476	0.123884	0.0506757	0.0986641	3	4	5	6	7	8	9	10	11	12	13	14
8486	0.123924	0.0506786	0.098705	3	4	5	6	7	8	9	10	11	12	13	14
8496	0.123937	0.0507131	0.098752	3	4	5	6	7	8	9	10	11	12	13	14
8506	0.124017	0.0507191	0.0988109	3	4	5	6	7	8	9	10	11	12	13	14
8516	0.124087	0.0507273	0.0989143	3	4	5	6	7	8	9	10	11	12	13	14
8526	0.124184	0.0507832	0.0990365	3	4	5	6	7	8	9	10	11	12	13	14
8537	0.124227	0.0507941	0.0991497	3	4	5	6	7	8	9	10	11	12	13	14
8547	0.124232	0.0508261	0.0992595	3	4	5	6	7	8	9	10	11	12	13	14
8557	0.124263	0.0507889	0.0992068	3	4	5	6	7	8	9	10	11	12	13	14
8567	0.124353	0.0507476	0.0992267	3	4	5	6	7	8	9	10	11	12	13	14
8577	0.124384	0.0507319	0.0992225	3	4	5	6	7	8	9	10	11	12	13	14
8587	0.124467	0.0507908	0.0991667	3	4	5	6	7	8	9	10	11	12	13	14
8597	0.124538	0.0508188	0.0992006	3	4	5	6	7	8	9	10	11	12	13	14
8607	0.124592	0.0508062	0.0992118	3	4	5	6	7	8	9	10	11	12	13	14
8617	0.124701	0.0508472	0.0992388	3	4	5	6	7	8	9	10	11	12	13	14
8627	0.124781	0.0508793	0.0992906	3	4	5	6	7	8	9	10	11	12	13	14
8637	0.124868	0.0509394	0.0993584	3	4	5	6	7	8	9	10	11	12	13	14
8647	0.124863	0.0509675	0.0994278	3	4	5	6	7	8	9	10	11	12	13	14
8657	0.12494	0.0509781	0.0995043	3	4	5	6	7	8	9	10	11	12	13	14
8667	0.124986	0.0508797	0.0995799	3	4	5	6	7	8	9	10	11	12	13	14
8678	0.12504	0.0508469	0.0997537	3	4	5	6	7	8	9	10	11	12	13	14
8688	0.125062	0.0509313	0.0999147	3	4	5	6	7	8	9	10	11	12	13	14
8698	0.125052	0.0509748	0.100051	3	4	5	6	7	8	9	10	11	12	13	14
8708	0.12517	0.0509895	0.100105	3	4	5	6	7	8	9	10	11	12	13	14
8718	0.125237	0.0510754	0.100149	3	4	5	6	7	8	9	10	11	12	13	14
8728	0.125382	0.0511908	0.100212	3	4	5	6	7	8	9	10	11	12	13	14
8738	0.125405	0.0511838	0.1002	3	4	5	6	7	8	9	10	11	12	13	14
8748	0.125381	0.0511826	0.10018	3	4	5	6	7	8	9	10	11	12	13	14
8758	0.125418	0.0512038	0.100195	3	4	5	6	7	8	9	10	11	12	13	14
8768	0.125405	0.0511547	0.100231	3	4	5	6	7	8	9	10	11	12	13	14
8778	0.125523	0.051101	0.100241	3	4	5	6	7	8	9	10	11	12	13	14
8788	0.125576	0.0511416	0.100303	3	4	5	6	7	8	9	10	11	12	13	14
8798	0.125686	0.0512105	0.100422	3	4	5	6	7	8	9	10	11	12	13	14
8808	0.125686	0.0512336	0.100518	3	4	5	6	7	8	9	10	11	12	13	14
8819	0.125789	0.0512316	0.100639	3	4	5	6	7	8	9	10	11	12	13	14
8829	0.125902	0.0512875	0.100767	3	4	5	6	7	8	9	10	11	12	13	14
8839	0.126043	0.051354	0.100829	3	4	5	6	7	8	9	10	11	12	13	14
8849	0.12602	0.0513269	0.100911	3	4	5	6	7	8	9	10	11	12	13	14
8859	0.125999	0.0512833	0.100867	3	4	5	6	7	8	9	10	11	12	13	14
8869	0.125979	0.0512554	0.100891	3	4	5	6	7	8	9	10	11	12	13	14
8879	0.126036	0.0512727	0.10094	3	4	5	6	7	8	9	10	11	12	13	14
8889	0.126059	0.0512675	0.101022	3	4	5	6	7	8	9	10	11	12	13	14
8899	0.126049	0.0512611	0.101031	3	4	5	6	7	8	9	10	11	12	13	14
8909	0.126108	0.0513696	0.101041	3	4	5	6	7	8	9	10	11	12	13	14
8919	0.126191	0.0514303	0.101175	3	4	5	6	7	8	9	10	11	12	13	14
8929	0.126236	0.0514428	0.101248	3	4	5	6	7	8	9	10	11	12	13	14
8939	0.126363	0.0513727	0.101297	3	4	5	6	7	8	9	10	11	12	13	14
8949	0.126445	0.0513146	0.101375	3	4	5	6	7	8	9	10	11	12	13	14
8960	0.126528	0.0513518	0.101444	3	4	5	6	7	8	9	10	11	12	13	14
8970	0.126597	0.0513333	0.101547	3	4	5	6	7	8	9	10	11	12	13	14
8980	0.12665	0.0513546	0.101595	3	4	5	6	7	8	9	10	11	12	13	14
8990	0.126666	0.0513553	0.101716	3	4	5	6	7	8	9	10	11	12	13	14
9000	0.12673	0.0513233	0.101801	3	4	5	6	7	8	9	10	11	12	13	14
9010	0.126836	0.0514157	0.101747	3	4	5	6	7	8	9	10	11	12	13	14
9020	0.126883	0.0514361	0.101725	3	4	5	6	7	8	9	10	11	12	13	14
9030	0.126951	0.0514664	0.101735	3	4	5	6	7	8	9	10	11	12	13	14
9040	0.126981	0.0515134	0.101715	3	4	5	6	7	8	9	10	11	12	13	14
9050	0.126971	0.0514456	0.101735	3	4	5	6	7	8	9	10	11	12	13	14
9060	0.12702	0.0515166	0.101841	3	4	5	6	7	8	9	10	11	12	13	14
9070	0.127053	0.0514863	0.10187	3	4	5	6	7	8	9	10	11	12	13	14
9080	0.127062	0.0515153	0.101927	3	4	5	6	7	8	9	10	11	12	13	14
9090	0.127053	0.0515167	0.101962	3	4	5	6	7	8	9	10	11	12	13	14
9101	0.127091	0.0514976	0.101977	3	4	5	6	7	8	9	10	11	12	13	14
9111	0.127163	0.0515164	0.102081	3	4	5	6	7	8	9	10	11	12	13	14
9121	0.127286	0.0515499	0.102251	3	4	5	6	7	8	9	10	11	12	13	14
9131	0.127361	0.051647	0.102424	3	4	5	6	7	8	9	10	11	12	13	14
9141	0.127371	0.0515831	0.102603	3	4	5	6	7	8	9	10	11	12	13	14
9151	0.127359	0.0515385	0.102637	3	4	5	6	7	8	9	10	11	12	13	14
9161	0.127363	0.0515434	0.102614	3	4	5	6	7	8	9	10	11	12	13	14
9171	0.12737	0.0515946	0.102655	3	4	5	6	7	8	9	10	11	12	13	14
9181	0.127356	0.0516042	0.102683	3	4	5	6	7	8	9	10	11	12	13	14
9191	0.127324	0.0516071	0.102657	3	4	5	6	7	8	9	10	11	12	13	14
9201	0.127405	0.0516037	0.102698	3	4	5	6	7	8	9	10	11	12	13	14
9211	0.127584	0.0516921	0.10266	3	4	5	6	7	8	9	10	11	12	13	14
9221	0.127641	0.0517054	0.102652	3	4	5	6	7	8	9	10	11	12	13	14
9231	0.127728	0.0517335	0.102739	3	4	5	6	7	8	9	10	11	12	13	14
9242	0.12769	0.0517801	0.10277	3	4	5	6	7	8	9	10	11	12	13	14
9252	0.127665	0.0517933	0.102801	3	4	5	6	7	8	9	10	11	12	13	14
9262	0.127678	0.0517625	0.102835	3	4	5	6	7	8	9	10	11	12	13	14
9272	0.125171	0.0517586	0.10298	3	4	5	6	7	8	9	10	11	12	13	14
9282	0.12525	0.051728	0.103134	3	4	5	6	7	8	9	10	11	12	13	14
9292	0.125273	0.0517486	0.103333	3	4	5	6	7	8	9	10	11	12	13	14
9302	0.125305	0.0517663	0.103345	3	4	5	6	7	8	9	10	11	12	13	14
9312	0.125365	0.0517753	0.103325	3	4	5	6	7	8	9	10	11	12	13	14
9322	0.125434	0.0518474	0.103345	3	4	5	6	7	8	9	10	11	12	13	14
9332	0.125516	0.0518799	0.103335	3	4	5	6	7	8	9	10	11	12	13	14
9342	0.125556	0.0518782	0.103336	3	4	5	6	7	8	9	10	11	12	13	14
9352	0.125523	0.0518275	0.103306	3	4	5	6	7	8	9	10	11	12	13	14
9362	0.125556	0.0518465	0.103347	3	4	5	6	7	8	9	10	11	12	13	14
9373	0.125547	0.051787	0.103376	3	4	5	6	7	8	9	10	11	12	13	14
9383	0.125592	0.0517852	0.103375	3	4	5	6	7	8	9	10	11	12	13	14
9393	0.125588	0.0517929	0.103379	3	4	5	6	7	8	9	10	11	12	13	14
9403	0.125633	0.0517617	0.103445	3	4	5	6	7	8	9	10	11	12	13	14
9413	0.125653	0.0517411	0.10353	3	4	5	6	7	8	9	10	11	12	13	14
9423	0.125762	0.0518646	0.103704	3	4	5	6	7	8	9	10	11	12	13	14
9433	0.125853	0.0519566	0.103814	3	4	5	6	7	8	9	10	11	12	13	14
9443	0.125805	0.0519277	0.103922	3	4	5	6	7	8	9	10	11	12	13	14
9453	0.125775	0.0519142	0.103957	3	4	5	6	7	8	9	10	11	12	13	14
9463	0.12581	0.0519375	0.103943	3	4	5	6	7	8	9	10	11	12	13	14
9473	0.125805	0.0519556	0.104012	3	4	5	6	7	8	9	10	11	12	13	14
9483	0.125823	0.0519293	0.104024	3	4	5	6	7	8	9	10	11	12	13	14
9493	0.125841	0.0520068	0.103995	3	4	5	6	7	8	9	10	11	12	13	14
9503	0.12585	0.0520534	0.104029	3	4	5	6	7	8	9	10	11	12	13	14
9514	0.125867	0.0520701	0.104076	3	4	5	6	7	8	9	10	11	12	13	14
9524	0.125935	0.0520853	0.104126	3	4	5	6	7	8	9	10	11	12	13	14
9534	0.126	0.0520929	0.104159	3	4	5	6	7	8	9	10	11	12	13	14
9544	0.125986	0.0520432	0.104229	3	4	5	6	7	8	9	10	11	12	13	14
9554	0.12604	0.052036	0.104291	3	4	5	6	7	8	9	10	11	12	13	14
9564	0.126084	0.0520288	0.104391	3	4	5	6	7	8	9	10	11	12	13	14
9574	0.126123	0.0520418	0.104428	3	4	5	6	7	8	9	10	11	12	13	14
9584	0.126159	0.0520505	0.104497	3	4	5	6	7	8	9	10	11	12	13	14
9594	0.12623	0.0520555	0.104612	3	4	5	6	7	8	9	10	11	12	13	14
9604	0.12627	0.0520877	0.104611	3	4	5	6	7	8	9	10	11	12	13	14
9614	0.12634	0.0521075	0.104642	3	4	5	6	7	8	9	10	11	12	13	14
9624	0.126382	0.0521401	0.104656	3	4	5	6	7	8	9	10	11	12	13	14
9634	0.126515	0.0521451	0.104734	3	4	5	6	7	8	9	10	11	12	13	14
9644	0.126473	0.0521577	0.104787	3	4	5	6	7	8	9	10	11	12	13	14
9655	0.126502	0.0521973	0.104798	3	4	5	6	7	8	9	10	11	12	13	14
